time,step-size,{uavCont}.controller.pitchOut,{uavCont}.controller.rollOut,{uavCont}.controller.throttleOut,{uavCont}.controller.yawOut,{uavCont}.controller2.pitchOut,{uavCont}.controller2.rollOut,{uavCont}.controller2.throttleOut,{uavCont}.controller2.yawOut,{uavCont}.controller3.pitchOut,{uavCont}.controller3.rollOut,{uavCont}.controller3.throttleOut,{uavCont}.controller3.yawOut,{uavGlobalCont}.global.uav1TargetX,{uavGlobalCont}.global.uav1TargetY,{uavGlobalCont}.global.uav1TargetZ,{uavGlobalCont}.global.uav2TargetX,{uavGlobalCont}.global.uav2TargetY,{uavGlobalCont}.global.uav2TargetZ,{uavGlobalCont}.global.uav3TargetX,{uavGlobalCont}.global.uav3TargetY,{uavGlobalCont}.global.uav3TargetZ,{uav}.uav.batteryCharge,{uav}.uav.currentYaw,{uav}.uav.velX,{uav}.uav.velY,{uav}.uav.velZ,{uav}.uav2.batteryCharge,{uav}.uav2.currentYaw,{uav}.uav2.velX,{uav}.uav2.velY,{uav}.uav2.velZ,{uav}.uav3.batteryCharge,{uav}.uav3.currentYaw,{uav}.uav3.velX,{uav}.uav3.velY,{uav}.uav3.velZ
0.0,0.0,0.0,0.0,0.0,0.0,0.0,0.0,0.0,0.0,0.0,0.0,0.0,0.0,0.0,0.0,0.0,0.0,0.0,0.0,0.0,0.0,0.0,6480.0,0.0,0.0,0.0,0.0,6480.0,0.0,0.0,0.0,0.0,6480.0,0.0,0.0,0.0,0.0
0.1,0.1,0.0,0.0,0.0,0.0,0.0,0.0,0.0,0.0,0.0,0.0,0.0,0.0,10.0,10.0,4.0,0.0,0.0,0.0,0.0,0.0,0.0,6480.0,0.0,0.0,0.0,-1.0769745290617336,6480.0,0.0,0.0,0.0,-1.0769745290617336,6480.0,0.0,0.0,0.0,-1.0769745290617336
0.2,0.1,-0.35,0.35,6.1769745290617335,0.0,0.0,0.0,1.0769745290617336,0.0,0.0,0.0,1.0769745290617336,0.0,10.0,10.0,4.0,0.0,0.0,0.0,0.0,0.0,0.0,6480.0,0.0,0.0,0.0,-1.9492758444400105,6480.0,0.0,0.0,0.0,-1.9492758444400105,6480.0,0.0,0.0,0.0,-1.9492758444400105
0.30000000000000004,0.1,-0.35,0.35,7.9492758444400105,0.0,0.0,0.0,1.9492758444400105,0.0,0.0,0.0,1.9492758444400105,0.0,10.0,10.0,4.0,0.0,0.0,0.0,0.0,0.0,0.0,6477.374173061109,0.0,0.2655972882863393,0.2655972882863392,-0.4775783975899437,6477.8102678571395,0.0,0.0,0.0,-0.4404709488438877,6477.8102678571395,0.0,0.0,0.0,-0.4404709488438877
0.4,0.1,-0.35,0.35,7.077578397589943,0.0,0.0,0.0,0.4404709488438877,0.0,0.0,0.0,0.4404709488438877,0.0,10.0,10.0,4.0,0.0,0.0,0.0,0.0,0.0,0.0,6474.293364224209,0.0,0.840778490192529,0.840778490192529,0.8777463617307193,6475.620535714279,0.0,0.0,0.0,1.058437165114366,6475.620535714279,0.0,0.0,0.0,1.058437165114366
0.5,0.1,-0.35,0.35,7.061126819134641,0.0,0.0,0.0,-0.529218582557183,0.0,0.0,0.0,-0.529218582557183,0.0,10.0,10.0,4.0,0.0,0.0,0.0,0.0,0.0,0.0,6471.055474977037,0.0,1.5367084818772143,1.5367084818772143,2.1460535726624124,6474.656022319605,0.0,0.0,0.0,1.1639278961028474,6474.656022319605,0.0,0.0,0.0,1.1639278961028474
0.6,0.1,-0.35,0.35,7.026973213668794,0.0,0.0,0.0,-0.5819639480514237,0.0,0.0,0.0,-0.5819639480514237,0.0,10.0,10.0,4.0,0.0,0.0,0.0,0.0,0.0,0.0,6467.75709515543,0.0,2.274966547645866,2.274966547645866,3.3487728870522178,6474.656022319605,0.0,0.0,0.0,0.1802120576637596,6474.656022319605,0.0,0.0,0.0,0.1802120576637596
0.7,0.1,-0.35,0.35,7.325613556473892,0.0,0.0,0.0,-0.0901060288318798,0.0,0.0,0.0,-0.0901060288318798,0.0,10.0,10.0,4.0,0.0,0.0,0.0,0.0,0.0,0.0,6464.433649246706,0.0,3.019522183282854,3.019522183282854,4.493441756890977,6474.656022319605,0.0,0.0,0.0,-0.7999289394777772,6474.656022319605,0.0,0.0,0.0,-0.7999289394777772
0.7999999999999999,0.1,-0.35,0.35,7.353279121554509,0.0,0.0,0.0,0.7999289394777772,0.0,0.0,0.0,0.7999289394777772,0.0,10.0,10.0,4.0,0.0,0.0,0.0,0.0,0.0,0.0,6461.0993696977175,0.0,3.7519540554364355,3.7519540554364355,5.579172551251621,6474.656022319605,0.0,0.0,0.0,-1.7722549752566825,6474.656022319605,0.0,0.0,0.0,-1.7722549752566825
0.8999999999999999,0.1,-0.35,0.35,7.710413724374188,0.0,0.0,0.0,1.7722549752566825,0.0,0.0,0.0,1.7722549752566825,0.0,10.0,10.0,4.0,0.0,0.0,0.0,0.0,0.0,0.0,6457.760307353448,0.0,4.461791429625552,4.461791429625552,6.601876060792258,6472.904392208829,0.0,0.0,0.0,-0.760328507290981,6472.904392208829,0.0,0.0,0.0,-0.760328507290981
0.9999999999999999,0.1,-0.35,0.35,7.799061969603869,0.0,0.0,0.0,0.760328507290981,0.0,0.0,0.0,0.760328507290981,0.0,10.0,10.0,4.0,0.0,0.0,0.0,0.0,0.0,0.0,6454.419112164768,0.0,5.142528595475819,5.142528595475819,7.55718567645102,6480.714660065969,0.0,0.0,0.0,0.7400762294536493,6480.714660065969,0.0,0.0,0.0,0.7400762294536493
1.0999999999999999,0.1,-0.35,0.35,8.221407161774486,0.0,0.0,0.0,-0.37003811472682463,0.0,0.0,0.0,-0.37003811472682463,0.0,10.0,10.0,4.0,0.0,0.0,0.0,0.0,0.0,0.0,6451.076961434765,0.0,5.789903883880563,5.789903883880563,8.44182697518641,6479.049744294425,0.0,0.0,0.0,1.6385044111862437,6479.049744294425,0.0,0.0,0.0,1.6385044111862437
1.2,0.1,-0.35,0.35,8.379086512406793,0.0,0.0,0.0,-0.8192522055931218,0.0,0.0,0.0,-0.8192522055931218,0.0,10.0,10.0,4.0,0.0,0.0,0.0,0.0,0.0,0.0,6447.734381707124,0.0,6.40112316169373,6.40112316169373,9.254129435702803,6479.049744294425,0.0,0.0,0.0,0.6504103335066589,6479.049744294425,0.0,0.0,0.0,0.6504103335066589
1.3,0.1,-0.35,0.35,8.8729352821486,0.0,0.0,0.0,-0.32520516675332944,0.0,0.0,0.0,-0.32520516675332944,0.0,10.0,10.0,4.0,0.0,0.0,0.0,0.0,0.0,0.0,6444.39160919419,0.0,6.974481665850943,6.974481665850943,9.994088400629703,6479.049744294425,0.0,0.0,0.0,-0.3309934358580506,6479.049744294425,0.0,0.0,0.0,-0.3309934358580506
1.4000000000000001,0.1,-0.35,0.35,9.10295579968515,0.0,0.0,0.0,0.3309934358580506,0.0,0.0,0.0,0.3309934358580506,0.0,10.0,10.0,4.0,0.0,0.0,0.0,0.0,0.0,0.0,6441.048750009156,0.0,7.509150946928236,7.509150946928236,10.663200068331824,6479.049744294425,0.0,0.0,0.0,-1.308234937603291,6479.049744294425,0.0,0.0,0.0,-1.308234937603291
1.5000000000000002,0.1,-0.35,0.35,9.668399965834091,0.0,0.0,0.0,1.308234937603291,0.0,0.0,0.0,1.308234937603291,0.0,10.0,10.0,4.0,0.0,0.0,0.0,0.0,0.0,0.0,6437.705851850691,0.0,8.005031685571245,8.005031685571245,11.264193186437,6478.32495732885,0.0,0.0,0.0,-1.4582519346535683,6478.32495732885,0.0,0.0,0.0,-1.4582519346535683
1.6000000000000003,0.1,-0.35,0.35,9.967903406781506,0.0,0.0,0.0,1.4582519346535683,0.0,0.0,0.0,1.4582519346535683,0.0,10.0,10.0,4.0,0.0,0.0,0.0,0.0,0.0,0.0,6434.362936165702,0.0,8.462632015813481,8.462632015813481,11.800728401029879,6481.13522518599,0.0,0.0,0.0,0.04583764143169147,6481.13522518599,0.0,0.0,0.0,0.04583764143169147
1.7000000000000004,0.1,-0.35,0.35,10.599635799485068,0.0,0.0,0.0,-0.022918820715845736,0.0,0.0,0.0,-0.022918820715845736,0.0,10.0,10.0,4.0,0.0,0.0,0.0,0.0,0.0,0.0,6431.020012598653,0.0,8.882956780814103,8.882956780814103,12.277106311378446,6483.945493043129,0.0,0.0,0.0,1.5424468170102184,6483.945493043129,0.0,0.0,0.0,1.5424468170102184
1.8000000000000005,0.1,-0.35,0.35,10.961446844310785,0.0,0.0,0.0,-0.7712234085051092,0.0,0.0,0.0,-0.7712234085051092,0.0,10.0,10.0,4.0,0.0,0.0,0.0,0.0,0.0,0.0,6427.6770854868055,0.0,9.267404016006703,9.267404016006703,12.698006889378707,6483.945493043129,0.0,0.0,0.0,0.55536122558441,6483.945493043129,0.0,0.0,0.0,0.55536122558441
1.9000000000000006,0.1,-0.35,0.35,11.650996555310657,0.0,0.0,0.0,-0.277680612792205,0.0,0.0,0.0,-0.277680612792205,0.0,10.0,10.0,4.0,0.0,0.0,0.0,0.0,0.0,0.0,6424.334156780744,0.0,9.617669055986823,9.617669055986823,13.068270985762696,6483.945493043129,0.0,0.0,0.0,-0.4257975904607615,6483.945493043129,0.0,0.0,0.0,-0.4257975904607615
2.0000000000000004,0.1,-0.35,0.35,12.065864507118665,0.0,0.0,0.0,0.4257975904607615,0.0,0.0,0.0,0.4257975904607615,0.0,10.0,10.0,4.0,0.0,0.0,0.0,0.0,0.0,0.0,6420.9912273577065,0.0,9.935657749624783,9.935657749624783,13.392726841419355,6483.945493043129,0.0,0.0,0.0,-1.4022201740900528,6483.945493043129,0.0,0.0,0.0,-1.4022201740900528
2.1000000000000005,0.1,-0.35,0.35,12.803636579290337,0.0,0.0,0.0,1.4022201740900528,0.0,0.0,0.0,1.4022201740900528,0.0,10.0,10.0,4.0,8.0,8.0,3.7,0.0,0.0,0.0,6417.31400462786,0.0,10.250603241579515,10.250603241579515,13.702304870352858,6482.919872105931,0.0,0.0,0.0,-1.308767276374253,6482.919872105931,0.0,0.0,0.0,-1.308767276374253
2.2000000000000006,0.1,-0.35,0.35,13.248847564823587,0.0,-0.35,0.35,5.988767276374253,0.0,0.0,0.0,1.308767276374253,0.0,10.0,10.0,4.0,8.0,8.0,3.7,0.0,0.0,0.0,6413.971074728257,0.0,10.507532419291685,10.507532419291685,13.945530955608177,6480.7301399630705,0.0,0.0,0.0,1.129151075463909,6480.7301399630705,0.0,0.0,0.0,1.129151075463909
2.3000000000000007,0.1,-0.35,0.35,14.02723452219593,0.0,-0.35,0.35,4.835424462268046,0.0,0.0,0.0,-0.5645755377319545,0.0,10.0,10.0,4.0,8.0,8.0,3.7,0.0,0.0,0.0,6410.628144768441,0.0,10.738669494367093,10.738669494367093,14.156636395256177,6483.10431302418,0.0,0.2656275374529731,0.2656275374529731,2.5744728720441876,6483.54040782021,0.0,0.0,0.0,2.6114059817387805
2.400000000000001,0.1,-0.35,0.35,14.52168180237193,0.0,-0.35,0.35,4.592763563977907,0.0,0.0,0.0,-1.3057029908693902,0.0,10.0,10.0,4.0,8.0,8.0,3.7,0.0,0.0,0.0,6407.285214781548,0.0,10.946105103078319,10.946105103078319,14.339412841676284,6480.023504187279,0.0,0.8409774349545937,0.8409774349545937,3.878061108662957,6483.54040782021,0.0,0.0,0.0,1.607457232942522
2.500000000000001,0.1,-0.35,0.35,15.330293579161879,0.0,-0.35,0.35,4.660969445668522,0.0,0.0,0.0,-0.803728616471261,0.0,10.0,10.0,4.0,8.0,8.0,3.7,0.0,0.0,0.0,6403.942284782477,0.0,11.131865180894838,11.131865180894838,14.497308384606328,6476.785614940108,0.0,1.537182006349048,1.537182006349048,5.0586389983301885,6483.54040782021,0.0,0.0,0.0,0.6198642587047949
2.600000000000001,0.1,-0.35,0.35,15.851345807696859,0.0,-0.35,0.35,4.550680500834907,0.0,0.0,0.0,-0.30993212935239745,0.0,10.0,10.0,4.0,8.0,8.0,3.7,0.0,0.0,0.0,6400.599354777929,0.0,11.297887015065724,11.297887015065724,14.633429672664336,6473.4872351185,0.0,2.275728098426558,2.275728098426558,6.142970536173614,6483.54040782021,0.0,0.0,0.0,-0.36145872128159034
2.700000000000001,0.1,-0.35,0.35,16.683285163667858,0.0,-0.35,0.35,4.728514731913195,0.0,0.0,0.0,0.36145872128159034,0.0,10.0,10.0,4.0,8.0,8.0,3.7,0.0,0.0,0.0,6397.256424770919,0.0,11.446002662976786,11.446002662976786,14.75055408872258,6470.163789209777,0.0,3.0205688330097367,3.0205688330097367,7.144561476587776,6483.54040782021,0.0,0.0,0.0,-1.3384467468611514
2.800000000000001,0.1,-0.35,0.35,17.224722955638736,0.0,-0.35,0.35,4.707719261706114,0.0,0.0,0.0,1.3384467468611514,0.0,10.0,10.0,4.0,8.0,8.0,3.7,0.0,0.0,0.0,6393.9134947628,0.0,11.57792850805279,11.57792850805279,14.851148536412241,6466.829509660788,0.0,3.7532737577361384,3.7532737577361384,8.068585180512256,6482.7489100399,0.0,0.0,0.0,-1.4128892625368683
2.9000000000000012,0.1,-0.35,0.35,18.07442573179391,0.0,-0.35,0.35,4.965707409743875,0.0,0.0,0.0,1.4128892625368683,0.0,10.0,10.0,4.0,8.0,8.0,3.7,0.0,0.0,0.0,6390.570564754182,0.0,11.695259793657787,11.695259793657787,14.937392169940212,6463.490447316519,0.0,4.4633666093271795,4.4633666093271795,8.91692618707567,6480.559177897039,0.0,0.0,0.0,0.09102668675814429
3.0000000000000013,0.1,-0.35,0.35,18.631303915029925,0.0,-0.35,0.35,5.021536906462169,0.0,0.0,0.0,-0.045513343379072146,0.0,10.0,10.0,4.0,8.0,8.0,3.7,0.0,0.0,0.0,6387.227634745341,0.0,11.799469085122745,11.799469085122745,15.011201068152314,6460.149252127839,0.0,5.144338227262772,5.144338227262772,9.690854664875907,6478.369445754179,0.0,0.0,0.0,1.5871637705840858
3.1000000000000014,0.1,-0.35,0.35,19.494399465923877,0.0,-0.35,0.35,5.354572667562049,0.0,0.0,0.0,-0.7935818852920429,0.0,10.0,10.0,4.0,8.0,8.0,3.7,0.0,0.0,0.0,6383.884704736398,0.0,11.891907740460724,11.891907740460724,15.074253406554424,6456.807101397835,0.0,5.791924897727221,5.791924897727221,10.392163127905704,6478.369445754179,0.0,0.0,0.0,0.5995967268898721
3.2000000000000015,0.1,-0.35,0.35,20.06287329672282,0.0,-0.35,0.35,5.483918436047151,0.0,0.0,0.0,-0.29979836344493604,0.0,10.0,10.0,4.0,8.0,8.0,3.7,0.0,0.0,0.0,6380.54177472741,0.0,11.9738096067428,11.9738096067428,15.128014122369636,6453.464521670195,0.0,6.403331508037374,6.403331508037374,11.023509961501064,6478.369445754179,0.0,0.0,0.0,-0.3816737765258887
3.3000000000000016,0.1,-0.35,0.35,20.935992938815218,0.0,-0.35,0.35,5.8882450192494735,0.0,0.0,0.0,0.3816737765258887,0.0,10.0,10.0,4.0,8.0,8.0,3.7,0.0,0.0,0.0,6377.198844718401,0.0,12.046296291478358,12.046296291478358,15.173758409773441,6450.121749157261,0.0,6.976853169066316,6.976853169066316,11.588393479952883,6478.369445754179,0.0,0.0,0.0,-1.3584885473565964
3.4000000000000017,0.1,-0.35,0.35,21.513120795113316,0.0,-0.35,0.35,6.085803260023565,0.0,0.0,0.0,1.3584885473565964,0.0,10.0,10.0,4.0,8.0,8.0,3.7,0.0,0.0,0.0,6373.855914709383,0.0,12.110383480464042,12.110383480464042,15.21259364036535,6446.778889972226,0.0,7.511661993785091,7.511661993785091,12.090974427922545,6477.533682417634,0.0,0.0,0.0,-1.3829648825089003
3.5000000000000018,0.1,-0.35,0.35,22.393703179817365,0.0,-0.35,0.35,6.554512786038733,0.0,0.0,0.0,1.3829648825089003,0.0,10.0,10.0,4.0,8.0,8.0,3.7,0.0,0.0,0.0,6370.512984700362,0.0,12.166987882108709,12.166987882108709,15.245479493171198,6443.435991813762,0.0,8.007659765788985,8.007659765788985,12.535855000304803,6475.343950274773,0.0,0.0,0.0,0.12013926857619511
3.600000000000002,0.1,-0.35,0.35,22.977260253414443,0.0,-0.35,0.35,6.812072499847604,0.0,0.0,0.0,-0.060069634288097556,0.0,10.0,10.0,4.0,8.0,8.0,3.7,0.0,0.0,0.0,6367.170054691341,0.0,12.216934471930504,12.216934471930504,15.27324621329901,6440.093076128773,0.0,8.46535612438323,8.46535612438323,12.927866038681929,6473.154218131913,0.0,0.0,0.0,1.6151497614539931
3.700000000000002,0.1,-0.35,0.35,23.863376893350537,0.0,-0.35,0.35,7.3360669806590435,0.0,0.0,0.0,-0.8075748807269966,0.0,10.0,10.0,4.0,8.0,8.0,3.7,0.0,0.0,0.0,6363.82712468232,0.0,12.260963789851152,12.260963789851152,15.296611011179499,6436.750152561724,0.0,8.885757692771396,8.885757692771396,13.271884981653654,6473.154218131913,0.0,0.0,0.0,0.6272714648650913
3.800000000000002,0.1,-0.34780724202976954,0.34780724202976954,24.451694494410294,0.0,-0.35,0.35,7.644057509173181,0.0,0.0,0.0,-0.31363573243254567,0.0,10.0,10.0,4.0,8.0,8.0,3.7,0.0,0.0,0.0,6360.484194673299,0.0,12.299739108024841,12.299739108024841,15.316192675409212,6433.407225449876,0.0,9.270264447586813,9.270264447586813,13.572692021766686,6473.154218131913,0.0,0.0,0.0,-0.35407089833639926
3.900000000000002,0.1,-0.34005217839503166,0.34005217839503166,25.341903662295437,0.0,-0.35,0.35,8.213653989116665,0.0,0.0,0.0,0.35407089833639926,0.0,10.0,10.0,4.0,8.0,8.0,3.7,0.0,0.0,0.0,6357.142586271238,0.0,12.332625072057008,12.332625072057008,15.333546856976962,6430.064296743814,0.0,9.620573728907896,9.620573728907896,13.834864143771435,6473.154218131913,0.0,0.0,0.0,-1.3311212343466825
4.000000000000002,0.1,-0.33347498558859856,0.33347498558859856,25.93322657151156,0.0,-0.31588525421842095,0.31588525421842095,8.56256792811429,0.0,0.0,0.0,1.3311212343466825,0.0,10.0,10.0,4.0,8.0,8.0,3.7,0.0,0.0,0.0,6353.807340145654,0.0,12.35568949217769,12.35568949217769,15.352769067553648,6426.721367320777,0.0,9.938593376688948,9.938593376688948,14.062702957467504,6472.378897704975,0.0,0.0,0.0,-1.4243101288590934
4.100000000000001,0.1,-0.32886210156446216,0.32886210156446216,26.823615466223224,0.0,-0.25228132466221065,0.25228132466221065,9.168648521266258,0.0,0.0,0.0,1.4243101288590934,0.0,10.0,10.0,4.0,8.0,8.0,3.7,6.0,6.0,3.4,6350.482829828646,0.0,12.366272744005014,12.366272744005014,15.376566368755002,6423.399599658921,0.0,10.206820063222098,10.206820063222098,14.27598370833952,6480.189165562115,0.0,0.0,0.0,0.07852814019586901
4.200000000000001,0.1,-0.3267454511989971,0.3267454511989971,27.41171681562255,0.0,-0.1986359873555803,0.1986359873555803,9.54200814583025,0.0,-0.35,0.35,4.220735929902065,0.0,10.0,10.0,4.0,8.0,8.0,3.7,6.0,6.0,3.4,6347.169413856401,0.0,12.365683607816912,12.365683607816912,15.404223927992799,6420.14972645629,0.0,10.38686467704124,10.38686467704124,14.505931088616284,6477.999433419254,0.0,0.0,0.0,1.5747349875195145
4.300000000000001,0.1,-0.32686327843661767,0.32686327843661767,28.29788803600365,0.0,-0.16262706459175202,0.16262706459175202,10.147034455691866,0.0,-0.35,0.35,4.012632506240243,0.0,10.0,10.0,4.0,8.0,8.0,3.7,6.0,6.0,3.4,6343.864764252163,0.0,12.357397106505275,12.357397106505275,15.433348068421127,6417.017587306392,0.0,10.456435944267145,10.456435944267145,14.761856585793133,6475.373606480363,0.0,0.26556055960526004,0.26556055960526004,3.010327670107634
4.4,0.1,-0.32852057869894535,0.32852057869894535,28.88332596578949,0.0,-0.14871281114657098,0.14871281114657098,10.499071707103443,0.0,-0.35,0.35,3.6548361649461834,0.0,10.0,10.0,4.0,8.0,8.0,3.7,6.0,6.0,3.4,6340.565099142192,0.0,12.345646604885454,12.345646604885454,15.46109061267072,6414.015418290798,0.0,10.425267238880858,10.425267238880858,15.029362417524705,6472.292797643463,0.0,0.8406624029529373,0.8406624029529373,4.298147308816677
4.5,0.1,-0.33087067902290945,0.33087067902290945,29.769454693664684,0.0,-0.1549465522238287,0.1549465522238287,11.08531879123766,0.0,-0.35,0.35,3.5509263455916606,0.0,10.0,10.0,4.0,8.0,8.0,3.7,6.0,6.0,3.4,6337.266525046859,0.0,12.334193674596634,12.334193674596634,15.485070602365264,6411.11881391361,0.0,10.325685038406588,10.325685038406588,15.288429295517597,6469.0549083962915,0.0,1.5364970784368785,1.5364970784368783,5.458327165516047
4.6,0.1,-0.33316126508067345,0.33316126508067345,30.357464698817406,0.0,-0.1748629923186824,0.1748629923186824,11.435785352241215,0.0,-0.35,0.35,3.330836417241976,0.0,10.0,10.0,4.0,8.0,8.0,3.7,6.0,6.0,3.4,6333.966036865993,0.0,12.325574882824975,12.325574882824975,15.503868603487266,6408.276939191125,0.0,10.200246820910918,10.200246820910918,15.522938308811394,6465.756528574684,0.0,2.274655453607046,2.274655453607046,6.518973564123172
4.699999999999999,0.1,-0.3348850234350049,0.3348850234350049,31.248065698256397,0.0,-0.19995063581781647,0.19995063581781647,12.038530845594314,0.0,-0.35,0.35,3.3405132179384136,0.0,10.0,10.0,4.0,8.0,8.0,3.7,6.0,6.0,3.4,6330.661990578415,0.0,12.320869746250477,12.320869746250477,15.517143773941246,6405.433722139437,0.0,10.088068942498156,10.088068942498156,15.722861048982661,6462.433082665961,0.0,3.0191127318507975,3.0191127318507975,7.494594768056927
4.799999999999999,0.1,-0.3358260507499047,0.3358260507499047,31.8414281130294,0.0,-0.22238621150036897,0.22238621150036897,12.418569475508681,0.0,-0.35,0.35,3.2127026159715375,0.0,10.0,10.0,4.0,8.0,8.0,3.7,6.0,6.0,3.4,6327.354075868597,0.0,12.319894102942717,12.319894102942717,15.52546503878109,6402.547399069113,0.0,10.014968313564665,10.014968313564665,15.883265895197761,6459.098803116972,0.0,3.751450736184199,3.751450736184199,8.39128501292903
4.899999999999999,0.1,-0.3360211794114565,0.3360211794114565,32.73726748060947,0.0,-0.23700633728706721,0.23700633728706721,13.058367052401131,0.0,-0.35,0.35,3.304357493535486,0.0,10.0,10.0,4.0,8.0,8.0,3.7,6.0,6.0,3.4,6324.042962692303,0.0,12.321638882973808,12.321638882973808,15.529973936499768,6399.599869431294,0.0,9.989714137868924,9.989714137868924,16.00390818918136,6455.759740772703,0.0,4.4612006242068,4.4612006242068,9.211752975956841
4.999999999999998,0.1,-0.3356722234052385,0.3356722234052385,33.33501303175012,0.0,-0.24205717242621527,0.24205717242621527,13.478045905409328,0.0,-0.35,0.35,3.2541235120215806,0.0,10.0,10.0,4.0,8.0,8.0,3.7,6.0,6.0,3.4,6320.729827049661,0.0,12.324767988451239,12.324767988451239,15.532002528441236,6396.594865700238,0.0,10.00615849955476,10.00615849955476,16.08951440060906,6452.4185455840225,0.0,5.141857845796979,5.141857845796979,9.957977654200844
5.099999999999998,0.1,-0.33504640230975236,0.33504640230975236,34.23399873577938,0.0,-0.23876830008904815,0.23876830008904815,14.155242799695474,0.0,-0.35,0.35,3.42101117289958,0.0,10.0,10.0,4.0,8.0,8.0,3.7,6.0,6.0,3.4,6317.415914626243,0.0,12.328035772419623,12.328035772419623,15.532750618090192,6393.549724618376,0.0,10.049028924201407,10.049028924201407,16.14900726793453,6449.076394854019,0.0,5.789161398762485,5.789161398762485,10.632332396468408
5.1999999999999975,0.1,-0.3343928455160756,0.3343928455160756,34.8336246909549,0.0,-0.23019421515971894,0.23019421515971894,14.605496366032735,0.0,-0.35,0.35,3.4438338017657975,0.0,10.0,10.0,4.0,8.0,8.0,3.7,6.0,6.0,3.4,6314.102230294398,0.0,12.330551147779271,12.330551147779271,15.533084983606946,6390.486469492851,0.0,10.10048528030228,10.10048528030228,16.19301100398203,6445.733815126378,0.0,6.400317445024092,6.400317445024092,11.237925061249042
5.299999999999997,0.1,-0.3338897704441459,0.3338897704441459,35.733457508196516,0.0,-0.21990294393954413,0.21990294393954413,15.30349449800898,0.0,-0.35,0.35,3.6810374693754797,0.0,10.0,10.0,4.0,8.0,8.0,3.7,6.0,6.0,3.4,6310.7893808546805,0.0,12.331875860717252,12.331875860717252,15.533474410623718,6387.425242967309,0.0,10.145317090085083,10.145317090085083,16.230783062756675,6442.391042613444,0.0,6.973621220755771,6.973621220755771,11.778577641740073
5.399999999999997,0.1,-0.33362482785654946,0.33362482785654946,36.333262794688125,0.0,-0.21093658198298337,0.21093658198298337,15.764608468621654,0.0,-0.2852757558488459,0.2852757558488459,3.7707111791299637,0.0,10.0,10.0,4.0,8.0,8.0,3.7,6.0,6.0,3.4,6307.477557090125,0.0,12.331986596774431,12.331986596774431,15.534035161849177,6384.3804099057415,0.0,10.173950718285253,10.173950718285253,16.26815263485697,6439.04818342841,0.0,7.508244039133143,7.508244039133143,12.258661093708003
5.4999999999999964,0.1,-0.333602680645114,0.333602680645114,37.232982419075384,0.0,-0.20520985634294941,0.20520985634294941,16.4659236825715,0.0,-0.17835119217337136,0.17835119217337136,4.070669453145998,0.0,10.0,10.0,4.0,8.0,8.0,3.7,6.0,6.0,3.4,6304.166616825399,0.0,12.331152061661552,12.331152061661552,15.53464152112739,6381.358795078161,0.0,10.183306713484988,10.183306713484988,16.30714420800485,6435.746521326331,0.0,7.9663145570225735,7.9663145570225735,12.712588153255288
5.599999999999996,0.1,-0.3337695876676898,0.3337695876676898,37.832679239436274,0.0,-0.20333865730300227,0.20333865730300227,16.92642789599756,0.0,-0.08673708859548546,0.08673708859548546,4.203705923372355,0.0,10.0,10.0,4.0,8.0,8.0,3.7,6.0,6.0,3.4,6300.8562202249395,0.0,12.329779699323586,12.329779699323586,15.535054718168508,6378.359789539537,0.0,10.175916912263235,10.175916912263235,16.34690303661826,6432.583413378508,0.0,8.27493102955095,8.27493102955095,13.187542754619022
5.699999999999996,0.1,-0.334044060135283,0.334044060135283,38.7324726409157,0.0,-0.20481661754735336,0.20481661754735336,17.626548481690847,0.0,-0.02501379408980986,0.02501379408980986,4.506228622690487,0.0,10.0,10.0,4.0,8.0,8.0,3.7,6.0,6.0,3.4,6297.545970512319,0.0,12.328277084401524,12.328277084401524,15.535034451638264,6375.377143941331,0.0,10.157900445708146,10.157900445708146,16.385104109540517,6429.655752284918,0.0,8.388792961099956,8.388792961099956,13.685835085282498
5.799999999999995,0.1,-0.3343445831196954,0.3343445831196954,39.33248277418082,0.0,-0.20841991085837108,0.20841991085837108,18.08744794522972,0.0,-0.0022414077800090304,0.0022414077800090304,4.617082457358748,0.0,10.0,10.0,4.0,8.0,8.0,3.7,6.0,6.0,3.4,6294.235525218113,0.0,12.326956023696686,12.326956023696686,15.5344129654916,6372.40187147842,0.0,10.136524312822665,10.136524312822665,16.419203801591248,6426.9981835696,0.0,8.319520448423333,8.319520448423333,14.173617865506376
5.899999999999995,0.1,-0.3346087952606629,0.3346087952606629,40.232793517254144,0.0,-0.21269513743546709,0.21269513743546709,18.790398099204346,0.0,-0.016095910315333528,0.016095910315333528,4.913191067246808,0.0,10.0,10.0,4.0,8.0,8.0,3.7,6.0,6.0,3.4,6290.924660276187,0.0,12.325988867104055,12.325988867104055,15.533126659661908,6369.425290126065,0.0,10.118055129842272,10.118055129842272,16.447276349427423,6424.562166342406,0.0,8.124273885647352,8.124273885647352,14.619244350775398
5.999999999999995,0.1,-0.334802226579189,0.334802226579189,40.833436670168986,0.0,-0.2163889740315459,0.2163889740315459,19.256361825286255,0.0,-0.05514522287052981,0.05514522287052981,5.050377824612297,0.0,10.0,10.0,4.0,8.0,8.0,3.7,6.0,6.0,3.4,6287.613286100117,0.0,12.325411246834733,12.325411246834733,15.531211461968468,6366.441267364121,0.0,10.106399682561145,10.106399682561145,16.46843574793063,6422.236167266779,0.0,7.8820922670290985,7.8820922670290985,15.00961314354477
6.099999999999994,0.1,-0.3349177506330534,0.3349177506330534,41.734394269015695,0.0,-0.2187200634877713,0.2187200634877713,19.965782126034647,0.0,-0.10358154659418028,0.10358154659418028,5.39519342822761,0.0,10.0,10.0,4.0,8.0,8.0,3.7,6.0,6.0,3.4,6284.301426773495,0.0,12.3251561948046,12.3251561948046,15.528774521211957,6363.447178343312,0.0,10.10270718788456,10.10270718788456,16.48291415267746,6419.895052456808,0.0,7.667219718734011,7.667219718734011,15.344605852603488
6.199999999999994,0.1,-0.33496876103908013,0.33496876103908013,42.335612739393945,0.0,-0.21945856242308803,0.21945856242308803,20.43854292366123,0.0,-0.1465560562531978,0.1465560562531978,5.5876970736982505,0.0,10.0,10.0,4.0,8.0,8.0,3.7,6.0,6.0,3.4,6280.989178918366,0.0,12.325101800618192,12.325101800618192,15.52595637080133,6360.4436439763895,0.0,10.105794973109331,10.105794973109331,16.49186174895474,6417.446057609163,0.0,7.53017034010717,7.53017034010717,15.625578400679098
6.299999999999994,0.1,-0.3349796398763618,0.3349796398763618,43.23702181459925,0.0,-0.21884100537813378,0.21884100537813378,21.154069125522586,0.0,-0.17396593197856602,0.17396593197856602,5.987210799660445,0.0,10.0,10.0,4.0,8.0,8.0,3.7,6.0,6.0,3.4,6277.67666638593,0.0,12.325116940062438,12.325116940062438,15.522895592939607,6357.433484475971,0.0,10.11306535851659,10.11306535851659,16.496951280191528,6414.851278244767,0.0,7.489306107069825,7.489306107069825,15.85205415401695
6.399999999999993,0.1,-0.3349766119875124,0.3349766119875124,43.83855220353011,0.0,-0.21738692829668205,0.21738692829668205,21.63152435990419,0.0,-0.1821387785860351,0.1821387785860351,6.233972922991518,0.0,10.0,10.0,4.0,8.0,8.0,3.7,6.0,6.0,3.4,6274.364002735339,0.0,12.325094914736729,12.325094914736729,15.519703725180213,6354.420410008297,0.0,10.121539533818625,10.121539533818625,16.499914225104398,6412.123625667207,0.0,7.533034737630392,7.533034737630392,16.02650554428752
6.499999999999993,0.1,-0.3349810170526544,0.3349810170526544,44.7401481374098,0.0,-0.21569209323627492,0.21569209323627492,22.35004288744775,0.0,-0.17339305247392156,0.17339305247392156,6.686747227856232,0.0,10.0,10.0,4.0,8.0,8.0,3.7,6.0,6.0,3.4,6271.051267832572,0.0,12.324970877752389,12.324970877752389,15.516453326174815,6351.407858188501,0.0,10.128711236163001,10.128711236163001,16.50215068522771,6409.306786851697,0.0,7.630232105337651,7.630232105337651,16.158542640997776
6.5999999999999925,0.1,-0.3350058244495222,0.3350058244495222,45.34177333691249,0.0,-0.2142577527673999,0.2142577527673999,22.82892465738609,0.0,-0.15395357893246997,0.15395357893246997,6.980728679501103,0.0,10.0,10.0,4.0,8.0,8.0,3.7,6.0,6.0,3.4,6267.738499618656,0.0,12.324724017328245,12.324724017328245,15.513178073039805,6348.3982129742235,0.0,10.133055031212608,10.133055031212608,16.50451247372046,6406.453893786031,0.0,7.74350981213781,7.74350981213781,16.263013110867412
6.699999999999992,0.1,-0.3350551965343511,0.3350551965343511,46.24341096347998,0.0,-0.21338899375747866,0.21338899375747866,23.54774376313971,0.0,-0.1312980375724382,0.1312980375724382,7.468493444566285,0.0,10.0,10.0,4.0,8.0,8.0,3.7,6.0,6.0,3.4,6264.425698247894,0.0,12.324368736180416,12.324368736180416,15.509881242657393,6345.392483077953,0.0,10.134155657368426,10.134155657368426,16.507281538580376,6403.6128824122225,0.0,7.840295474779989,7.840295474779989,16.3540746296091
6.799999999999992,0.1,-0.3351262527639167,0.3351262527639167,46.84505937867118,0.0,-0.2131688685263149,0.2131688685263149,24.02635923070975,0.0,-0.11194090504400234,0.11194090504400234,7.782962685195439,0.0,10.0,10.0,4.0,8.0,8.0,3.7,6.0,6.0,3.4,6261.112837790458,0.0,12.323940319539773,12.323940319539773,15.506548069947282,6342.390399267527,0.0,10.1325255688198,10.1325255688198,16.51029780889481,6400.818095207728,0.0,7.899646685286275,7.899646685286275,16.44041975363639
6.8999999999999915,0.1,-0.33521193609204536,0.33521193609204536,47.74672596502623,0.0,-0.2134948862360404,0.2134948862360404,24.744851095552526,0.0,-0.10007066294274525,0.10007066294274525,8.279790123181794,0.0,10.0,10.0,4.0,8.0,8.0,3.7,6.0,6.0,3.4,6257.799880414445,0.0,12.323480166442025,12.323480166442025,15.503157959090718,6339.390806468195,0.0,10.129235986284316,10.129235986284316,16.513159223555437,6398.085715822641,0.0,7.914751049734075,7.914751049734075,16.524434491497136
6.999999999999991,0.1,-0.33530396671159535,0.33530396671159535,48.34842102045451,0.0,-0.21415280274313675,0.21415280274313675,25.22342038822221,0.0,-0.09704979005318504,0.09704979005318504,8.597782754251421,0.0,10.0,10.0,4.0,8.0,8.0,3.7,6.0,6.0,3.4,6254.486788951747,0.0,12.323024183955258,12.323024183955258,15.49969380573653,6336.392183013287,0.0,10.125501294748096,10.125501294748094,16.51542131878011,6395.412953164781,0.0,7.8915988635106435,7.8915988635106435,16.60440468570111
7.099999999999991,0.1,-0.33539516320894824,0.33539516320894824,49.250153097131594,0.0,-0.21489974105038145,0.214899741050381,25.942289340609868,0.0,-0.1016802272978714,0.1016802272978714,9.097797657149433,0.0,10.0,10.0,4.0,8.0,8.0,3.7,6.0,6.0,3.4,6251.173535398348,0.0,12.322596082903564,12.322596082903562,15.49614721202809,6333.393123308991,0.0,10.122333811618226,10.122333811618224,16.516747631684563,6392.781854781698,0.0,7.844738046003513,7.844738046003513,16.67731648905095
7.19999999999999,0.1,-0.33548078341928766,0.3354807834192872,49.851926393985806,0.0,-0.21553323767635524,0.2155332376763548,26.42162618415764,0.0,-0.1110523907992973,0.1110523907992973,9.421341755474513,0.0,10.0,10.0,4.0,8.0,8.0,3.7,6.0,6.0,3.4,6247.860104616575,0.0,12.322205621850392,12.32220562185039,15.492519708537754,6330.392667170944,0.0,10.120339009975861,10.120339009975861,16.516989245912207,6390.16694257544,0.0,7.7916525212703585,7.7916525212703585,16.740593639461707
7.29999999999999,0.1,-0.33555887562992215,0.3355588756299217,50.753740145730966,0.0,-0.21593219800482766,0.21593219800482766,27.14150537704381,0.0,-0.12166949574592834,0.12166949574592834,9.929703180269133,0.0,10.0,10.0,4.0,8.0,8.0,3.7,6.0,6.0,3.4,6244.54649386504,0.0,12.321850669212642,12.321850669212642,15.488820987861216,6327.3904288166195,0.0,10.119667482845953,10.119667482845953,16.516194037930646,6387.543878468222,0.0,7.747532436121357,7.747532436121357,16.792666510201308
7.39999999999999,0.1,-0.3356298661574715,0.3356298661574715,51.35558950606923,0.0,-0.21606650343080958,0.21606650343080958,27.621902981034587,0.0,-0.13049351277572852,0.13049351277572852,10.263666744899332,0.0,10.0,10.0,4.0,8.0,8.0,3.7,6.0,6.0,3.4,6241.232709568986,0.0,12.321521408963761,12.321521408963763,15.485065534409216,6324.386544553116,0.0,10.12009524506337,10.12009524506337,16.514561718260637,6384.896052639434,0.0,7.721787808041766,7.721787808041766,16.833065487828907
7.499999999999989,0.1,-0.3356957182072473,0.33569571820724775,52.25746723279522,0.0,-0.21598095098732628,0.21598095098732628,28.34271914086959,0.0,-0.1356424383916468,0.1356424383916468,10.783467256085531,0.0,10.0,10.0,4.0,8.0,8.0,3.7,6.0,6.0,3.4,6237.918762950837,0.0,12.321205034767884,12.321205034767885,15.481268973946266,6321.381501178902,0.0,10.121178263202044,10.121178263202044,16.512369435760192,6382.2173402774815,0.0,7.716884535374019,7.716884535374019,16.862501680958097
7.599999999999989,0.1,-0.3357589930464231,0.33575899304642354,52.85936551302669,0.0,-0.21576434735959138,0.21576434735959138,28.823815282119817,0.0,-0.13662309292519614,0.13662309292519614,11.128749159520936,0.0,10.0,10.0,4.0,8.0,8.0,3.7,6.0,6.0,3.4,6234.604665901327,0.0,12.32088967976473,12.32088967976473,15.477445115281212,6318.375920997481,0.0,10.122422349557947,10.122422349557949,16.50989420306823,6379.5111400628575,0.0,7.729299745700931,7.729299745700931,16.88285515190959
7.699999999999989,0.1,-0.33582206404705417,0.33582206404705417,53.76127744235921,0.0,-0.2155155300884104,0.21551553008841084,29.545052898465805,0.0,-0.13414005085981384,0.13414005085981384,11.658572424045191,0.0,10.0,10.0,4.0,8.0,8.0,3.7,6.0,6.0,3.4,6231.290427983108,0.0,12.320566899931732,12.320566899931732,15.473604187193654,6315.370369339086,0.0,10.123421285835684,10.123421285835686,16.50735314594538,6376.787076678155,0.0,7.751837014281828,7.751837014281828,16.896824550883963
7.799999999999988,0.1,-0.33588662001365366,0.33588662001365366,54.36319790640298,0.0,-0.2153157428328627,0.21531574283286314,30.026323427027233,0.0,-0.1296325971436345,0.1296325971436345,12.011587724558005,0.0,10.0,10.0,4.0,8.0,8.0,3.7,6.0,6.0,3.4,6227.976054914493,0.0,12.320232581114647,12.320232581114647,15.469752332951739,6312.365226836789,0.0,10.123936604522434,10.123936604522436,16.504872852131168,6374.057008127095,0.0,7.77634640797656,7.77634640797656,16.907249199111373
7.899999999999988,0.1,-0.3359534837770708,0.3359534837770708,55.26512383352393,0.0,-0.2152126790955129,0.21521267909551334,30.747563573934343,0.0,-0.12473071840468797,0.12473071840468797,12.5463754004443,0.0,10.0,10.0,4.0,8.0,8.0,3.7,6.0,6.0,3.4,6224.661548425875,0.0,12.319886549699294,12.319886549699294,15.46589210731164,6309.360641397705,0.0,10.123914173647737,10.123914173647737,16.50248851164628,6371.3315432226655,0.0,7.796039203537128,7.796039203537128,16.916403283643334
7.999999999999988,0.1,-0.3360226900601413,0.3360226900601413,55.86705394634397,0.0,-0.21521716527045287,0.21521716527045287,31.228755744176794,0.0,-0.12079215929257447,0.12079215929257447,12.901798358178318,0.0,10.0,10.0,4.0,8.0,8.0,3.7,6.0,6.0,3.4,6221.3469070937535,0.0,12.319531382998473,12.319531382998473,15.462023562854991,6306.356551233002,0.0,10.12344988914362,10.123449889143618,16.500165438902652,6368.617705466428,0.0,7.806912272984401,7.806912272984401,16.92558337393041
8.099999999999987,0.1,-0.3360937234003054,0.3360937234003054,56.76898821857229,0.0,-0.21531002217127648,0.21531002217127604,31.94991728054861,0.0,-0.11861754540311997,0.11861754540311997,13.437208313034779,0.0,10.0,10.0,2.8,8.0,8.0,3.7,6.0,6.0,3.4,6218.032127651927,0.0,12.3191709477784,12.3191709477784,15.458145501175848,6303.352754871309,0.0,10.122726372272236,10.122726372272233,16.49783167664955,6365.917970143446,0.0,7.808139712049232,7.808139712049232,16.935100604937823
8.199999999999987,0.1,-0.33616581044432037,0.33616581044432037,55.93092724941186,0.0,-0.21545472554555367,0.21545472554555278,32.431084161675166,0.0,-0.11837205759015368,0.11837205759015368,13.792449697531072,0.0,10.0,10.0,2.8,8.0,8.0,3.7,6.0,6.0,3.4,6214.717206324004,0.0,12.31880909383916,12.31880909383916,15.454256556467046,6300.348998405945,0.0,10.121944200378246,10.121944200378243,16.49541058962086,6363.230615535449,0.0,7.801568343718441,7.801568343718441,16.944565199600973
8.299999999999986,0.1,-0.3362381812321682,0.3362381812321682,56.83287172176625,0.0,-0.21561115992435154,0.21561115992435065,33.15229470518952,0.0,-0.1196863312563119,0.1196863312563119,14.327717400199496,0.0,10.0,10.0,2.8,8.0,8.0,3.7,6.0,6.0,3.4,6211.40213985885,0.0,12.318448759814707,12.318448759814707,15.450355920463155,6297.345053413079,0.0,10.121266492570602,10.1212664925706,16.49284536301506,6360.551069733234,0.0,7.790640647935669,7.790640647935669,16.953266388388403
8.399999999999986,0.1,-0.33631024803705856,0.33631024803705856,57.43482203976819,0.0,-0.21574670148588027,0.21574670148587982,33.63357731849242,0.0,-0.12187187041286629,0.12187187041286629,14.68336680580578,0.0,10.0,10.0,2.8,8.0,8.0,3.7,6.0,6.0,3.4,6208.086926119609,0.0,12.318091571465615,12.318091571465615,15.446443659844743,6294.340768144738,0.0,10.120787413679901,10.120787413679901,16.490111505730955,6357.873727658732,0.0,7.779145146969962,7.779145146969962,16.960500087388642
8.499999999999986,0.1,-0.3363816857068769,0.3363816857068769,58.33677817007739,0.0,-0.21584251726401993,0.21584251726401993,34.35494424713448,0.0,-0.12417097060600768,0.12417097060600768,15.21974995630566,0.0,10.0,10.0,2.8,8.0,8.0,3.7,6.0,6.0,3.4,6204.7715642281555,0.0,12.317737872380176,12.317737872380176,15.44252068655739,6291.336085926898,0.0,10.120526346900558,10.120526346900558,16.487217454799847,6355.193656531039,0.0,7.7701562378233735,7.7701562378233735,16.965786285873925
8.599999999999985,0.1,-0.3364524255239649,0.3364524255239649,58.93873965672106,0.0,-0.21589473061988862,0.21589473061988862,34.83639127260004,0.0,-0.12596875243532546,0.12596875243532546,15.577106857063018,0.0,10.0,10.0,2.8,8.0,8.0,3.7,6.0,6.0,3.4,6201.456054370279,0.0,12.317387044631888,12.317387044631888,15.438588502699119,6288.331034660699,0.0,10.120442512050518,10.12044251205052,16.48419629434862,6352.507741689708,0.0,7.765398961785297,7.765398961785297,16.968974248882926
8.699999999999985,0.1,-0.3365225910736225,0.3365225910736225,59.84070574865019,0.0,-0.21591149758989614,0.21591149758989658,35.55790185282566,0.0,-0.12692020764294076,0.12692020764294076,16.115512875558515,0.0,10.0,10.0,2.8,8.0,8.0,3.7,6.0,6.0,3.4,6198.140397413328,0.0,12.317037953706802,12.317037953706802,15.43464885539861,6285.3256976684015,0.0,10.12046098274838,10.120460982748382,16.481093034185697,6349.815082428415,0.0,7.765109818730116,7.765109818730116,16.970248208130684
8.799999999999985,0.1,-0.33659240925863987,0.33659240925863987,60.44267557230044,0.0,-0.21590780345032368,0.21590780345032412,36.03945348290712,0.0,-0.12697803625397674,0.12697803625397674,16.474875895934638,0.0,10.0,10.0,2.8,8.0,8.0,3.7,6.0,6.0,3.4,6194.824594484349,0.0,12.316689374831936,12.316689374831936,15.430703415032847,6282.320178161097,0.0,10.12050053599957,10.12050053599957,16.47795186297056,6347.1167095640285,0.0,7.7683166590314885,7.7683166590314885,16.97004906853804
8.899999999999984,0.1,-0.3366621250336128,0.3366621250336128,61.344648292483306,0.0,-0.21589989280008615,0.21589989280008615,36.7610240685147,0.0,-0.12633666819370237,0.12633666819370237,17.01497546573096,0.0,10.0,10.0,2.8,8.0,8.0,3.7,6.0,6.0,3.4,6191.5086466196635,0.0,12.316340306930119,12.316340306930119,15.42675354856969,6279.314567978051,0.0,10.120495812450686,10.120495812450685,16.474806658574824,6344.414867838567,0.0,7.773367450854128,7.773367450854128,16.968939668341907
8.999999999999984,0.1,-0.3367319386139762,0.3367319386139762,61.94662322571488,0.0,-0.21590083750986322,0.21590083750986278,37.24259667071257,0.0,-0.12532650982917448,0.12532650982917448,17.375530165829026,0.0,10.0,10.0,2.8,8.0,8.0,3.7,6.0,6.0,3.4,6188.192554545324,0.0,12.315990136067844,12.315990136067844,15.4228002145721,6276.308927365736,0.0,10.12040967642538,10.120409676425378,16.471676357388144,6341.7121576804975,0.0,7.778512590047317,7.778512590047317,16.967456648907966
9.099999999999984,0.1,-0.3368019727864313,0.3368019727864313,62.848599892713665,0.0,-0.21591806471492436,0.21591806471492392,37.964161821305915,0.0,-0.1242974819905367,0.1242974819905367,17.916271675545993,0.0,10.0,10.0,2.8,8.0,8.0,3.7,6.0,6.0,3.4,6184.876318598737,0.0,12.315638657378715,12.315638657378715,15.41884396919157,6273.303278009252,0.0,10.120235217571791,10.12023521757179,16.4685651245111,6339.010788206732,0.0,7.782378058846441,7.782378058846441,16.965994521389547
9.199999999999983,0.1,-0.3368722685242571,0.3368722685242571,63.45057801540393,0.0,-0.2159529564856424,0.21595295648564194,38.44571743774444,0.0,-0.12352438823071177,0.12352438823071177,18.277002739305203,0.0,10.0,10.0,2.8,8.0,8.0,3.7,6.0,6.0,3.4,6181.559938765486,0.0,12.315285994689027,12.315285994689027,15.414885049482937,6270.297607614211,0.0,10.119989597344192,10.11998959734419,16.46546605429094,6336.312101644467,0.0,7.7842333108592765,7.7842333108592765,16.964751016874462
9.299999999999983,0.1,-0.33694280106219443,0.33694280106219443,64.35255747525824,0.0,-0.2160020805311622,0.21600208053116177,39.16726697285453,0.0,-0.12315333782814486,0.12315333782814486,18.817624491562746,0.0,10.0,10.0,2.8,8.0,8.0,3.7,6.0,6.0,3.4,6178.243414786679,0.0,12.314932468665116,12.314932468665116,15.410923492506118,6267.29188187033,0.0,10.119703426213563,10.119703426213562,16.46236656329312,6333.616425666599,0.0,7.784032495315137,7.784032495315137,16.96373662794641
9.399999999999983,0.1,-0.337013506266977,0.337013506266977,64.95453825374663,0.0,-0.2160593147572878,0.21605931475728735,39.648816718353444,0.0,-0.12319350093697268,0.12319350093697268,19.17813168602677,0.0,10.0,10.0,2.8,8.0,8.0,3.7,6.0,6.0,3.4,6174.926746289659,0.0,12.314578460385704,12.314578460385704,15.406959253031628,6264.286058850744,0.0,10.119409522595939,10.119409522595939,16.459253689655544,6330.923218018673,0.0,7.782270163130247,7.782270163130247,16.96282984885974
9.499999999999982,0.1,-0.33708430792285915,0.33708430792285915,65.85652037348387,0.0,-0.2161180954808124,0.2161180954808124,40.37037315517224,0.0,-0.12354596737395074,0.12354596737395074,19.718585075570104,0.0,10.0,10.0,2.8,8.0,8.0,3.7,6.0,6.0,3.4,6171.6099329042645,0.0,12.314224303599236,12.314224303599236,15.402992294381376,6261.280101573545,0.0,10.119134054088398,10.119134054088398,16.456118003778,6328.2314027506045,0.0,7.779730597266647,7.779730597266647,16.961851075988985
9.599999999999982,0.1,-0.33715513928015284,0.33715513928015284,66.458503852809,0.0,-0.21617318918232042,0.21617318918232042,40.85194099811101,0.0,-0.12405388054667066,0.12405388054667066,20.07907446200548,0.0,10.0,10.0,2.8,8.0,8.0,3.7,6.0,6.0,3.4,6168.2929743420555,0.0,12.313870221797005,12.313870221797005,15.399022640962231,6258.273986031383,0.0,10.118891675099379,10.11889167509938,16.4529555230838,6325.539769361303,0.0,7.777219425537903,7.777219425537902,16.96063118656798
9.699999999999982,0.1,-0.3372259556405992,0.3372259556405992,67.36048867951855,0.0,-0.21622166498012385,0.2162216649801243,41.57352223845812,0.0,-0.12455611489241969,0.12455611489241947,20.619684406715983,0.0,10.0,10.0,2.8,8.0,8.0,3.7,6.0,6.0,3.4,6164.975870431644,0.0,12.313516310714336,12.313516310714336,15.395050393380934,6255.2677038453585,0.0,10.118684842797752,10.118684842797755,16.449767683017615,6322.847316853937,0.0,7.775350857395083,7.7753508573950825,16.959059474992713
9.799999999999981,0.1,-0.337296737857133,0.337296737857133,67.9624748033092,0.0,-0.216263031440449,0.2162630314404499,42.05511615849122,0.0,-0.12492982852098367,0.12492982852098344,20.980470262503616,0.0,10.0,10.0,2.8,8.0,8.0,3.7,6.0,6.0,3.4,6161.658621115697,0.0,12.313162556082847,12.313162556082847,15.39107571531316,6252.261260280118,0.0,10.118506389945262,10.118506389945265,16.446559890209016,6320.153464958322,0.0,7.774432946212356,7.774432946212355,16.957104762611113
9.89999999999998,0.1,-0.3373674887834306,0.3373674887834306,68.86446214234309,0.0,-0.21629872201094713,0.21629872201094758,42.77672005489552,0.0,-0.12511341075752913,0.1251134107575289,21.521447618694417,0.0,10.0,10.0,2.8,8.0,8.0,3.7,6.0,6.0,3.4,6158.341226422297,0.0,12.312808871431358,12.312808871431358,15.387098804868907,6249.254669336548,0.0,10.11834385192182,10.11834385192182,16.443339401984073,6317.458107607848,0.0,7.774458194390803,7.774458194390802,16.95481095423328
9.99999999999998,0.1,-0.3374382257137287,0.3374382257137287,69.4664505975652,0.0,-0.2163312296156361,0.2163312296156361,43.258330299007994,0.0,-0.12510836112183954,0.12510836112183954,21.88259452288333,0.0,10.0,10.0,2.8,8.0,8.0,3.7,6.0,6.0,3.4,6155.023686425425,0.0,12.312455140832924,12.312455140832924,15.383119862694116,6246.247947926253,0.0,10.118183996275446,10.118183996275443,16.440113250750482,6314.761531298434,0.0,7.775177780653416,7.775177780653416,16.95227374790253
