time , step-size , {uavCont}.controller.pitchOut , {uavCont}.controller.rollOut , {uavCont}.controller.throttleOut , {uavCont}.controller.yawOut , {uavGlobalCont}.global.uav1TargetX , {uavGlobalCont}.global.uav1TargetY , {uavGlobalCont}.global.uav1TargetZ , {uav}.uav.batteryCharge , {uav}.uav.currentPitch , {uav}.uav.currentRoll , {uav}.uav.currentYaw , {uav}.uav.posX , {uav}.uav.posY , {uav}.uav.posZ , {uav}.uav.velX , {uav}.uav.velY , {uav}.uav.velZ
0.0 , 0.0 , 0.0 , 0.0 , 0.0 , 0.0 , 0.0 , 0.0 , 0.0 , 6480.0 , 0.0 , 0.0 , 0.0 , 5.0 , 5.0 , 0.5 , 0.0 , 0.0 , 0.0
0.05 , 0.05 , 0.35 , -0.35 , 0.0 , 0.0 , 0.0 , 0.0 , 4.0 , 6480.0 , 0.0 , 0.0 , 0.0 , 5.0 , 5.0 , 0.48773978499389453 , 0.0 , 0.0 , -0.4903016023394045
0.1 , 0.05 , 0.35 , -0.35 , 0.0 , 0.0 , 0.0 , 0.0 , 4.0 , 6480.0 , 0.13405912801440112 , -0.13405912801440112 , 0.0 , 5.0 , 5.0 , 0.4407069742734344 , 0.0 , 0.0 , -1.0769745290617336
0.15000000000000002 , 0.05 , 0.35 , -0.35 , 5.8 , 0.0 , 0.0 , 0.0 , 4.0 , 6480.0 , 0.20518490623012176 , -0.20518490623012176 , 0.0 , 5.0 , 5.0 , 0.37469146913845064 , 0.0 , 0.0 , -1.563069219085933
0.2 , 0.05 , 0.35 , -0.35 , 6.8 , 0.0 , 0.0 , 0.0 , 4.0 , 6478.785492381697 , 0.24480453612151168 , -0.24480453612151168 , 0.0 , 4.996043210791862 , 4.996043210791862 , 0.32213149691038223 , -0.21686129813812988 , -0.21686129813812988 , -1.0093328385385718
0.25 , 0.05 , 0.35 , -0.35 , 6.8 , 0.0 , 0.0 , 0.0 , 4.0 , 6477.214606747546 , 0.27945341553152064 , -0.27945341553152064 , 0.0 , 4.977578864453702 , 4.977578864453702 , 0.28845285763343914 , -0.5283043795020428 , -0.5283043795020428 , -0.34212765852890514
0.3 , 0.05 , 0.35 , -0.35 , 6.8 , 0.0 , 0.0 , 0.0 , 4.0 , 6475.6070011178435 , 0.3026897796095368 , -0.3026897796095368 , 0.0 , 4.942750679708262 , 4.942750679708262 , 0.28760204787387966 , -0.8689396408126938 , -0.8689396408126938 , 0.3051417940777869
0.35 , 0.05 , 0.35 , -0.35 , 5.8 , 0.0 , 0.0 , 0.0 , 4.0 , 6473.976717500374 , 0.3182726389908463 , -0.3182726389908463 , 0.0 , 4.890400135870195 , 4.890400135870195 , 0.31873537096581883 , -1.2275692671239478 , -1.2275692671239478 , 0.9377879307431437
0.39999999999999997 , 0.05 , 0.35 , -0.35 , 4.8 , 0.0 , 0.0 , 0.0 , 4.0 , 6472.332122004942 , 0.3287228757698182 , -0.3287228757698182 , 0.0 , 4.819827165310882 , 4.819827165310882 , 0.3811820209119858 , -1.5967366759337471 , -1.5967366759337471 , 1.5579516023135271
0.44999999999999996 , 0.05 , 0.35 , -0.35 , 4.3 , 0.0 , 0.0 , 0.0 , 4.0 , 6470.678337678767 , 0.3357310535415796 , -0.3357310535415796 , 0.0 , 4.730640739843388 , 4.730640739843388 , 0.4743485898447633 , -1.9713444727509262 , -1.9713444727509262 , 2.1667032759172082
0.49999999999999994 , 0.05 , 0.35 , -0.35 , 4.3 , 0.0 , 0.0 , 0.0 , 4.0 , 6469.018576755665 , 0.34043090453246233 , -0.34043090453246233 , 0.0 , 4.622663864247966 , 4.622663864247966 , 0.5976751919420168 , -2.347810494360252 , -2.347810494360252 , 2.764355634707871
0.5499999999999999 , 0.05 , 0.35 , -0.35 , 3.8 , 0.0 , 0.0 , 0.0 , 4.0 , 6467.354891770044 , 0.3435827365857965 , -0.3435827365857965 , 0.0 , 4.495871984163778 , 4.495871984163778 , 0.750603308671483 , -2.72354541541579 , -2.72354541541579 , 3.35068871619325
0.6 , 0.05 , 0.35 , -0.35 , 3.8 , 0.0 , 0.0 , 0.0 , 4.0 , 6465.6886131308465 , 0.345696430256446 , -0.345696430256446 , 0.0 , 4.350352236816315 , 4.350352236816315 , 0.9325540799606113 , -3.09662401525265 , -3.09662401525265 , 3.9251389802686165
0.65 , 0.05 , 0.32000000000000006 , -0.32000000000000006 , 3.3 , 0.0 , 0.0 , 0.0 , 4.0 , 6464.020612221055 , 0.3471139235929382 , -0.3471139235929382 , 0.0 , 4.186275914102352 , 4.186275914102352 , 1.1429149515585169 , -3.465575157576967 , -3.465575157576967 , 4.486944760391963
0.7000000000000001 , 0.05 , 0.32000000000000006 , -0.32000000000000006 , 3.3 , 0.0 , 0.0 , 0.0 , 4.0 , 6462.356562312893 , 0.3381135075990819 , -0.3381135075990819 , 0.0 , 4.003955318461133 , 4.003955318461133 , 1.381095133976033 , -3.8243719397441733 , -3.8243719397441733 , 5.0392563767419025
0.7500000000000001 , 0.05 , 0.32000000000000006 , -0.32000000000000006 , 1.5699999999999998 , 0.0 , 0.0 , 0.0 , 4.0 , 6460.700236902176 , 0.3321473497691414 , -0.3321473497691414 , 0.0 , 3.8040615012285386 , 3.8040615012285386 , 1.6467094542142502 , -4.169088529233126 , -4.169088529233126 , 5.583519756897956
0.8000000000000002 , 0.05 , 0.32000000000000006 , -0.32000000000000006 , 1.0399999999999996 , 0.0 , 0.0 , 0.0 , 4.0 , 6459.049055221057 , 0.32814630217845486 , -0.32814630217845486 , 0.0 , 3.5872360446928306 , 3.5872360446928306 , 1.9392639402384768 , -4.5019174852328945 , -4.5019174852328945 , 6.116379378568319
0.8500000000000002 , 0.05 , -0.15999999999999992 , 0.15999999999999992 , 0.47999999999999954 , 0.0 , 0.0 , 0.0 , 4.0 , 6457.401383545044 , 0.32546310433501163 , -0.32546310433501163 , 0.0 , 3.354039599650812 , 3.354039599650812 , 2.258127425371558 , -4.8241047467637905 , -4.8241047467637905 , 6.635522254472933
0.9000000000000002 , 0.05 , -0.15999999999999992 , 0.15999999999999992 , 0.44999999999999973 , 0.0 , 0.0 , 0.0 , 4.0 , 6456.663654715022 , 0.16444735515418768 , -0.16444735515418768 , 0.0 , 3.1102625023367834 , 3.1102625023367834 , 2.5892214182473428 , -4.902567051518814 , -4.902567051518814 , 6.594378708123337
0.9500000000000003 , 0.05 , -0.15999999999999992 , 0.15999999999999992 , -0.81 , 0.0 , 0.0 , 0.0 , 4.0 , 6456.07244099653 , 0.05758212666278441 , -0.05758212666278441 , 0.0 , 2.8648923438558382 , 2.8648923438558382 , 2.917715799106102 , -4.901535580417902 , -4.901535580417902 , 6.546566149841269
1.0000000000000002 , 0.05 , -0.15999999999999992 , 0.15999999999999992 , -0.8700000000000001 , 0.0 , 0.0 , 0.0 , 4.0 , 6456.07244099653 , -0.014084241738997846 , 0.014084241738997846 , 0.0 , 2.6212740455496286 , 2.6212740455496286 , 3.2307963634305454 , -4.842184920328212 , -4.842184920328212 , 5.957963067416677
1.0500000000000003 , 0.05 , -0.35 , 0.35 , -1.7200000000000002 , 0.0 , 0.0 , 0.0 , 4.0 , 6456.07244099653 , -0.06214541591515322 , 0.06214541591515322 , 0.0 , 2.3806189620338416 , 2.3806189620338416 , 3.5143474371397163 , -4.784269380286846 , -4.784269380286846 , 5.386996666239629
1.1000000000000003 , 0.05 , -0.35 , 0.35 , -1.81 , 0.0 , 0.0 , 0.0 , 4.0 , 6456.07244099653 , -0.15739951614948802 , 0.15739951614948802 , 0.0 , 2.1428252085724124 , 2.1428252085724124 , 3.769738676311052 , -4.727722871621059 , -4.727722871621059 , 4.83121021111593
1.1500000000000004 , 0.05 , -0.35 , 0.35 , -1.9 , 0.0 , 0.0 , 0.0 , 4.0 , 6456.07244099653 , -0.22083752662258443 , 0.22083752662258443 , 0.0 , 1.907825543254541 , 1.907825543254541 , 3.9976805772689965 , -4.672497418971 , -4.672497418971 , 4.288693844829053
1.2000000000000004 , 0.05 , -0.35 , 0.35 , -1.49 , 0.0 , 0.0 , 0.0 , 4.0 , 6456.07244099653 , -0.26338056792255954 , 0.26338056792255954 , 0.0 , 1.6755550669544934 , 1.6755550669544934 , 4.198792110464386 , -4.618547262704729 , -4.618547262704729 , 3.757691611351144
1.2500000000000004 , 0.05 , -0.35 , 0.35 , -2.4 , 0.0 , 0.0 , 0.0 , 4.0 , 6456.07244099653 , -0.2919109450506216 , 0.2919109450506216 , 0.0 , 1.4459511157467484 , 1.4459511157467484 , 4.373607782688232 , -4.565828732462864 , -4.565828732462864 , 3.236576787336089
1.3000000000000005 , 0.05 , -0.35 , 0.35 , -2.52 , 0.0 , 0.0 , 0.0 , 4.0 , 6456.07244099653 , -0.3110440957186704 , 0.3110440957186704 , 0.0 , 1.218953159426694 , 1.218953159426694 , 4.522583549497316 , -4.514300129265894 , -4.514300129265894 , 2.723830433354441
1.3500000000000005 , 0.05 , -0.35 , 0.35 , -2.64 , 0.0 , 0.0 , 0.0 , 4.0 , 6456.07244099653 , -0.3238752424239198 , 0.3238752424239198 , 0.0 , 0.9945027057257337 , 0.9945027057257337 , 4.646101722463501 , -4.463921615515258 , -4.463921615515258 , 2.2180225324613425
1.4000000000000006 , 0.05 , -0.35 , 0.35 , -2.2600000000000002 , 0.0 , 0.0 , 0.0 , 4.0 , 6456.07244099653 , -0.3324801151199033 , 0.3324801151199033 , 0.0 , 0.7725432098416221 , 0.7725432098416221 , 4.744474987125611 , -4.414655112278359 , -4.414655112278359 , 1.7177951939629759
1.4500000000000006 , 0.05 , -0.35 , 0.35 , -2.0000000000000004 , 0.0 , 0.0 , 0.0 , 4.0 , 6456.07244099653 , -0.3382507477698901 , 0.3382507477698901 , 0.0 , 0.5530199889339698 , 0.5530199889339698 , 4.817949623633768 , -4.3664642033009535 , -4.3664642033009535 , 1.2218474848775773
1.5000000000000007 , 0.05 , -0.35 , 0.35 , -2.1200000000000006 , 0.0 , 0.0 , 0.0 , 4.0 , 6456.07244099653 , -0.34212067151630843 , 0.34212067151630843 , 0.0 , 0.33588014126146887 , 0.33588014126146887 , 4.866708001892713 , -4.319314045238417 , -4.319314045238417 , 0.728921516016335
1.5500000000000007 , 0.05 , -0.35 , 0.35 , -2.2400000000000007 , 0.0 , 0.0 , 0.0 , 4.0 , 6456.07244099653 , -0.3447159345856232 , 0.3447159345856232 , 0.0 , 0.1210724696617056 , 0.1210724696617056 , 4.890870405627959 , -4.273171283640833 , -4.273171283640833 , 0.23778945781967495
1.6000000000000008 , 0.05 , -0.35 , 0.35 , -1.8600000000000008 , 0.0 , 0.0 , 0.0 , 4.0 , 6456.07244099653 , -0.3464563798347532 , 0.3464563798347532 , 0.0 , -0.09145259090331734 , -0.09145259090331734 , 4.890496472614156 , -4.228003974266208 , -4.228003974266208 , -0.2527061138533717
1.6500000000000008 , 0.05 , -0.35 , 0.35 , -1.100000000000001 , 0.0 , 0.0 , 0.0 , 4.0 , 6456.07244099653 , -0.34762356388674176 , 0.34762356388674176 , 0.0 , -0.3017430419924522 , -0.3017430419924522 , 4.865609894688215 , -4.183781509331705 , -4.183781509331705 , -0.7425387792511218
1.7000000000000008 , 0.05 , -0.35 , 0.35 , -1.220000000000001 , 0.0 , 0.0 , 0.0 , 4.0 , 6456.07244099653 , -0.34840630532138184 , 0.34840630532138184 , 0.0 , -0.5098453867592876 , -0.5098453867592876 , 4.8162716975872195 , -4.1404745483451135 , -4.1404745483451135 , -1.2305568836806375
1.7500000000000009 , 0.05 , -0.35 , 0.35 , -1.3400000000000012 , 0.0 , 0.0 , 0.0 , 4.0 , 6456.07244099653 , -0.34893123037708196 , 0.34893123037708196 , 0.0 , -0.7158046916753151 , -0.7158046916753151 , 4.742602159225729 , -4.09805495318808 , -4.09805495318808 , -1.7155826274083936
1.800000000000001 , 0.05 , -0.35 , 0.35 , -0.4600000000000013 , 0.0 , 0.0 , 0.0 , 4.0 , 6456.07244099653 , -0.34928325762632095 , 0.34928325762632095 , 0.0 , -0.9196646451073082 , -0.9196646451073082 , 4.6447797734942 , -4.056495727149273 , -4.056495727149273 , -2.196467153078675
1.850000000000001 , 0.05 , -0.35 , 0.35 , 0.2999999999999985 , 0.0 , 0.0 , 0.0 , 4.0 , 6456.07244099653 , -0.34951933548707675 , 0.34951933548707675 , 0.0 , -1.1214676129393675 , -1.1214676129393675 , 4.523039533237863 , -4.015770957629924 , -4.015770957629924 , -2.6721012164836595
1.900000000000001 , 0.05 , -0.35 , 0.35 , 0.17999999999999838 , 0.0 , 0.0 , 0.0 , 4.0 , 6455.5711167163145 , -0.3496776549253007 , 0.3496776549253007 , 0.0 , -1.3184016069984517 , -1.3184016069984517 , 4.385510299564733 , -3.8573886999723346 , -3.8573886999723346 , -2.815653595189282
1.950000000000001 , 0.05 , -0.35 , 0.35 , 0.05999999999999828 , 0.0 , 0.0 , 0.0 , 4.0 , 6455.270299363348 , -0.3497838277126993 , 0.3497838277126993 , 0.0 , -1.5085162606153775 , -1.5085162606153775 , 4.238041727821438 , -3.749466748528064 , -3.749466748528064 , -3.0875962965432984
2.000000000000001 , 0.05 , -0.35 , 0.35 , -0.06000000000000183 , 0.0 , 0.0 , 0.0 , 4.0 , 6455.170021821608 , -0.3498550297136061 , 0.3498550297136061 , 0.0 , -1.6944743529752926 , -1.6944743529752926 , 4.073815517261534 , -3.6909557025391764 , -3.6909557025391764 , -3.485499304757446
2.0500000000000007 , 0.05 , -0.35 , 0.35 , 0.699999999999998 , 0.0 , 5.0 , 5.0 , 4.0 , 6455.170021821608 , -0.349910246008436 , 0.349910246008436 , 0.0 , -1.9146908477539573 , -1.9146908477539573 , 3.8483013279988008 , -3.650542589751843 , -3.650542589751843 , -4.031644743288053
2.1000000000000005 , 0.05 , -0.35 , 0.35 , 0.5799999999999979 , 0.0 , 5.0 , 5.0 , 4.0 , 6454.0000464825 , -0.34993980883477477 , 0.34993980883477477 , 0.0 , -2.089723771232917 , -2.089723771232917 , 3.653799232958846 , -3.3406418372241817 , -3.3406418372241817 , -3.719121873391957
2.1500000000000004 , 0.05 , -0.35 , 0.35 , 2.839999999999998 , 0.0 , 5.0 , 5.0 , 4.0 , 6453.0306246524315 , -0.3499596343704827 , 0.3499596343704827 , 0.0 , -2.2502608171571223 , -2.2502608171571223 , 3.472396788027726 , -3.083489842628014 , -3.083489842628014 , -3.5427791082790905
2.2 , 0.05 , -0.35 , 0.35 , 1.8999999999999977 , 0.0 , 5.0 , 5.0 , 4.0 , 6451.359191874264 , -0.3499729298470925 , 0.3499729298470925 , 0.0 , -2.3940844811227437 , -2.3940844811227437 , 3.310563888419402 , -2.6638781639026794 , -2.6638781639026794 , -2.9141256839979626
2.25 , 0.05 , -0.35 , 0.35 , 1.019999999999998 , 0.0 , 5.0 , 5.0 , 4.0 , 6449.68774848095 , -0.34998184611048566 , 0.34998184611048566 , 0.0 , -2.51690602690105 , -2.51690602690105 , 3.1803760727639396 , -2.249906669132048 , -2.249906669132048 , -2.2948643571189273
2.3 , 0.05 , -0.35 , 0.35 , 1.079999999999998 , 0.0 , 5.0 , 5.0 , 4.0 , 6448.016297969172 , -0.3499878255691563 , 0.3499878255691563 , 0.0 , -2.619149818738174 , -2.619149818738174 , 3.080962412577576 , -1.8406065134372196 , -1.8406065134372196 , -1.6828029811673146
2.3499999999999996 , 0.05 , -0.35 , 0.35 , 1.1399999999999981 , 0.0 , 5.0 , 5.0 , 4.0 , 6446.344842683721 , -0.3499918355366077 , 0.3499918355366077 , 0.0 , -2.7010272868812755 , -2.7010272868812755 , 3.012011742284085 , -1.43509837146266 , -1.43509837146266 , -1.0760022254947457
2.3999999999999995 , 0.05 , -0.35 , 0.35 , 0.19999999999999818 , 0.0 , 5.0 , 5.0 , 4.0 , 6444.673384196992 , -0.3499945247163222 , 0.3499945247163222 , 0.0 , -2.7627066883403932 , -2.7627066883403932 , 2.9733081297072954 , -1.0325333356936586 , -1.0325333356936586 , -0.4725876780255144
2.4499999999999993 , 0.05 , -0.35 , 0.35 , 0.549999999999998 , 0.0 , 5.0 , 5.0 , 4.0 , 6444.3390920702805 , -0.34999632814431125 , 0.34999632814431125 , 0.0 , -2.8119588622332072 , -2.8119588622332072 , 2.9437696025263005 , -0.9503664654069984 , -0.9503664654069984 , -0.7437351004585617
2.499999999999999 , 0.05 , -0.35 , 0.35 , 0.6399999999999979 , 0.0 , 5.0 , 5.0 , 4.0 , 6443.419787929991 , -0.34999753756608937 , 0.34999753756608937 , 0.0 , -2.8540856973019895 , -2.8540856973019895 , 2.9089887626633293 , -0.7293028195445195 , -0.7293028195445197 , -0.6323005360071191
2.549999999999999 , 0.05 , -0.35 , 0.35 , 0.7299999999999978 , 0.0 , 5.0 , 5.0 , 4.0 , 6442.350051585193 , -0.34999834863314944 , 0.34999834863314944 , 0.0 , -2.8841815792829686 , -2.8841815792829686 , 2.8825077935565195 , -0.4732409837257045 , -0.47324098372570483 , -0.4231190592434677
2.5999999999999988 , 0.05 , -0.35 , 0.35 , 0.8199999999999976 , 0.0 , 5.0 , 5.0 , 4.0 , 6441.12988309425 , -0.3499988925540445 , 0.3499988925540445 , 0.0 , -2.9005950608024875 , -2.9005950608024875 , 2.868928395881652 , -0.18195480931376684 , -0.18195480931376717 , -0.11621487065726449
2.6499999999999986 , 0.05 , -0.35 , 0.35 , 0.9999999999999973 , 0.0 , 5.0 , 5.0 , 4.0 , 6439.759282515491 , -0.34999925732035614 , 0.34999925732035614 , 0.0 , -2.901556689378822 , -2.901556689378822 , 2.873142171214251 , 0.1449001789503761 , 0.14490017895037577 , 0.2886441759239944
2.6999999999999984 , 0.05 , -0.35 , 0.35 , 1.0899999999999972 , 0.0 , 5.0 , 5.0 , 4.0 , 6438.08781810386 , -0.34999950194133567 , 0.34999950194133567 , 0.0 , -2.8844244855665977 , -2.8844244855665977 , 2.902396626661499 , 0.5431260377046979 , 0.5431260377046976 , 0.8890521883574567
2.7499999999999982 , 0.05 , -0.35 , 0.35 , 0.17999999999999705 , 0.0 , 5.0 , 5.0 , 4.0 , 6436.4163534969475 , -0.34999966598999294 , 0.34999966598999294 , 0.0 , -2.847333897287468 , -2.847333897287468 , 2.961806057394717 , 0.9402248774207437 , 0.9402248774207433 , 1.4866649439009836
2.799999999999998 , 0.05 , -0.35 , 0.35 , 0.2699999999999969 , 0.0 , 5.0 , 5.0 , 4.0 , 6436.11548984413 , -0.3499997760049311 , 0.3499997760049311 , 0.0 , -2.79826190648555 , -2.7982619064855503 , 3.029557773490841 , 1.0095424132461994 , 1.0095424132461992 , 1.1880375359852104
2.849999999999998 , 0.05 , -0.35 , 0.35 , -1.2800000000000031 , 0.0 , 5.0 , 5.0 , 4.0 , 6435.664194341192 , -0.34999984978356985 , 0.34999984978356985 , 0.0 , -2.7451988631428437 , -2.745198863142844 , 3.0838886416439486 , 1.114310937281961 , 1.1143109372819608 , 0.9893133996593036
2.8999999999999977 , 0.05 , -0.35 , 0.35 , -1.220000000000003 , 0.0 , 5.0 , 5.0 , 4.0 , 6435.664194341192 , -0.34999989926128283 , 0.34999989926128283 , 0.0 , -2.6894536795128365 , -2.689453679512837 , 3.1213414312592946 , 1.111203350122163 , 1.1112033501221628 , 0.49735614011127993
2.9499999999999975 , 0.05 , -0.35 , 0.35 , -0.660000000000003 , 0.0 , 5.0 , 5.0 , 4.0 , 6435.664194341192 , -0.34999993244221606 , 0.34999993244221606 , 0.0 , -2.6339705483652165 , -2.633970548365217 , 3.1339387551627236 , 1.1081249703849383 , 1.108124970384938 , 0.006649294574864906
2.9999999999999973 , 0.05 , -0.35 , 0.35 , -0.600000000000003 , 0.0 , 5.0 , 5.0 , 4.0 , 6435.664194341192 , -0.3499999546941404 , 0.3499999546941404 , 0.0 , -2.5786409103427888 , -2.578640910342789 , 3.1220108770214487 , 1.1050635996668505 , 1.1050635996668503 , -0.4836603447872937
3.049999999999997 , 0.05 , -0.35 , 0.35 , 0.5199999999999971 , 0.0 , 5.0 , 5.0 , 4.0 , 6435.664194341192 , -0.3499999696168111 , 0.3499999696168111 , 0.0 , -2.523463918516145 , -2.5234639185161454 , 3.0855917287536556 , 1.1020190973860176 , 1.1020190973860173 , -0.9727861360205086
3.099999999999997 , 0.05 , -0.35 , 0.35 , 0.5799999999999972 , 0.0 , 5.0 , 5.0 , 4.0 , 6434.795032551458 , -0.3499999796243097 , 0.3499999796243097 , 0.0 , -2.4634746068271856 , -2.463474606827186 , 3.0383711239705367 , 1.3056047759233471 , 1.305604775923347 , -0.893439976156217
3.149999999999997 , 0.05 , -0.35 , 0.35 , 0.6399999999999972 , 0.0 , 5.0 , 5.0 , 4.0 , 6433.825582858275 , -0.3499999863355766 , 0.3499999863355766 , 0.0 , -2.392559764341411 , -2.3925597643414114 , 2.997243100171251 , 1.5316520560092273 , 1.5316520560092268 , -0.7491792289853701
3.1999999999999966 , 0.05 , -0.35 , 0.35 , 0.6999999999999973 , 0.0 , 5.0 , 5.0 , 4.0 , 6432.755845262368 , -0.3499999908363121 , 0.3499999908363121 , 0.0 , -2.309788923967813 , -2.3097889239678135 , 2.964948420049756 , 1.779762611105765 , 1.7797626111057645 , -0.5401222526000635
3.2499999999999964 , 0.05 , -0.35 , 0.35 , 2.0799999999999974 , 0.0 , 5.0 , 5.0 , 4.0 , 6431.585819764328 , -0.34999999385461256 , 0.34999999385461256 , 0.0 , -2.2140709299049446 , -2.214070929904945 , 2.944726021755909 , 2.0494421537423295 , 2.049442153742329 , -0.2662673764974795
3.2999999999999963 , 0.05 , -0.35 , 0.35 , 2.1699999999999973 , 0.0 , 5.0 , 5.0 , 4.0 , 6429.914354764722 , -0.34999999587875674 , 0.34999999587875674 , 0.0 , -2.1020545995847653 , -2.1020545995847657 , 2.94610511317251 , 2.4351899138697886 , 2.435189913869788 , 0.33443663832565484
3.349999999999996 , 0.05 , -0.35 , 0.35 , 2.2599999999999976 , 0.0 , 5.0 , 5.0 , 4.0 , 6428.242889763498 , -0.349999997236196 , 0.349999997236196 , 0.0 , -1.970747149842855 , -1.9707471498428555 , 2.9778239426503834 , 2.8161998533237473 , 2.816199853323747 , 0.9339532780513528
3.399999999999996 , 0.05 , -0.35 , 0.35 , 1.3499999999999976 , 0.0 , 5.0 , 5.0 , 4.0 , 6426.571424761192 , -0.3499999981465272 , 0.3499999981465272 , 0.0 , -1.8205206146057276 , -1.820520614605728 , 3.0394536443411777 , 3.19183805428622 , 3.1918380542862197 , 1.5305519491000272
3.4499999999999957 , 0.05 , -0.35 , 0.35 , -0.2000000000000024 , 0.0 , 5.0 , 5.0 , 4.0 , 6424.89995975816 , -0.349999998757017 , 0.349999998757017 , 0.0 , -1.6516592590944792 , -1.6516592590944796 , 3.1308042649933263 , 3.561484816618589 , 3.5614848166185884 , 2.122478484660917
3.4999999999999956 , 0.05 , -0.35 , 0.35 , -0.14000000000000234 , 0.0 , 5.0 , 5.0 , 4.0 , 6424.89995975816 , -0.34999999916642593 , 0.34999999916642593 , 0.0 , -1.4739807826585065 , -1.473980782658507 , 3.2255057893181553 , 3.5299138361719717 , 3.5299138361719713 , 1.622933618783598
3.5499999999999954 , 0.05 , -0.35 , 0.35 , -0.5800000000000023 , 0.0 , 5.0 , 5.0 , 4.0 , 6424.89995975816 , -0.3499999994409854 , 0.3499999994409854 , 0.0 , -1.2982594872228117 , -1.2982594872228121 , 3.2942552269586156 , 3.499035671813586 , 3.4990356718135858 , 1.1276580799508813
3.599999999999995 , 0.05 , -0.35 , 0.35 , -0.020000000000002238 , 0.0 , 5.0 , 5.0 , 4.0 , 6424.89995975816 , -0.34999999962511147 , 0.34999999962511147 , 0.0 , -1.124068648443076 , -1.1240686484430764 , 3.338316088449304 , 3.468693039366975 , 3.4686930393669746 , 0.63516821695105
3.649999999999995 , 0.05 , -0.35 , 0.35 , 0.5999999999999979 , 0.0 , 5.0 , 5.0 , 4.0 , 6424.89995975816 , -0.34999999974859075 , 0.34999999974859075 , 0.0 , -0.9513818371925171 , -0.9513818371925179 , 3.357796972719418 , 3.4388721267328037 , 3.4388721267328033 , 0.1442405157840862
3.699999999999995 , 0.05 , -0.35 , 0.35 , 0.6599999999999979 , 0.0 , 5.0 , 5.0 , 4.0 , 6423.8970807555725 , -0.34999999983139896 , 0.34999999983139896 , 0.0 , -0.7744697103829576 , -0.7744697103829584 , 3.3684512117133716 , 3.646454504677998 , 3.6464545046779975 , 0.3080607424611191
3.7499999999999947 , 0.05 , -0.35 , 0.35 , 0.719999999999998 , 0.0 , 5.0 , 5.0 , 4.0 , 6422.793913852683 , -0.3499999998869321 , 0.3499999998869321 , 0.0 , -0.5864662915351285 , -0.5864662915351293 , 3.389513292968167 , 3.8738593469849416 , 3.873859346984941 , 0.536942144634792
3.7999999999999945 , 0.05 , -0.35 , 0.35 , 0.7799999999999979 , 0.0 , 5.0 , 5.0 , 4.0 , 6421.590459049498 , -0.34999999992417397 , 0.34999999992417397 , 0.0 , -0.38660804493603107 , -0.38660804493603185 , 3.4236380799255173 , 4.120528700748184 , 4.120528700748183 , 0.8304725183615848
3.8499999999999943 , 0.05 , -0.35 , 0.35 , 0.8999999999999979 , 0.0 , 5.0 , 5.0 , 4.0 , 6420.286716346026 , -0.34999999994914927 , 0.34999999994914927 , 0.0 , -0.17394870726680056 , -0.1739487072668014 , 3.4740424648410384 , 4.385773863551703 , 4.3857738635517025 , 1.187978680183339
3.899999999999994 , 0.05 , -0.35 , 0.35 , 0.959999999999998 , 0.0 , 5.0 , 5.0 , 4.0 , 6418.782397842002 , -0.34999999996589826 , 0.34999999996589826 , 0.0 , 0.052991381873821665 , 0.05299138187382079 , 3.5454689558958847 , 4.692467956742157 , 4.692467956742157 , 1.6736623300849374
3.949999999999994 , 0.05 , -0.35 , 0.35 , 0.5199999999999978 , 0.0 , 5.0 , 5.0 , 4.0 , 6417.177791437695 , -0.3499999999771305 , 0.3499999999771305 , 0.0 , 0.29570465480550523 , 0.2957046548055044 , 3.642776626097017 , 5.015592067637804 , 5.015592067637804 , 2.220276756758624
3.999999999999994 , 0.05 , -0.35 , 0.35 , 0.5799999999999979 , 0.0 , 5.0 , 5.0 , 4.0 , 6416.308629635359 , -0.3499999999846632 , 0.3499999999846632 , 0.0 , 0.5502279386769992 , 0.5502279386769983 , 3.7558617553738936 , 5.157735265694262 , 5.157735265694262 , 2.2838710499430652
4.049999999999994 , 0.05 , -0.35 , 0.35 , 0.19999999999999796 , 0.0 , 5.0 , 5.0 , 4.0 , 6415.339179932747 , -0.34999999998971476 , 0.34999999998971476 , 0.0 , 0.8121645548767512 , 0.8121645548767503 , 3.8731966256167927 , 5.319909418960438 , 5.319909418960438 , 2.411852952530322
4.099999999999993 , 0.05 , -0.35 , 0.35 , 0.259999999999998 , 0.0 , 5.0 , 5.0 , 4.0 , 6415.004886931846 , -0.3499999999931025 , 0.3499999999931025 , 0.0 , 1.078526819440623 , 1.0785268194406221 , 3.987050529302183 , 5.328539708022933 , 5.328539708022933 , 2.1263767045748523
4.149999999999993 , 0.05 , -0.35 , 0.35 , 0.31999999999999784 , 0.0 , 5.0 , 5.0 , 4.0 , 6414.570306030672 , -0.3499999999953744 , 0.3499999999953744 , 0.0 , 1.3457352345875495 , 1.3457352345875486 , 4.087862622832118 , 5.360589435579206 , 5.360589435579206 , 1.9091081007642687
4.199999999999993 , 0.05 , -0.1200000000000001 , 0.1200000000000001 , 0.3799999999999979 , 0.0 , 5.0 , 5.0 , 4.0 , 6414.03543722923 , -0.34999999999689796 , 0.34999999999689796 , 0.0 , 1.6151164924887638 , 1.6151164924887629 , 4.179493974131076 , 5.415341683001922 , 5.415341683001922 , 1.7590000631291849
4.249999999999993 , 0.05 , -0.1200000000000001 , 0.1200000000000001 , -0.26000000000000206 , 0.0 , 5.0 , 5.0 , 4.0 , 6413.416540423144 , -0.27370884054226163 , 0.27370884054226163 , 0.0 , 1.887564564278276 , 1.887564564278275 , 4.2654582673974994 , 5.477584942023361 , 5.477584942023361 , 1.6863670769402779
4.299999999999993 , 0.05 , -0.1200000000000001 , 0.1200000000000001 , -0.2300000000000021 , 0.0 , 5.0 , 5.0 , 4.0 , 6413.416540423144 , -0.22308081074096697 , 0.22308081074096697 , 0.0 , 2.159704345291861 , 2.15970434529186 , 4.337799726349283 , 5.403523361806625 , 5.403523361806625 , 1.1905752422281173
4.3499999999999925 , 0.05 , -0.1200000000000001 , 0.1200000000000001 , -0.20000000000000207 , 0.0 , 5.0 , 5.0 , 4.0 , 6413.416540423144 , -0.18912844769064255 , 0.18912844769064255 , 0.0 , 2.428071266452895 , 2.428071266452894 , 4.384998583570542 , 5.331501520047469 , 5.331501520047469 , 0.6977989501938358
4.399999999999992 , 0.05 , 0.15999999999999992 , -0.15999999999999992 , -0.17000000000000204 , 0.0 , 5.0 , 5.0 , 4.0 , 6413.416540423144 , -0.16635918407865904 , 0.16635918407865904 , 0.0 , 2.692884802860742 , 2.6928848028607413 , 4.407607020599304 , 5.261374327458107 , 5.261374327458107 , 0.20673958660273034
4.449999999999992 , 0.05 , 0.15999999999999992 , -0.15999999999999992 , 0.389999999999998 , 0.0 , 5.0 , 5.0 , 4.0 , 6413.416540423144 , -0.05821337927909484 , 0.05821337927909484 , 0.0 , 2.954237824582801 , 2.9542378245828003 , 4.405681026331237 , 5.193067992380826 , 5.193067992380826 , -0.28373700096803767
4.499999999999992 , 0.05 , 0.15999999999999992 , -0.15999999999999992 , 0.41999999999999804 , 0.0 , 5.0 , 5.0 , 4.0 , 6412.970416809453 , 0.013660908694248573 , -0.013660908694248573 , 0.0 , 3.212580834739775 , 3.212580834739774 , 4.390783604245053 , 5.135798328315824 , 5.135798328315824 , -0.29270342225630736
4.549999999999992 , 0.05 , 0.15999999999999992 , -0.15999999999999992 , 1.449999999999998 , 0.0 , 5.0 , 5.0 , 4.0 , 6412.475099578339 , 0.06186151868899335 , -0.06186151868899335 , 0.0 , 3.4673396591510017 , 3.467339659151001 , 4.376808403006986 , 5.050434521703372 , 5.050434521703372 , -0.26518058028770153
4.599999999999992 , 0.05 , 0.35 , -0.35 , 1.4799999999999982 , 0.0 , 5.0 , 5.0 , 4.0 , 6411.214525122456 , 0.09418599618123855 , -0.09418599618123855 , 0.0 , 3.716083703642335 , 3.716083703642334 , 4.381282068021889 , 4.891181977711338 , 4.891181977711338 , 0.47141059805092783
4.6499999999999915 , 0.05 , 0.24 , -0.24 , 0.5399999999999981 , 0.0 , 5.0 , 5.0 , 4.0 , 6409.842695408347 , 0.17888669267614343 , -0.17888669267614343 , 0.0 , 3.9554576778785373 , 3.9554576778785364 , 4.422957300744948 , 4.665545556594355 , 4.665545556594355 , 1.1896894839645196
4.699999999999991 , 0.05 , 0.24 , -0.24 , 0.5699999999999982 , 0.0 , 5.0 , 5.0 , 4.0 , 6409.052999374117 , 0.1987602628943332 , -0.1987602628943332 , 0.0 , 4.184260190273414 , 4.184260190273413 , 4.486722769788156 , 4.489336054225783 , 4.489336054225783 , 1.3380359394042127
4.749999999999991 , 0.05 , 0.24 , -0.24 , 0.0999999999999982 , 0.0 , 5.0 , 5.0 , 4.0 , 6408.205109224332 , 0.21234364971722192 , -0.21234364971722192 , 0.0 , 4.404023824367762 , 4.404023824367761 , 4.558080363451139 , 4.3000957929256325 , 4.3000957929256325 , 1.5167629896555137
4.799999999999991 , 0.05 , 0.35 , -0.35 , 0.12999999999999823 , 0.0 , 5.0 , 5.0 , 4.0 , 6408.054625012837 , 0.2214529925589992 , -0.2214529925589992 , 0.0 , 4.617122667163046 , 4.617122667163045 , 4.625030427233352 , 4.228699544384751 , 4.228699544384751 , 1.1394748036591122
4.849999999999991 , 0.05 , 0.35 , -0.35 , 0.18999999999999828 , 0.0 , 5.0 , 5.0 , 4.0 , 6407.854002172896 , 0.26404901116968404 , -0.26404901116968404 , 0.0 , 4.826551779471432 , 4.826551779471431 , 4.673433945754658 , 4.147292896431583 , 4.147292896431583 , 0.7977593205595491
4.899999999999991 , 0.05 , 0.35 , -0.35 , 0.2199999999999983 , 0.0 , 5.0 , 5.0 , 4.0 , 6407.551578400648 , 0.2923592190185003 , -0.2923592190185003 , 0.0 , 5.031348628980719 , 5.0313486289807186 , 4.706393459524976 , 4.043207537540318 , 4.043207537540318 , 0.5229093315266068
4.94999999999999 , 0.05 , 0.35 , -0.35 , 0.7499999999999983 , 0.0 , 5.0 , 5.0 , 4.0 , 6407.195090985151 , 0.3113447189221243 , -0.3113447189221243 , 0.0 , 5.2306039987180295 , 5.230603998718029 , 4.726430637381384 , 3.9262560534024185 , 3.9262560534024185 , 0.27949433946127417
4.99999999999999 , 0.05 , 0.35 , -0.35 , 0.7799999999999984 , 0.0 , 5.0 , 5.0 , 4.0 , 6405.966349223456 , 0.3240768475068171 , -0.3240768475068171 , 0.0 , 5.419353852045221 , 5.41935385204522 , 4.748454866392674 , 3.6155006961496103 , 3.6155006961496103 , 0.623767467117618
5.04999999999999 , 0.05 , 0.35 , -0.35 , 0.8399999999999984 , 0.0 , 5.0 , 5.0 , 4.0 , 6404.679552108666 , 0.33261531629194546 , -0.33261531629194546 , 0.0 , 5.592044310242927 , 5.592044310242926 , 4.7888993030788365 , 3.291512081900738 , 3.291512081900738 , 0.9941519774007758
5.09999999999999 , 0.05 , 0.35 , -0.35 , 0.8699999999999984 , 0.0 , 5.0 , 5.0 , 4.0 , 6403.28756938919 , 0.3383414168971704 , -0.3383414168971704 , 0.0 , 5.747968596020479 , 5.7479685960204785 , 4.849322826937252 , 2.94469126430793 , 2.94469126430793 , 1.424282631608654
5.14999999999999 , 0.05 , 0.35 , -0.35 , 0.8999999999999985 , 0.0 , 5.0 , 5.0 , 4.0 , 6401.841673978188 , 0.3421814763933491 , -0.3421814763933491 , 0.0 , 5.886279890427012 , 5.886279890427011 , 4.931950673159409 , 2.587617068682275 , 2.587617068682275 , 1.8809828538310736
5.1999999999999895 , 0.05 , 0.35 , -0.35 , 0.4299999999999985 , 0.0 , 5.0 , 5.0 , 4.0 , 6400.343057606557 , 0.3447567117849063 , -0.3447567117849063 , 0.0 , 6.006493940468255 , 6.006493940468254 , 5.038069746622488 , 2.22088095752578 , 2.22088095752578 , 2.36382361956615
5.249999999999989 , 0.05 , 0.35 , -0.35 , -1.2400000000000015 , 0.0 , 5.0 , 5.0 , 4.0 , 6399.62614573574 , 0.34648372599615174 , -0.34648372599615174 , 0.0 , 6.112836844857272 , 6.112836844857271 , 5.1559063224534984 , 2.0404106769797297 , 2.0404106769797297 , 2.329127468408154
5.299999999999989 , 0.05 , 0.35 , -0.35 , -1.2400000000000015 , 0.0 , 5.0 , 5.0 , 4.0 , 6399.62614573574 , 0.3476419028741264 , -0.3476419028741264 , 0.0 , 6.214429912166206 , 6.214429912166205 , 5.260270692053033 , 2.0300894592629453 , 2.0300894592629453 , 1.8276749539394617
5.349999999999989 , 0.05 , 0.35 , -0.35 , -1.2400000000000015 , 0.0 , 5.0 , 5.0 , 4.0 , 6399.62614573574 , 0.3484186038832675 , -0.3484186038832675 , 0.0 , 6.3156776399231545 , 6.315677639923154 , 5.339217210472125 , 2.0198383358700194 , 2.0198383358700194 , 1.3308930487116633
5.399999999999989 , 0.05 , 0.35 , -0.35 , -0.7400000000000014 , 0.0 , 5.0 , 5.0 , 4.0 , 6399.62614573574 , 0.3489394780857085 , -0.3489394780857085 , 0.0 , 6.4164153937276796 , 6.416415393727679 , 5.393412650072621 , 2.0096902202317097 , 2.0096902202317097 , 0.8374072032029615
5.449999999999989 , 0.05 , 0.35 , -0.35 , -0.24000000000000143 , 0.0 , 5.0 , 5.0 , 4.0 , 6399.62614573574 , 0.34928878873623614 , -0.34928878873623614 , 0.0 , 6.516648285206478 , 6.516648285206477 , 5.422990859552019 , 1.9996435675105804 , 1.9996435675105804 , 0.3459840390943296
5.4999999999999885 , 0.05 , 0.35 , -0.35 , -0.24000000000000143 , 0.0 , 5.0 , 5.0 , 4.0 , 6399.62614573574 , 0.3495230447811703 , -0.3495230447811703 , 0.0 , 6.616381349516291 , 6.61638134951629 , 5.428024594306462 , 1.9896968636066854 , 1.9896968636066854 , -0.14458029917003648
5.549999999999988 , 0.05 , 0.35 , -0.35 , -0.24000000000000143 , 0.0 , 5.0 , 5.0 , 4.0 , 6399.62614573574 , 0.34968014246629764 , -0.34968014246629764 , 0.0 , 6.715619546861655 , 6.715619546861654 , 5.4085395050296405 , 1.9798486243968756 , 1.9798486243968756 , -0.6346525906505572
5.599999999999988 , 0.05 , 0.35 , -0.35 , 0.7599999999999986 , 0.0 , 5.0 , 5.0 , 4.0 , 6399.62614573574 , 0.3497854959169601 , -0.3497854959169601 , 0.0 , 6.814367763975185 , 6.814367763975184 , 5.3645842373529735 , 1.9700973949965874 , 1.9700973949965874 , -1.1231727891289633
5.649999999999988 , 0.05 , 0.35 , -0.35 , 1.7599999999999985 , 0.0 , 5.0 , 5.0 , 4.0 , 6398.355962527418 , 0.34985614845113006 , -0.34985614845113006 , 0.0 , 6.905404929847482 , 6.9054049298474816 , 5.316094607290488 , 1.6598510272644307 , 1.6598510272644307 , -0.7836754526266216
5.699999999999988 , 0.05 , 0.35 , -0.35 , 1.7599999999999985 , 0.0 , 5.0 , 5.0 , 4.0 , 6396.684612391352 , 0.34990352972391475 , -0.34990352972391475 , 0.0 , 6.978412827880096 , 6.978412827880095 , 5.291631536174914 , 1.2571898604436007 , 1.2571898604436007 , -0.18469834070293079
5.749999999999988 , 0.05 , 0.35 , -0.35 , 0.7599999999999986 , 0.0 , 5.0 , 5.0 , 4.0 , 6395.013224413301 , 0.34993530473435236 , -0.34993530473435236 , 0.0 , 7.031259905436559 , 7.031259905436558 , 5.297350562825512 , 0.8570775898827464 , 0.8570775898827464 , 0.41335528104468255
5.799999999999987 , 0.05 , 0.35 , -0.35 , 0.7599999999999986 , 0.0 , 5.0 , 5.0 , 4.0 , 6393.742950265853 , 0.3499566138134245 , -0.3499566138134245 , 0.0 , 7.06643416691434 , 7.066434166914339 , 5.326681352481479 , 0.5538969318459147 , 0.5538969318459147 , 0.749242881690397
5.849999999999987 , 0.05 , 0.35 , -0.35 , -0.24000000000000143 , 0.0 , 5.0 , 5.0 , 4.0 , 6392.472663187335 , 0.3499709041895614 , -0.3499709041895614 , 0.0 , 7.086567791720826 , 7.086567791720825 , 5.372514773720858 , 0.25156104571716864 , 0.25156104571716864 , 1.0838037966743148
5.899999999999987 , 0.05 , 0.35 , -0.35 , -0.24000000000000143 , 0.0 , 5.0 , 5.0 , 4.0 , 6392.472663187335 , 0.3499804876562818 , -0.3499804876562818 , 0.0 , 7.09884027215058 , 7.0988402721505794 , 5.4152117001521045 , 0.251410069090673 , 0.251410069090673 , 0.5914132484925768
5.949999999999987 , 0.05 , 0.35 , -0.35 , -0.7400000000000014 , 0.0 , 5.0 , 5.0 , 4.0 , 6392.472663187335 , 0.3499869145574006 , -0.3499869145574006 , 0.0 , 7.111406826754588 , 7.111406826754587 , 5.43250732897864 , 0.25125215079106983 , 0.25125215079106983 , 0.10056592918016918
5.999999999999987 , 0.05 , 0.35 , -0.35 , -0.24000000000000143 , 0.0 , 5.0 , 5.0 , 4.0 , 6392.472663187335 , 0.3499912245904185 , -0.3499912245904185 , 0.0 , 7.123965490401848 , 7.123965490401847 , 5.425273913167916 , 0.25109443075348975 , 0.25109443075348975 , -0.389836298608271
6.0499999999999865 , 0.05 , 0.35 , -0.35 , 0.7599999999999986 , 0.0 , 5.0 , 5.0 , 4.0 , 6392.472663187335 , 0.3499941150012514 , -0.3499941150012514 , 0.0 , 7.136516272996127 , 7.1365162729961265 , 5.3935390140646176 , 0.2509369086047983 , 0.2509369086047983 , -0.879281277895467
6.099999999999986 , 0.05 , 0.35 , -0.35 , 0.7599999999999986 , 0.0 , 5.0 , 5.0 , 4.0 , 6391.202353354416 , 0.3499960533796229 , -0.3499960533796229 , 0.0 , 7.141815155610205 , 7.141815155610204 , 5.357203461030982 , -0.051021221397234216 , -0.051021221397234244 , -0.541330504052622
6.149999999999986 , 0.05 , 0.35 , -0.35 , 0.7599999999999986 , 0.0 , 5.0 , 5.0 , 4.0 , 6389.9320423454465 , 0.3499973533023428 , -0.3499973533023428 , 0.0 , 7.13171856857604 , 7.131718568576039 , 5.33856231900176 , -0.35278324009403705 , -0.35278324009403705 , -0.20444208707085804
6.199999999999986 , 0.05 , 0.35 , -0.35 , 0.7599999999999986 , 0.0 , 5.0 , 5.0 , 4.0 , 6388.661730547795 , 0.3499982250614907 , -0.3499982250614907 , 0.0 , 7.106545777499601 , 7.1065457774996 , 5.336752563805099 , -0.653987687519769 , -0.653987687519769 , 0.13201768037836226
6.249999999999986 , 0.05 , 0.35 , -0.35 , -0.24000000000000143 , 0.0 , 5.0 , 5.0 , 4.0 , 6387.3914182212375 , 0.34999880968394587 , -0.34999880968394587 , 0.0 , 7.0663359730713395 , 7.066335973071339 , 5.351759113629582 , -0.9541829343749624 , -0.9541829343749624 , 0.46814086696573226
6.299999999999986 , 0.05 , 0.35 , -0.35 , -0.24000000000000143 , 0.0 , 5.0 , 5.0 , 4.0 , 6387.3914182212375 , 0.34999920174569354 , -0.34999920174569354 , 0.0 , 7.0183829944019855 , 7.018382994401985 , 5.363722175024988 , -0.951883052647869 , -0.951883052647869 , -0.0225693678355378
6.349999999999985 , 0.05 , 0.35 , -0.35 , -0.24000000000000143 , 0.0 , 5.0 , 5.0 , 4.0 , 6387.3914182212375 , 0.34999946467164283 , -0.34999946467164283 , 0.0 , 6.970845385746231 , 6.97084538574623 , 5.350333966063431 , -0.9496232273898007 , -0.9496232273898007 , -0.5128420445818729
6.399999999999985 , 0.05 , 0.35 , -0.35 , 0.7599999999999986 , 0.0 , 5.0 , 5.0 , 4.0 , 6387.3914182212375 , 0.3499996409960489 , -0.3499996409960489 , 0.0 , 6.923420500397871 , 6.92342050039787 , 5.3124581190989835 , -0.9473741066277881 , -0.9473741066277881 , -1.0018596315655968
6.449999999999985 , 0.05 , 0.08000000000000002 , -0.08000000000000002 , 1.7599999999999985 , 0.0 , 5.0 , 5.0 , 4.0 , 6386.121105035618 , 0.3499997592433967 , -0.3499997592433967 , 0.0 , 6.86887549038451 , 6.868875490384509 , 5.269999710186262 , -1.246181907266336 , -1.246181907266336 , -0.6637214693586978
6.499999999999985 , 0.05 , 0.08000000000000002 , -0.08000000000000002 , 1.7599999999999985 , 0.0 , 5.0 , 5.0 , 4.0 , 6384.50081159099 , 0.26044065135580863 , -0.26044065135580863 , 0.0 , 6.797554728838219 , 6.797554728838218 , 5.2520354236795415 , -1.5924679084502795 , -1.5924679084502795 , -0.03229784100415112
6.549999999999985 , 0.05 , -0.12 , 0.12 , 0.7599999999999986 , 0.0 , 5.0 , 5.0 , 4.0 , 6382.9794310294965 , 0.20100779998578494 , -0.20100779998578494 , 0.0 , 6.711015719712784 , 6.711015719712783 , 5.2672335148389235 , -1.8568477780967456 , -1.8568477780967456 , 0.6458678910629934
6.5999999999999845 , 0.05 , -0.12 , 0.12 , 0.7599999999999986 , 0.0 , 5.0 , 5.0 , 4.0 , 6381.927441580535 , 0.09481057515032626 , -0.09481057515032626 , 0.0 , 6.614541824342854 , 6.6145418243428535 , 5.310273586335845 , -1.9816164627876616 , -1.9816164627876616 , 1.069538566468054
6.649999999999984 , 0.05 , -0.12 , 0.12 , -0.7400000000000014 , 0.0 , 5.0 , 5.0 , 4.0 , 6381.003976716118 , 0.024057089781644312 , -0.024057089781644312 , 0.0 , 6.514086912693807 , 6.514086912693806 , 5.374692094141453 , -2.0246458101408 , -2.0246458101408 , 1.5080710673046396
6.699999999999984 , 0.05 , -0.12 , 0.12 , -0.7400000000000014 , 0.0 , 5.0 , 5.0 , 4.0 , 6381.003976716118 , -0.02339188328212429 , 0.02339188328212429 , 0.0 , 6.413087653298962 , 6.413087653298961 , 5.438648984679584 , -2.0144449276983813 , -2.0144449276983813 , 1.0134096095326186
6.749999999999984 , 0.05 , -0.32000000000000006 , 0.32000000000000006 , -0.7400000000000014 , 0.0 , 5.0 , 5.0 , 4.0 , 6381.003976716118 , -0.05521229513992362 , 0.05521229513992362 , 0.0 , 6.312618216547714 , 6.312618216547713 , 5.477010440350163 , -2.004350799599103 , -2.004350799599103 , 0.5213895972568522
6.799999999999984 , 0.05 , -0.32000000000000006 , 0.32000000000000006 , -0.7400000000000014 , 0.0 , 5.0 , 5.0 , 4.0 , 6381.003976716118 , -0.1428919601433347 , 0.1428919601433347 , 0.0 , 6.212650962982531 , 6.21265096298253 , 5.490808379356426 , -1.9943573278399578 , -1.9943573278399578 , 0.030651054949118156
6.849999999999984 , 0.05 , -0.12 , 0.12 , -0.24000000000000143 , 0.0 , 5.0 , 5.0 , 4.0 , 6381.003976716118 , -0.20122712868848291 , 0.20122712868848291 , 0.0 , 6.113180897374038 , 6.113180897374037 , 5.4800801699584225 , -1.984463014308424 , -1.984463014308424 , -0.4596857589698903
6.8999999999999835 , 0.05 , -0.12 , 0.12 , -0.24000000000000143 , 0.0 , 5.0 , 5.0 , 4.0 , 6381.003976716118 , -0.17400794395395466 , 0.17400794395395466 , 0.0 , 6.014203098655601 , 6.0142030986556 , 5.444857869900087 , -1.974666390474618 , -1.974666390474618 , -0.9488972773639814
6.949999999999983 , 0.05 , -0.12 , 0.12 , 0.7599999999999986 , 0.0 , 5.0 , 5.0 , 4.0 , 6381.003976716118 , -0.15621901401107552 , 0.15621901401107552 , 0.0 , 5.915712718462458 , 5.915712718462457 , 5.38522754988658 , -1.9649660166646834 , -1.9649660166646834 , -1.43579408311151
6.999999999999983 , 0.05 , -0.12 , 0.12 , 0.7599999999999986 , 0.0 , 5.0 , 5.0 , 4.0 , 6379.944809754853 , -0.14428933375158465 , 0.14428933375158465 , 0.0 , 5.821055061678839 , 5.821055061678838 , 5.323250071218788 , -1.8177754367089085 , -1.8177754367089085 , -1.0067175047995434
7.049999999999983 , 0.05 , -0.35 , 0.35 , 1.7599999999999985 , 0.0 , 5.0 , 5.0 , 4.0 , 6378.8989646418695 , -0.13628900593250443 , 0.13628900593250443 , 0.0 , 5.7336303624377205 , 5.73363036243772 , 5.283646607326024 , -1.680727548036726 , -1.680727548036726 , -0.5773665316332391
7.099999999999983 , 0.05 , -0.35 , 0.35 , 1.7599999999999985 , 0.0 , 5.0 , 5.0 , 4.0 , 6377.466683784349 , -0.20721495493653885 , 0.20721495493653885 , 0.0 , 5.654525095091626 , 5.654525095091625 , 5.272256710552418 , -1.4661123920295254 , -1.4661123920295254 , 0.1274961447743304
7.149999999999983 , 0.05 , -0.35 , 0.35 , 0.7599999999999986 , 0.0 , 5.0 , 5.0 , 4.0 , 6375.939434978223 , -0.25424494677792914 , 0.25424494677792914 , 0.0 , 5.588006641478892 , 5.588006641478891 , 5.295637939043181 , -1.1856266003603464 , -1.1856266003603464 , 0.8027866823894871
7.199999999999982 , 0.05 , -0.35 , 0.35 , -0.24000000000000143 , 0.0 , 5.0 , 5.0 , 4.0 , 6374.737700755949 , -0.2857843798453372 , 0.2857843798453372 , 0.0 , 5.534799091712685 , 5.534799091712684 , 5.3455305620930815 , -0.9412265832922592 , -0.9412265832922592 , 1.178765924774027
7.249999999999982 , 0.05 , -0.2 , 0.2 , -0.7400000000000014 , 0.0 , 5.0 , 5.0 , 4.0 , 6374.737700755949 , -0.30693547512020536 , 0.30693547512020536 , 0.0 , 5.4880453244600735 , 5.488045324460073 , 5.392998212133864 , -0.9390404330287472 , -0.9390404330287472 , 0.685944208758255
7.299999999999982 , 0.05 , -0.2 , 0.2 , -0.7400000000000014 , 0.0 , 5.0 , 5.0 , 4.0 , 6374.737700755949 , -0.27136479956560067 , 0.27136479956560067 , 0.0 , 5.441148332446188 , 5.441148332446187 , 5.415014703690835 , -0.9368411042013884 , -0.9368411042013884 , 0.19491126587967705
7.349999999999982 , 0.05 , -0.2 , 0.2 , -0.24000000000000143 , 0.0 , 5.0 , 5.0 , 4.0 , 6374.737700755949 , -0.24785893492942018 , 0.24785893492942018 , 0.0 , 5.39436104959785 , 5.394361049597849 , 5.41249744667237 , -0.9346520534066706 , -0.9346520534066706 , -0.2955578364855201
7.399999999999982 , 0.05 , -0.2 , 0.2 , -0.24000000000000143 , 0.0 , 5.0 , 5.0 , 4.0 , 6374.737700755949 , -0.23209534205267401 , 0.23209534205267401 , 0.0 , 5.347682963813453 , 5.347682963813452 , 5.385470589358245 , -0.9324732087647035 , -0.9324732087647035 , -0.7852794143965957
7.4499999999999815 , 0.05 , -0.2 , 0.2 , 0.7599999999999986 , 0.0 , 5.0 , 5.0 , 4.0 , 6374.737700755949 , -0.2215239010854984 , 0.2215239010854984 , 0.0 , 5.30111356656863 , 5.301113566568629 , 5.334000269538371 , -0.9303044990642984 , -0.9303044990642984 , -1.2730826246472602
7.499999999999981 , 0.05 , -0.2 , 0.2 , 0.7599999999999986 , 0.0 , 5.0 , 5.0 , 4.0 , 6373.593441120736 , -0.2144344408973115 , 0.2144344408973115 , 0.0 , 5.259408556878096 , 5.259408556878095 , 5.279578697987209 , -0.7311166025474802 , -0.7311166025474802 , -0.8681089452633339
7.549999999999981 , 0.05 , -0.2 , 0.2 , 1.7599999999999985 , 0.0 , 5.0 , 5.0 , 4.0 , 6372.455987286283 , -0.20968007998133553 , 0.20968007998133553 , 0.0 , 5.22771053776268 , 5.227710537762679 , 5.246304090960416 , -0.5376485277444351 , -0.537648527744435 , -0.4628017367264978
7.599999999999981 , 0.05 , -0.2 , 0.2 , 0.7599999999999986 , 0.0 , 5.0 , 5.0 , 4.0 , 6370.965416461788 , -0.20649169227347808 , 0.20649169227347808 , 0.0 , 5.207017785506831 , 5.20701778550683 , 5.240094019363954 , -0.2884011899103925 , -0.2884011899103923 , 0.2258677368839139
7.649999999999981 , 0.05 , -0.2 , 0.2 , -0.24000000000000143 , 0.0 , 5.0 , 5.0 , 4.0 , 6369.835705878659 , -0.20435348350992869 , 0.20435348350992869 , 0.0 , 5.197339300595546 , 5.197339300595545 , 5.261820632879284 , -0.10147583910212296 , -0.1014758391021228 , 0.6318518838640963
7.699999999999981 , 0.05 , -0.2 , 0.2 , -0.24000000000000143 , 0.0 , 5.0 , 5.0 , 4.0 , 6369.835705878659 , -0.20291954976804014 , 0.20291954976804014 , 0.0 , 5.192452049982961 , 5.19245204998296 , 5.282030967323109 , -0.1014518157153876 , -0.10145181571538743 , 0.1408743722975837
7.7499999999999805 , 0.05 , -0.2 , 0.2 , -0.24000000000000143 , 0.0 , 5.0 , 5.0 , 4.0 , 6369.835705878659 , -0.2019579196357638 , 0.2019579196357638 , 0.0 , 5.187380102372223 , 5.187380102372222 , 5.27681250228025 , -0.10142609106268918 , -0.10142609106268902 , -0.3495587175801746
7.79999999999998 , 0.05 , -0.2 , 0.2 , -0.24000000000000143 , 0.0 , 5.0 , 5.0 , 4.0 , 6369.835705878659 , -0.2013130275572191 , 0.2013130275572191 , 0.0 , 5.182309440668014 , 5.182309440668013 , 5.247088834000269 , -0.10140037945243842 , -0.10140037945243825 , -0.8391272800283995
7.84999999999998 , 0.05 , -0.2 , 0.2 , 0.7599999999999986 , 0.0 , 5.0 , 5.0 , 4.0 , 6369.835705878659 , -0.20088054756412116 , 0.20088054756412116 , 0.0 , 5.177240064218458 , 5.1772400642184575 , 5.192932629279928 , -0.10137468087471904 , -0.10137468087471888 , -1.3266468449349365
7.89999999999998 , 0.05 , -0.2 , 0.2 , 0.7599999999999986 , 0.0 , 5.0 , 5.0 , 4.0 , 6368.711540144393 , -0.2005905161764631 , 0.2005905161764631 , 0.0 , 5.176560780160286 , 5.176560780160285 , 5.135999182142158 , 0.08146790665609879 , 0.08146790665609897 , -0.9152289511001878
7.94999999999998 , 0.05 , -0.2 , 0.2 , 1.7599999999999985 , 0.0 , 5.0 , 5.0 , 4.0 , 6367.587662683543 , -0.2003960142175995 , 0.2003960142175995 , 0.0 , 5.185199126426249 , 5.185199126426248 , 5.100480177396914 , 0.264004957013112 , 0.2640049570131122 , -0.5057937285298701
7.99999999999998 , 0.05 , 0.0 , 0.0 , 0.7599999999999986 , 0.0 , 5.0 , 5.0 , 4.0 , 6366.109131043793 , -0.20026557656977373 , 0.20026557656977373 , 0.0 , 5.204337242966589 , 5.204337242966588 , 5.0922113083992615 , 0.5037106968018942 , 0.5037106968018944 , 0.18625639455060106
8.04999999999998 , 0.05 , 0.0 , 0.0 , -0.24000000000000143 , 0.0 , 5.0 , 5.0 , 4.0 , 6365.029054385938 , -0.1338379633182348 , 0.1338379633182348 , 0.0 , 5.233655527735211 , 5.23365552773521 , 5.1121793976462655 , 0.6552380901694915 , 0.6552380901694916 , 0.6049453093357451
8.09999999999998 , 0.05 , 0.0 , 0.0 , -0.24000000000000143 , 0.0 , 5.0 , 5.0 , 4.0 , 6365.029054385938 , -0.0897549270301746 , 0.0897549270301746 , 0.0 , 5.266514021832133 , 5.2665140218321325 , 5.131067563361281 , 0.6541583426877965 , 0.6541583426877966 , 0.11401892437350673
8.14999999999998 , 0.05 , 0.0 , 0.0 , -0.24000000000000143 , 0.0 , 5.0 , 5.0 , 4.0 , 6365.029054385938 , -0.06019179257111708 , 0.06019179257111708 , 0.0 , 5.299195221731953 , 5.299195221731952 , 5.124506635472172 , 0.6530902816327536 , 0.6530902816327537 , -0.3763941450209492
8.199999999999982 , 0.05 , 0.0 , 0.0 , -0.24000000000000143 , 0.0 , 5.0 , 5.0 , 4.0 , 6365.029054385938 , -0.04036605023038297 , 0.04036605023038297 , 0.0 , 5.331823105706169 , 5.331823105706168 , 5.093442937745416 , 0.6520257025934532 , 0.6520257025934533 , -0.8658812665598102
8.249999999999982 , 0.05 , 0.0 , 0.0 , 0.7599999999999986 , 0.0 , 5.0 , 5.0 , 4.0 , 6365.029054385938 , -0.02707043504771237 , 0.02707043504771237 , 0.0 , 5.364397847430069 , 5.364397847430068 , 5.037952401491906 , 0.6509645885698819 , 0.650964588569882 , -1.3532545548904065
8.299999999999983 , 0.05 , 0.0 , 0.0 , 0.7599999999999986 , 0.0 , 5.0 , 5.0 , 4.0 , 6364.160291154419 , -0.018154078724324615 , 0.018154078724324615 , 0.0 , 5.397452474683489 , 5.397452474683488 , 4.980564287778031 , 0.6707183349858923 , 0.6707183349858924 , -0.9053510493085086
8.349999999999984 , 0.05 , 0.0 , 0.0 , 1.7599999999999985 , 0.0 , 5.0 , 5.0 , 4.0 , 6363.303507342875 , -0.012174557732378464 , 0.012174557732378464 , 0.0 , 5.431334627497373 , 5.431334627497372 , 4.946451967829827 , 0.6835522177542407 , 0.6835522177542408 , -0.45939627071511724
8.399999999999984 , 0.05 , 0.0 , 0.0 , 1.9899999999999984 , 0.0 , 5.0 , 5.0 , 4.0 , 6362.186802115195 , -0.008164548486859692 , 0.008164548486859692 , 0.0 , 5.465809787069741 , 5.46580978706974 , 4.941696002398716 , 0.6947015083305296 , 0.6947015083305297 , 0.28086176108775396
8.449999999999985 , 0.05 , 0.0 , 0.0 , 1.0499999999999985 , 0.0 , 5.0 , 5.0 , 4.0 , 6361.077265008753 , -0.0054753407441651665 , 0.0054753407441651665 , 0.0 , 5.500736232238556 , 5.500736232238555 , 4.974224281689286 , 0.701755371671723 , 0.7017553716717231 , 1.019830423555964
8.499999999999986 , 0.05 , 0.0 , 0.0 , 1.0799999999999985 , 0.0 , 5.0 , 5.0 , 4.0 , 6359.972548951927 , -0.0036718939587369686 , 0.0036718939587369686 , 0.0 , 5.535941789185347 , 5.535941789185346 , 5.0436177396254065 , 0.706064164409478 , 0.7060641644094781 , 1.7549788877894106
8.549999999999986 , 0.05 , 0.0 , 0.0 , 0.6099999999999985 , 0.0 , 5.0 , 5.0 , 4.0 , 6358.87107221576 , -0.0024624595754295453 , 0.0024624595754295453 , 0.0 , 5.571313476747897 , 5.571313476747896 , 5.149617988085152 , 0.7085335232734895 , 0.7085335232734896 , 2.4836279746724563
8.599999999999987 , 0.05 , 0.0 , 0.0 , -0.5900000000000014 , 0.0 , 5.0 , 5.0 , 4.0 , 6358.200498242666 , -0.0016513840619488932 , 0.0016513840619488932 , 0.0 , 5.606750733041689 , 5.606750733041688 , 5.280365659370854 , 0.7087996237334443 , 0.7087996237334444 , 2.726581697940736
8.649999999999988 , 0.05 , 0.0 , 0.0 , -1.0900000000000014 , 0.0 , 5.0 , 5.0 , 4.0 , 6358.200498242666 , -0.0011074574978893299 , 0.0011074574978893299 , 0.0 , 5.642160585911611 , 5.64216058591161 , 5.404762953591835 , 0.7075457656704088 , 0.7075457656704089 , 2.220538332077927
8.699999999999989 , 0.05 , 0.0 , 0.0 , -1.0900000000000014 , 0.0 , 5.0 , 5.0 , 4.0 , 6358.200498242666 , -7.426873844137E-4 , 7.426873844137E-4 , 0.0 , 5.677506620760181 , 5.67750662076018 , 5.503261362902752 , 0.7062964231787214 , 0.7062964231787215 , 1.720286351213559
8.74999999999999 , 0.05 , 0.0 , 0.0 , -1.0900000000000014 , 0.0 , 5.0 , 5.0 , 4.0 , 6358.200498242666 , -4.980638552888138E-4 , 4.980638552888138E-4 , 0.0 , 5.712790298695488 , 5.712790298695487 , 5.576860072683686 , 0.705051484940105 , 0.7050514849401052 , 1.2243203906369358
8.79999999999999 , 0.05 , 0.0 , 0.0 , -0.5900000000000014 , 0.0 , 5.0 , 5.0 , 4.0 , 6358.200498242666 , -3.340134882471291E-4 , 3.340134882471291E-4 , 0.0 , 5.748011839348239 , 5.748011839348238 , 5.625741767531249 , 0.7038109277063554 , 0.7038109277063556 , 0.7313823787610418
8.84999999999999 , 0.05 , 0.0 , 0.0 , -0.09000000000000141 , 0.0 , 5.0 , 5.0 , 4.0 , 6358.200498242666 , -2.23997403438002E-4 , 2.23997403438002E-4 , 0.0 , 5.783171461190825 , 5.7831714611908245 , 5.650027038335926 , 0.7025747283926042 , 0.7025747283926043 , 0.24024436677125727
8.899999999999991 , 0.05 , 0.0 , 0.0 , -0.09000000000000141 , 0.0 , 5.0 , 5.0 , 4.0 , 6358.200498242666 , -1.5021799571711845E-4 , 1.5021799571711845E-4 , 0.0 , 5.8182693815454485 , 5.818269381545448 , 5.649775814739998 , 0.701342864075887 , 0.7013428640758871 , -0.25025266477356445
8.949999999999992 , 0.05 , 0.0 , 0.0 , -0.09000000000000141 , 0.0 , 5.0 , 5.0 , 4.0 , 6358.200498242666 , -1.0073976702820964E-4 , 1.0073976702820964E-4 , 0.0 , 5.8533058165921785 , 5.853305816592178 , 5.625011784130091 , 0.7001153119937268 , 0.7001153119937269 , -0.7400914135278913
8.999999999999993 , 0.05 , 0.0 , 0.0 , 0.9099999999999986 , 0.0 , 5.0 , 5.0 , 4.0 , 6358.200498242666 , -6.755848799906109E-5 , 6.755848799906109E-5 , 0.0 , 5.888280981376945 , 5.888280981376944 , 5.57579568110144 , 0.6988920495427312 , 0.6988920495427313 , -1.2281215485041808
9.049999999999994 , 0.05 , 0.0 , 0.0 , 1.9099999999999986 , 0.0 , 5.0 , 5.0 , 4.0 , 6357.204059268543 , -4.530633170355859E-5 , 4.530633170355859E-5 , 0.0 , 5.92319668185382 , 5.9231966818538195 , 5.529070901261621 , 0.6977352284574195 , 0.6977352284574196 , -0.5967004821861355
9.099999999999994 , 0.05 , 0.0 , 0.0 , 1.9099999999999986 , 0.0 , 5.0 , 5.0 , 4.0 , 6356.109111506176 , -3.038350551097896E-5 , 3.038350551097896E-5 , 0.0 , 5.9580542737979325 , 5.958054273797932 , 5.517629739726623 , 0.6965660741839864 , 0.6965660741839865 , 0.1433041447484707
9.149999999999995 , 0.05 , 0.0 , 0.0 , 0.9099999999999986 , 0.0 , 5.0 , 5.0 , 4.0 , 6355.01419065052 , -2.0375902714347965E-5 , 2.0375902714347965E-5 , 0.0 , 5.992853109963132 , 5.992853109963131 , 5.543276444808411 , 0.6953858926538106 , 0.6953858926538107 , 0.8822087808257082
9.199999999999996 , 0.05 , 0.0 , 0.0 , -0.09000000000000141 , 0.0 , 5.0 , 5.0 , 4.0 , 6354.017829092335 , -1.3664565837360341E-5 , 1.3664565837360341E-5 , 0.0 , 6.0275927206392845 , 6.027592720639284 , 5.603144916036646 , 0.6941978331089701 , 0.6941978331089702 , 1.5074234562151805
9.249999999999996 , 0.05 , 0.28 , -0.28 , -0.5900000000000014 , 0.0 , 5.0 , 5.0 , 4.0 , 6354.017829092335 , -9.163783423056574E-6 , 9.163783423056574E-6 , 0.0 , 6.06227254154736 , 6.062272541547359 , 5.6672516845871765 , 0.6929951428407244 , 0.6929951428407245 , 1.012737660665681
9.299999999999997 , 0.05 , 0.28 , -0.28 , -0.5900000000000014 , 0.0 , 5.0 , 5.0 , 4.0 , 6354.017829092335 , 0.09287004866843149 , -0.09287004866843149 , 0.0 , 6.096892316788611 , 6.09689231678861 , 5.705579614572112 , 0.6917966137156755 , 0.6917966137156756 , 0.5207202199601202
9.349999999999998 , 0.05 , 0.28 , -0.28 , -0.5900000000000014 , 0.0 , 5.0 , 5.0 , 4.0 , 6354.017829092335 , 0.15450619607092678 , -0.15450619607092678 , 0.0 , 6.131452269133583 , 6.131452269133582 , 5.719344115149768 , 0.690602223124275 , 0.6906022231242751 , 0.02998259947795491
9.399999999999999 , 0.05 , 0.28 , -0.28 , -0.09000000000000141 , 0.0 , 5.0 , 5.0 , 4.0 , 6354.017829092335 , 0.1958408650644912 , -0.1958408650644912 , 0.0 , 6.165952604973329 , 6.165952604973328 , 5.708582493758906 , 0.6894119496678697 , 0.6894119496678698 , -0.46035349655984076
9.45 , 0.05 , 0.28 , -0.28 , 0.9099999999999986 , 0.0 , 5.0 , 5.0 , 4.0 , 6354.017829092335 , 0.22356087893314458 , -0.22356087893314458 , 0.0 , 6.2003935296326524 , 6.200393529632652 , 5.673326858242956 , 0.6882257720950772 , 0.6882257720950773 , -0.9495626659994679
9.5 , 0.05 , 0.28 , -0.28 , 0.9099999999999986 , 0.0 , 5.0 , 5.0 , 4.0 , 6352.626301330487 , 0.24215058069168463 , -0.24215058069168463 , 0.0 , 6.228807196694658 , 6.228807196694657 , 5.639089224091098 , 0.43543514912685244 , 0.43543514912685255 , -0.3794781570053074
9.55 , 0.05 , 0.28 , -0.28 , 0.9099999999999986 , 0.0 , 5.0 , 5.0 , 4.0 , 6351.214800091146 , 0.2546172776099808 , -0.2546172776099808 , 0.0 , 6.243948005996476 , 6.243948005996475 , 5.6341687359321355 , 0.1680651315945886 , 0.16806513159458872 , 0.181374494532146
9.600000000000001 , 0.05 , 0.28 , -0.28 , 0.9099999999999986 , 0.0 , 5.0 , 5.0 , 4.0 , 6349.79038807058 , 0.2629777415954375 , -0.2629777415954375 , 0.0 , 6.245458622360844 , 6.245458622360843 , 5.657127192715446 , -0.10908624567900155 , -0.10908624567900146 , 0.7358829044967342
9.650000000000002 , 0.05 , 0.08000000000000002 , -0.08000000000000002 , -0.09000000000000141 , 0.0 , 5.0 , 5.0 , 4.0 , 6348.3575387675 , 0.26858446794085283 , -0.26858446794085283 , 0.0 , 6.232936767569693 , 6.232936767569692 , 5.707661582081613 , -0.39269374910811883 , -0.3926937491081187 , 1.2844032748795342
9.700000000000003 , 0.05 , 0.08000000000000002 , -0.08000000000000002 , -0.09000000000000141 , 0.0 , 5.0 , 5.0 , 4.0 , 6348.3575387675 , 0.20600433355709294 , -0.20600433355709294 , 0.0 , 6.213025905574052 , 6.213025905574051 , 5.760573960075931 , -0.39229697416649595 , -0.39229697416649584 , 0.7910300087384332
9.750000000000004 , 0.05 , 0.08000000000000002 , -0.08000000000000002 , -0.5900000000000014 , 0.0 , 5.0 , 5.0 , 4.0 , 6348.3575387675 , 0.16450150826795934 , -0.16450150826795934 , 0.0 , 6.193420669389712 , 6.193420669389711 , 5.787837113884938 , -0.39191260885110485 , -0.39191260885110474 , 0.29973846141163474
9.800000000000004 , 0.05 , 0.08000000000000002 , -0.08000000000000002 , -0.09000000000000141 , 0.0 , 5.0 , 5.0 , 4.0 , 6348.3575387675 , 0.13666872478099823 , -0.13666872478099823 , 0.0 , 6.1738346326499185 , 6.173834632649918 , 5.790559579530773 , -0.3915289959865006 , -0.3915289959865005 , -0.19079507271255663
9.850000000000005 , 0.05 , 0.08000000000000002 , -0.08000000000000002 , 0.9099999999999986 , 0.0 , 5.0 , 5.0 , 4.0 , 6348.3575387675 , 0.11800339702956732 , -0.11800339702956732 , 0.0 , 6.154267757787356 , 6.1542677577873555 , 5.768765625540354 , -0.3911461333652967 , -0.3911461333652966 , -0.6807720751489454
9.900000000000006 , 0.05 , 0.08000000000000002 , -0.08000000000000002 , 0.9099999999999986 , 0.0 , 5.0 , 5.0 , 4.0 , 6347.153575123947 , 0.10548598351857046 , -0.10548598351857046 , 0.0 , 6.131703871593317 , 6.1317038715933165 , 5.748992261097547 , -0.5141252056987784 , -0.5141252056987783 , -0.06573975120309548
9.950000000000006 , 0.05 , 0.08000000000000002 , -0.08000000000000002 , 0.9099999999999986 , 0.0 , 5.0 , 5.0 , 4.0 , 6345.967515563926 , 0.097091507777673 , -0.097091507777673 , 0.0 , 6.103169838039445 , 6.103169838039444 , 5.76111686469814 , -0.6255194235592322 , -0.6255194235592321 , 0.5509138621510297
