time , step-size , {uav2}.uav2.batteryCharge , {uav2}.uav2.currentPitch , {uav2}.uav2.currentRoll , {uav2}.uav2.currentYaw , {uav2}.uav2.posX , {uav2}.uav2.posY , {uav2}.uav2.posZ , {uav2}.uav2.velX , {uav2}.uav2.velY , {uav2}.uav2.velZ , {uavCont2}.controller2.pitchOut , {uavCont2}.controller2.rollOut , {uavCont2}.controller2.throttleOut , {uavCont2}.controller2.yawOut , {uavCont}.controller.pitchOut , {uavCont}.controller.rollOut , {uavCont}.controller.throttleOut , {uavCont}.controller.yawOut , {uav}.uav.batteryCharge , {uav}.uav.currentPitch , {uav}.uav.currentRoll , {uav}.uav.currentYaw , {uav}.uav.posX , {uav}.uav.posY , {uav}.uav.posZ , {uav}.uav.velX , {uav}.uav.velY , {uav}.uav.velZ
0.0 , 0.0 , 6480.0 , 0.0 , 0.0 , 0.0 , 5.0 , 5.0 , 0.5 , 0.0 , 0.0 , 0.0 , 0.0 , 0.0 , 0.0 , 0.0 , 0.0 , 0.0 , 0.0 , 0.0 , 6480.0 , 0.0 , 0.0 , 0.0 , 5.0 , 5.0 , 0.5 , 0.0 , 0.0 , 0.0
0.05 , 0.05 , 6480.0 , 0.0 , 0.0 , 0.0 , 5.0 , 5.0 , 0.48773978499389453 , 0.0 , 0.0 , -0.4903016023394045 , 0.35 , -0.35 , 1.23 , 0.0 , 0.35 , -0.35 , 1.23 , 0.0 , 6480.0 , 0.0 , 0.0 , 0.0 , 5.0 , 5.0 , 0.48773978499389453 , 0.0 , 0.0 , -0.4903016023394045
0.1 , 0.05 , 6478.510403587067 , 0.13405912801440112 , -0.13405912801440112 , 0.0 , 4.997969324272113 , 4.997969324272113 , 0.4839489532254772 , -0.10458567562874094 , -0.10458567562874092 , 0.40015348880426715 , 0.35 , -0.28 , 4.95 , 0.0 , 0.35 , -0.35 , 1.26 , 0.0 , 6478.510403587067 , 0.13405912801440112 , -0.13405912801440112 , 0.0 , 4.997969324272113 , 4.997969324272113 , 0.4839489532254772 , -0.10458567562874094 , -0.10458567562874092 , 0.40015348880426715
0.15000000000000002 , 0.05 , 6477.088741525001 , 0.20518490623012176 , -0.18196585770013884 , 0.0 , 4.988108711638434 , 4.9878780684296 , 0.5219332411961797 , -0.29939022670508086 , -0.3142122258510763 , 1.1144320860519574 , 0.35 , -0.28 , 6.07 , 0.0 , 0.35 , -0.35 , 2.29 , 0.0 , 6477.078757476663 , 0.20518490623012176 , -0.20518490623012176 , 0.0 , 4.987884714229073 , 4.987884714229073 , 0.5218955108917545 , -0.31373280464046016 , -0.3137328046404601 , 1.1118799965730402
0.2 , 0.05 , 6475.892614526115 , 0.24480453612151168 , -0.20878679420287957 , 0.0 , 4.972457771665976 , 4.97108731205761 , 0.5776177663093484 , -0.48757018086400017 , -0.5321164793225551 , 1.6666328763845946 , 0.35 , 0.2 , 5.1899999999999995 , 0.0 , 0.35 , -0.35 , 1.3199999999999998 , 0.0 , 6475.8642498583595 , 0.24480453612151168 , -0.24480453612151168 , 0.0 , 4.971137523664154 , 4.971137523664154 , 0.577369202597763 , -0.530221003887971 , -0.5302210038879709 , 1.6579991381605226
0.25 , 0.05 , 6474.417951152935 , 0.27945341553152064 , -0.0730263946865765 , 0.0 , 4.943140523784582 , 4.936733267302298 , 0.6780188728918523 , -0.6530790634005226 , -0.8504669960766336 , 2.35075711607362 , 0.35 , 0.2 , 4.93 , 0.0 , 0.35 , -0.35 , 0.8799999999999999 , 0.0 , 6474.293364224209 , 0.27945341553152064 , -0.27945341553152064 , 0.0 , 4.937025118998294 , 4.937025118998294 , 0.6767905568153417 , -0.840778490192529 , -0.840778490192529 , 2.313776898916764
0.3 , 0.05 , 6473.025121630864 , 0.3026897796095368 , 0.01690199458477141 , 0.0 , 4.90929449399382 , 4.885478251454455 , 0.8125818561463882 , -0.6814631485356117 , -1.2045245025963194 , 3.0291210221976903 , 0.35 , 0.2 , 5.05 , 0.0 , 0.35 , -0.35 , 0.9099999999999999 , 0.0 , 6472.878671270073 , 0.3026897796095368 , -0.3026897796095368 , 0.0 , 4.887577273082671 , 4.887577273082671 , 0.8050589744210956 , -1.1391041319571624 , -1.1391041319571624 , 2.807807235255511
0.35 , 0.05 , 6471.5983309311905 , 0.3182726389908463 , 0.077210115067738 , 0.0 , 4.876381766602086 , 4.815963537304673 , 0.9806362278287923 , -0.6223159888204878 , -1.578702886150966 , 3.6893578128494444 , 0.35 , 0.2 , 4.67 , 0.0 , 0.35 , -0.35 , 0.43999999999999995 , 0.0 , 6471.395113178176 , 0.3182726389908463 , -0.3182726389908463 , 0.0 , 4.822573331175251 , 4.822573331175251 , 0.9582177306159486 , -1.46366735452457 , -1.46366735452457 , 3.316627236618946
0.39999999999999997 , 0.05 , 6470.116370390478 , 0.3287228757698182 , 0.117654177567441 , 0.0 , 4.8479774620724285 , 4.727440570617 , 1.181175992185074 , -0.505463369454207 , -1.9635176088563173 , 4.328327990650087 , 0.35 , 0.2 , 4.29 , 0.0 , 0.35 , -0.35 , 0.47 , 0.0 , 6470.671491160185 , 0.3287228757698182 , -0.3287228757698182 , 0.0 , 4.745266265645833 , 4.745266265645833 , 1.1238962302787516 , -1.6222997020257672 , -1.6222997020257672 , 3.2890451941704195
0.44999999999999996 , 0.05 , 6468.599904437159 , 0.3357310535415796 , 0.144776929501683 , 0.0 , 4.826439088519009 , 4.619538791292968 , 1.4131236405630752 , -0.350522299281716 , -2.352997976910941 , 4.945721165608359 , 0.35 , 0.2 , 2.8 , 0.0 , 0.35 , -0.35 , -1.2 , 0.0 , 6469.894212526883 , 0.3357310535415796 , -0.3357310535415796 , 0.0 , 4.6598578934835615 , 4.6598578934835615 , 1.2884059222582682 , -1.794801241732775 , -1.794801241732775 , 3.2922004446379667
0.49999999999999994 , 0.05 , 6467.061455098798 , 0.34043090453246233 , 0.16296609317661873 , 0.0 , 4.8133253045655415 , 4.4921296371992225 , 1.6754097926037748 , -0.17034026943485558 , -2.7432378644227056 , 5.5419560332341335 , 0.35 , 0.2 , 2.8899999999999997 , 0.0 , 0.35 , -0.35 , -1.2 , 0.0 , 6469.894212526883 , 0.34043090453246233 , -0.34043090453246233 , 0.0 , 4.570138603659773 , 4.570138603659773 , 1.4406542124860195 , -1.7867514876864983 , -1.7867514876864983 , 2.7784563480475164
0.5499999999999999 , 0.05 , 6465.508793625162 , 0.3435827365857965 , 0.17516417971281253 , 0.0 , 4.80967204436225 , 4.345246320387466 , 1.9669877225499617 , 0.026683682537457537 , -3.1315606603265014 , 6.117454032531579 , 0.35 , 0.2 , 2.9799999999999995 , 0.0 , 0.35 , -0.35 , -1.2 , 0.0 , 6469.894212526883 , 0.3435827365857965 , -0.3435827365857965 , 0.0 , 4.480999990659536 , 4.480999990659536 , 1.5668860776770874 , -1.7788057827321053 , -1.7788057827321053 , 2.271970565212388
0.6 , 0.05 , 6463.946842680271 , 0.345696430256446 , 0.18334450717610903 , 0.0 , 4.816172571842563 , 4.179035400826173 , 2.2868274508912823 , 0.23497292730764197 , -3.516045441199142 , 6.672454313638662 , 0.35 , 0.2 , 2.5700000000000003 , 0.0 , 0.35 , -0.35 , -0.7 , 0.0 , 6469.894212526883 , 0.345696430256446 , -0.345696430256446 , 0.0 , 4.392256899773222 , 4.392256899773222 , 1.6679427339823776 , -1.7709304341478824 , -1.7709304341478824 , 1.7712079710025994
0.65 , 0.05 , 6462.378771487901 , 0.3471139235929382 , 0.1888304296778233 , 0.0 , 4.833285340969053 , 3.993726464248109 , 2.633906394208999 , 0.45058010109220537 , -3.895255197160138 , 7.207022729794651 , 0.35 , 0.0 , 1.0200000000000005 , 0.0 , 0.35 , -0.35 , -0.19999999999999996 , 0.0 , 6469.894212526883 , 0.3471139235929382 , -0.3471139235929382 , 0.0 , 4.303905836515423 , 4.303905836515423 , 1.7440774505728973 , -1.7631245115826686 , -1.7631245115826686 , 1.2748622100811735
0.7000000000000001 , 0.05 , 6460.83330091847 , 0.348064528397646 , 0.12616928135820005 , 0.0 , 4.860693424630266 , 3.7895739903243104 , 3.0073075120084525 , 0.6315648929083649 , -4.270470107719897 , 7.727680083960195 , 0.35 , 0.0 , 1.08 , 0.0 , 0.35 , -0.35 , -0.19999999999999996 , 0.0 , 6469.894212526883 , 0.348064528397646 , -0.348064528397646 , 0.0 , 4.215943352508381 , 4.215943352508381 , 1.7954793517653267 , -1.755387101016529 , -1.755387101016529 , 0.7816714130077587
0.7500000000000001 , 0.05 , 6459.331373323816 , 0.34870202662883326 , 0.08461212619343504 , 0.0 , 4.895479710587545 , 3.5667483578141144 , 3.406472901946601 , 0.7511301477782744 , -4.64152354256121 , 8.236123570244072 , 0.35 , 0.0 , 0.6400000000000006 , 0.0 , 0.35 , -0.35 , -0.19999999999999996 , 0.0 , 6469.894212526883 , 0.34870202662883326 , -0.34870202662883326 , 0.0 , 4.128366044674391 , 4.128366044674391 , 1.8222753109205123 , -1.747717304403976 , -1.747717304403976 , 0.2904051267722967
0.8000000000000002 , 0.05 , 6458.38968121197 , 0.3491295481317272 , 0.05674290779740959 , 0.0 , 4.934424862455444 , 3.3291525267809123 , 3.8207322384178384 , 0.8014897142741344 , -4.855512736039215 , 8.317375698001841 , 0.35 , 0.0 , -0.5299999999999994 , 0.0 , 0.35 , -0.35 , 0.30000000000000004 , 0.0 , 6469.894212526883 , 0.3491295481317272 , -0.3491295481317272 , 0.0 , 4.041170554445804 , 4.041170554445804 , 1.8245312890710017 , -1.7401142393265034 , -1.7401142393265034 , -0.20012245093114756
0.8500000000000002 , 0.05 , 6458.38968121197 , 0.3494162542377132 , 0.038053145927860445 , 0.0 , 4.974501372313025 , 3.08757343748855 , 4.220949113676665 , 0.7998835772514014 , -4.797150669923812 , 7.666595793231513 , 0.35 , 0.0 , -0.9699999999999998 , 0.0 , 0.35 , -0.35 , 1.3 , 0.0 , 6469.392981840526 , 0.3494162542377132 , -0.3494162542377132 , 0.0 , 3.9514906715981026 , 3.9514906715981026 , 1.8101494569021925 , -1.8516851702728072 , -1.8516851702728072 , -0.3619906058826384
0.9000000000000002 , 0.05 , 6458.38968121197 , 0.34960852618345933 , 0.02551934631508517 , 0.0 , 5.014455613924414 , 2.8491432456328796 , 4.588532909020436 , 0.7982872353189991 , -4.74030106718137 , 7.04089966291838 , 0.35 , 0.0 , -0.9399999999999995 , 0.0 , 0.35 , -0.35 , 1.3 , 0.0 , 6467.721983365448 , 0.34960852618345933 , -0.34960852618345933 , 0.0 , 3.849455797404554 , 3.849455797404554 , 1.8063880411118411 , -2.2401553754295978 , -2.2401553754295978 , 0.24204931822322334
0.9500000000000003 , 0.05 , 6458.38968121197 , 0.34973746833135616 , 0.017113881663919164 , 0.0 , 5.054330197585638 , 2.6135220300443365 , 4.925385187156725 , 0.7966972523912346 , -4.684783093516757 , 6.436857245627835 , 0.35 , 0.0 , -1.6399999999999995 , 0.0 , 0.35 , -0.35 , 1.3 , 0.0 , 6466.050831110522 , 0.34973746833135616 , -0.34973746833135616 , 0.0 , 3.7278224737051575 , 3.7278224737051575 , 1.8335714288246483 , -2.6243508026279128 , -2.6243508026279128 , 0.8449516929308856
1.0000000000000002 , 0.05 , 6458.38968121197 , 0.3498239400079168 , 0.011476976799891478 , 0.0 , 5.0941254402975416 , 2.3806443752256463 , 5.232524561102502 , 0.7951135905471387 , -4.630550503186673 , 5.851954240134361 , 0.1200000000000001 , -0.28 , -1.6399999999999995 , 0.0 , 0.24 , -0.24 , 0.30000000000000004 , 0.0 , 6464.379575791086 , 0.3498239400079168 , -0.3498239400079168 , 0.0 , 3.5871000294942883 , 3.5871000294942883 , 1.8908390931084655 , -3.003593411105631 , -3.003593411105631 , 1.445102807338329
1.0500000000000003 , 0.05 , 6458.38968121197 , 0.27359077051883807 , -0.0851794600269905 , 0.0 , 5.133841657172462 , 2.1504471244861074 , 5.510850321483532 , 0.793536212166659 , -4.577559167339592 , 5.283924490213065 , 0.1200000000000001 , -0.28 , -1.8699999999999994 , 0.0 , 0.040000000000000036 , -0.040000000000000036 , -0.19999999999999996 , 0.0 , 6463.883971316713 , 0.31339485371309445 , -0.31339485371309445 , 0.0 , 3.4343109134933654 , 3.4343109134933654 , 1.9597441058669272 , -3.0945239712220585 , -3.0945239712220585 , 1.2823575328306567
1.1000000000000003 , 0.05 , 6458.38968121197 , 0.22300163017011776 , -0.14934870409168668 , 0.0 , 5.173479161449191 , 1.9228692771285514 , 5.761153850318091 , 0.7919650799276805 , -4.525766954261173 , 4.7307114341863254 , 0.1200000000000001 , -0.28 , -1.8999999999999995 , 0.0 , 0.040000000000000036 , -0.040000000000000036 , -0.19999999999999996 , 0.0 , 6463.883971316713 , 0.22288019895179131 , -0.22288019895179131 , 0.0 , 3.2800725643142044 , 3.2800725643142044 , 2.011854545284619 , -3.070734238029508 , -3.070734238029508 , 0.7890862814354462
1.1500000000000004 , 0.05 , 6458.38968121197 , 0.18907534731327144 , -0.19238212806059105 , 0.0 , 5.213038264507806 , 1.6978518914201364 , 5.984128261128512 , 0.790400156803082 , -4.475133617658256 , 4.190435475266274 , 0.1200000000000001 , -0.28 , -1.9299999999999995 , 0.0 , 0.040000000000000036 , -0.040000000000000036 , -0.19999999999999996 , 0.0 , 6463.883971316713 , 0.16264381872841496 , -0.16264381872841496 , 0.0 , 3.127122310138078 , 3.127122310138078 , 2.0390206663094115 , -3.047340348323638 , -3.047340348323638 , 0.2978000165705361
1.2000000000000004 , 0.05 , 6458.38968121197 , 0.16632357370042217 , -0.2212413674903152 , 0.0 , 5.252519275884341 , 1.4753379929608637 , 6.180376531329108 , 0.7888414060578275 , -4.425620692358865 , 3.6613661166916893 , -0.15999999999999992 , -0.28 , -1.4599999999999995 , 0.0 , 0.040000000000000036 , -0.040000000000000036 , -0.9299999999999999 , 0.0 , 6463.883971316713 , 0.12224786695607966 , -0.12224786695607966 , 0.0 , 2.9753328703166244 , 2.9753328703166244 , 2.04164624760327 , -3.024300208114136 , -3.024300208114136 , -0.19273227329976642
1.2500000000000004 , 0.05 , 6458.38968121197 , 0.05818949811099483 , -0.2405950610533457 , 0.0 , 5.291922503285321 , 1.2552724880934512 , 6.350418341113922 , 0.7872887912460919 , -4.3771913968601845 , 3.1418979374523843 , -0.15999999999999992 , -0.28 , -2.2499999999999996 , 0.0 , -0.24 , 0.24 , 0.010000000000000009 , 0.0 , 6463.883971316713 , 0.09515737922189865 , -0.09515737922189865 , 0.0 , 2.8246867575529326 , 2.8246867575529326 , 2.01975551795592 , -3.0016058538179395 , -3.0016058538179395 , -0.6827050489508141
1.3000000000000005 , 0.05 , 6458.38968121197 , -0.013676923974570158 , -0.2535741090786341 , 0.0 , 5.331248252602157 , 1.0376020820253475 , 6.494695791510341 , 0.78574227620842 , -4.329810542205616 , 2.630529662057123 , -0.15999999999999992 , -0.28 , -2.3099999999999996 , 0.0 , -0.24 , 0.24 , -0.020000000000000018 , 0.0 , 6463.872169847008 , -0.01588634143167964 , 0.01588634143167964 , 0.0 , 2.675149949521617 , 2.675149949521617 , 1.9736983374406476 , -2.979708973484435 , -2.979708973484435 , -1.1586765128324494
1.3500000000000005 , 0.05 , 6458.38968121197 , -0.06187225891755776 , -0.2622781679237389 , 0.0 , 5.370496827925383 , 0.8222752013584841 , 6.613578140513644 , 0.7842018250689196 , -4.2834444467165165 , 2.1258457143991065 , -0.15999999999999992 , -0.28 , -2.3699999999999997 , 0.0 , -0.24 , 0.24 , -0.04999999999999982 , 0.0 , 6463.872169847008 , -0.08970404082259044 , 0.08970404082259044 , 0.0 , 2.526716979879998 , 2.526716979879998 , 1.9036230445458788 , -2.9576765300969385 , -2.9576765300969385 , -1.6442185690607451
1.4000000000000006 , 0.05 , 6458.38968121197 , -0.09419319883441099 , -0.2681153171685398 , 0.0 , 5.409668531558771 , 0.6092419207450568 , 6.707365668471882 , 0.7826674022324871 , -4.2380608561444015 , 1.626499750852663 , -0.15999999999999992 , -0.28 , -1.9299999999999997 , 0.0 , -0.040000000000000036 , 0.040000000000000036 , 2.15 , 0.0 , 6463.872169847008 , -0.13920794881775841 , 0.13920794881775841 , 0.0 , 2.379377319781054 , 2.379377319781054 , 1.809352547599376 , -2.935967460403313 , -2.935967460403313 , -2.1257852559444355
1.4500000000000006 , 0.05 , 6458.38968121197 , -0.11586839122273222 , -0.2720298485282678 , 0.0 , 5.448763664033305 , 0.39845389340841775 , 6.776292760758917 , 0.7811389723820665 , -4.193628868845824 , 1.1311997482993417 , -0.35 , -0.28 , -1.5499999999999998 , 0.0 , -0.040000000000000036 , 0.040000000000000036 , 3.15 , 0.0 , 6462.52765524887 , -0.1060663103444266 , 0.1060663103444266 , 0.0 , 2.2369030632770426 , 2.2369030632770426 , 1.7202837759544627 , -2.7649659635422386 , -2.7649659635422386 , -1.3875775437661786
1.5000000000000007 , 0.05 , 6458.38968121197 , -0.19342742339662905 , -0.27465502652589086 , 0.0 , 5.48778252412101 , 0.18986428528720178 , 6.820530276166054 , 0.779616500475939 , -4.150118865615156 , 0.6386942839727858 , -0.35 , -0.28 , -1.6099999999999999 , 0.0 , -0.040000000000000036 , 0.040000000000000036 , 3.15 , 0.0 , 6461.2370849019035 , -0.0843056418156729 , 0.0843056418156729 , 0.0 , 2.102143603886461 , 2.102143603886461 , 1.669410323643074 , -2.630513410445129 , -2.630513410445129 , -0.6471448787765184
1.5500000000000007 , 0.05 , 6458.38968121197 , -0.24499869962495682 , -0.2764155334386987 , 0.0 , 5.52672540884865 , -0.016572287421708153 , 6.8401872524901 , 0.7780999517450452 , -4.107502443840469 , 0.14775968958628996 , -0.35 , -0.28 , -1.67 , 0.0 , -0.040000000000000036 , 0.040000000000000036 , 2.15 , 0.0 , 6459.9818098927035 , -0.0697124190296833 , 0.0697124190296833 , 0.0 , 1.9734789465781206 , 1.9734789465781206 , 1.6555890002055453 , -2.5195521060485038 , -2.5195521060485038 , 0.09458341668088299
1.6000000000000008 , 0.05 , 6458.38968121197 , -0.27958362620307886 , -0.27759617132033965 , 0.0 , 5.565592613511304 , -0.22089981752972446 , 6.8353129768381935 , 0.7765892916903383 , -4.065752355674911 , -0.342678185479076 , -0.35 , -0.28 , -1.23 , 0.0 , -0.040000000000000036 , 0.040000000000000036 , 1.15 , 0.0 , 6458.7507247385765 , -0.059925856130656256 , 0.059925856130656256 , 0.0 , 1.8499338728253731 , 1.8499338728253731 , 1.6788886071392066 , -2.424630374948346 , -2.424630374948346 , 0.8373549532769173
1.6500000000000008 , 0.05 , 6458.38968121197 , -0.3027771019882888 , -0.27838793521369615 , 0.0 , 5.604384431685791 , -0.4231609631262059 , 6.805932903002001 , 0.7750844860801682 , -4.024842449940787 , -0.8322670516675806 , -0.35 , -0.28 , -0.3500000000000001 , 0.0 , -0.32000000000000006 , 0.32000000000000006 , 0.15000000000000002 , 0.0 , 6457.536087197493 , -0.05336275387550778 , 0.05336275387550778 , 0.0 , 1.730841368597491 , 1.730841368597491 , 1.7392920329317028 , -2.340706910770814 , -2.340706910770814 , 1.5781260233051255
1.7000000000000008 , 0.05 , 6458.38968121197 , -0.31833119945858407 , -0.27891891094518095 , 0.0 , 5.643101155243982 , -0.6233971010312468 , 6.752118860477587 , 0.773585500947696 , -3.9847476175060335 , -1.3198235527060704 , -0.35 , -0.28 , -0.41000000000000014 , 0.0 , -0.32000000000000006 , 0.32000000000000006 , 0.15000000000000002 , 0.0 , 6457.341390946045 , -0.14183757525038537 , 0.14183757525038537 , 0.0 , 1.6145782370063866 , 1.6145782370063866 , 1.8114546062197052 , -2.3089743007650854 , -2.3089743007650854 , 1.2662619749880863
1.7500000000000009 , 0.05 , 6458.38968121197 , -0.32876214781474733 , -0.27927499592176486 , 0.0 , 5.681743074365972 , -0.8216483775991422 , 6.67400191462018 , 0.7720923025883377 , -3.9454437398933293 , -1.8041743709706037 , -0.35 , -0.28 , -0.4700000000000002 , 0.0 , -0.32000000000000006 , 0.32000000000000006 , -0.35 , 0.0 , 6457.12632926948 , -0.20052003305745214 , 0.20052003305745214 , 0.0 , 1.500201295107906 , 1.500201295107906 , 1.8669430212552758 , -2.2643460296776503 , -2.2643460296776503 , 0.9529244614102801
1.800000000000001 , 0.05 , 6458.38968121197 , -0.3357573903106065 , -0.2795137949911577 , 0.0 , 5.720310477553132 , -1.0179537570285557 , 6.571771071929146 , 0.7706048575572385 , -3.9069076409008674 , -2.2841771400898403 , -0.35 , -0.28 , 0.46999999999999975 , 0.0 , -0.32000000000000006 , 0.32000000000000006 , -0.35 , 0.0 , 6457.12632926948 , -0.2398738874335891 , 0.2398738874335891 , 0.0 , 1.387339236780525 , 1.387339236780525 , 1.9024642633484194 , -2.251608166244807 , -2.251608166244807 , 0.4611106930023187
1.850000000000001 , 0.05 , 6457.6250066079465 , -0.3404485665972727 , -0.2796739393367293 , 0.0 , 5.755168690578399 , -1.2079285513654292 , 6.458301239001049 , 0.6177901223580797 , -3.6850656419383223 , -2.233819514135576 , -0.35 , -0.28 , 1.3499999999999996 , 0.0 , -0.32000000000000006 , 0.32000000000000006 , 0.15000000000000002 , 0.0 , 6457.12632926948 , -0.26626551982482294 , 0.26626551982482294 , 0.0 , 1.2750745500699003 , 1.2750745500699003 , 1.9132507737935458 , -2.2390047745937083 , -2.2390047745937083 , -0.02955380046181992
1.900000000000001 , 0.05 , 6455.995872527117 , -0.34359458118727537 , -0.2797813359504755 , 0.0 , 5.778155005015673 , -1.381631144159072 , 6.36206513865291 , 0.29501755495340193 , -3.255372433280852 , -1.5932684234016976 , -0.35 , -0.28 , 1.2899999999999996 , 0.0 , -0.32000000000000006 , 0.32000000000000006 , 0.15000000000000002 , 0.0 , 6456.888230184772 , -0.2839643773145323 , 0.2839643773145323 , 0.0 , 1.164589956226979 , 1.164589956226979 , 1.9036481080031553 , -2.1781144756162365 , -2.1781144756162365 , -0.3478921218022295
1.950000000000001 , 0.05 , 6454.365299427115 , -0.34570437352840766 , -0.27985335867849004 , 0.0 , 5.784852732097821 , -1.5337434542302697 , 6.298278107918404 , -0.027033170374562793 , -2.829869738425947 , -0.9591229370333901 , -0.35 , -0.28 , 1.2299999999999995 , 0.0 , -0.32000000000000006 , 0.32000000000000006 , 1.15 , 0.0 , 6456.647370429955 , -0.2958336528408574 , 0.2958336528408574 , 0.0 , 1.0572412767898482 , 1.0572412767898482 , 1.8782743874066536 , -2.1156211972751255 , -2.1156211972751255 , -0.6671297975564239
2.000000000000001 , 0.05 , 6452.733767640618 , -0.34711925054037246 , -0.27990165883591306 , 0.0 , 5.775456443671038 , -1.6646839224102767 , 6.266090996905199 , -0.3487380533238166 , -2.408466978929053 , -0.32885732701444986 , -0.35 , -0.28 , 0.16999999999999948 , 0.0 , -0.32000000000000006 , 0.32000000000000006 , 1.15 , 0.0 , 6455.029804891555 , -0.30379347180667093 , 0.30379347180667093 , 0.0 , 0.9601289987012644 , 0.9601289987012644 , 1.859997560440005 , -1.7563280171093765 , -1.7563280171093765 , -0.02666928857873574
2.0500000000000007 , 0.05 , 6452.400794941757 , -0.34821647063595595 , -0.2799391150267313 , 0.0 , 5.752309071711601 , -1.805870740009733 , 6.23649670263686 , -0.4139164556682865 , -2.3091138370497375 , -0.6883919517606285 , -0.35 , -0.08000000000000002 , -0.9500000000000006 , 0.0 , -0.35 , 0.35 , 1.15 , 0.0 , 6453.07880781057 , -0.3099662156230178 , 0.3099662156230178 , 0.0 , 0.8677960604123194 , 0.8677960604123194 , 1.881275603143 , -1.3208373728570533 , -1.3208373728570533 , 0.7346936026303575
2.1000000000000005 , 0.05 , 6452.400794941757 , -0.34880392271402605 , -0.21361903042918404 , 0.0 , 5.73156936013652 , -1.9209259965557204 , 6.190049602898724 , -0.4134863070891473 , -2.29587610743277 , -1.176683065818535 , -0.35 , -0.08000000000000002 , -1.0100000000000007 , 0.0 , -0.35 , 0.35 , 1.15 , 0.0 , 6451.441951976433 , -0.3232221259299895 , 0.3232221259299895 , 0.0 , 0.8109487871683893 , 0.8109487871683893 , 1.9336940850533064 , -0.950913600317219 , -0.950913600317219 , 1.359581710546085
2.1500000000000004 , 0.05 , 6452.400794941757 , -0.3491978820742379 , -0.1696081054184729 , 0.0 , 5.710905723400553 , -2.035391566894826 , 6.119064622631147 , -0.41305932116952787 , -2.2827737063053917 , -1.662097067629804 , -0.35 , -0.08000000000000002 , -1.0700000000000007 , 0.0 , -0.35 , 0.35 , 0.15000000000000002 , 0.0 , 6449.792963254548 , -0.3320421196378925 , 0.3320421196378925 , 0.0 , 0.7728479693842484 , 0.7728479693842484 , 2.0170347234347994 , -0.5718272117708468 , -0.5718272117708468 , 1.9719045139673894
2.2 , 0.05 , 6452.400794941757 , -0.34946208060768835 , -0.140093330500132 , 0.0 , 5.690263413924716 , -2.1492057461407534 , 6.023904228613526 , -0.4126332161927186 , -2.269820005348546 , -2.143495212986493 , -0.35 , -0.08000000000000002 , -0.13000000000000078 , 0.0 , -0.35 , 0.35 , -0.35 , 0.0 , 6449.544468209153 , -0.33795701756395474 , 0.33795701756395474 , 0.0 , 0.7460380221943025 , 0.7460380221943025 , 2.1082268847022 , -0.5134076089258612 , -0.5134076089258612 , 1.6386855186236293
2.25 , 0.05 , 6452.400794941757 , -0.3496392584390256 , -0.12030001921961893 , 0.0 , 5.669642387730005 , -2.2623759061159014 , 5.904797262788418 , -0.41220798943523207 , -2.2570124874334865 , -2.6197633724318683 , -0.35 , -0.08000000000000002 , 0.7499999999999996 , 0.0 , -0.35 , 0.35 , -1.6099999999999999 , 0.0 , 6449.544468209153 , -0.3419236890417799 , 0.3419236890417799 , 0.0 , 0.7204420828688799 , 0.7204420828688799 , 2.1779252892936842 , -0.5127524447441907 , -0.5127524447441907 , 1.1432751830707562
2.3 , 0.05 , 6451.267618952902 , -0.34975807811416687 , -0.10702615307863636 , 0.0 , 5.646633162996604 , -2.367347452150704 , 5.7827486172660025 , -0.5102305794477545 , -1.929773317272497 , -2.228302995120706 , -0.35 , -0.08000000000000002 , 0.6899999999999995 , 0.0 , -0.35 , 0.35 , -1.64 , 0.0 , 6449.544468209153 , -0.34458383344489163 , 0.34458383344489163 , 0.0 , 0.6948208793543551 , 0.6948208793543551 , 2.222765100310646 , -0.5120959985884738 , -0.5120959985884738 , 0.650716057292372
2.3499999999999996 , 0.05 , 6450.231626095531 , -0.3498377614193192 , -0.09812438218079818 , 0.0 , 5.619051734804674 , -2.4563194419808565 , 5.679382475974091 , -0.591405826227387 , -1.6305401230226806 , -1.9095864742295432 , -0.35 , -0.08000000000000002 , 1.8599999999999994 , 0.0 , -0.35 , 0.35 , -1.67 , 0.0 , 6449.544468209153 , -0.3463677896623312 , 0.3463677896623312 , 0.0 , 0.6692324561519023 , 0.6692324561519023 , 2.243022433249531 , -0.5114412311007419 , -0.5114412311007419 , 0.15975749538084177
2.3999999999999995 , 0.05 , 6448.736634220055 , -0.34989119894229215 , -0.09215464252273853 , 0.0 , 5.586753797630239 , -2.527274755733435 , 5.600412218586965 , -0.7006118028858836 , -1.2029471064532544 , -1.2357716764916218 , -0.35 , -0.08000000000000002 , 1.8299999999999994 , 0.0 , -0.35 , 0.35 , -1.2 , 0.0 , 6449.544468209153 , -0.3475641532063624 , 0.3475641532063624 , 0.0 , 0.6436767294890411 , 0.6436767294890411 , 2.238747912727957 , -0.5107881358501684 , -0.5107881358501684 , -0.3306885361504227
2.4499999999999993 , 0.05 , 6447.246011256386 , -0.34992703541840253 , -0.08815119287277452 , 0.0 , 5.54912233194882 , -2.576783126840621 , 5.55538559655236 , -0.8037391146286121 , -0.777740424382329 , -0.5657872792788701 , -0.35 , -0.08000000000000002 , 0.7699999999999994 , 0.0 , -0.35 , 0.35 , -0.26 , 0.0 , 6449.544468209153 , -0.34836646310359803 , 0.34836646310359803 , 0.0 , 0.6181536159140112 , 0.6181536159140112 , 2.2099665824040318 , -0.5101367064387324 , -0.5101367064387324 , -0.820312219281969
2.499999999999999 , 0.05 , 6446.100503256114 , -0.34995106821312355 , -0.08546638415114824 , 0.0 , 5.5070051900766135 , -2.6074052273310415 , 5.537414294320744 , -0.8795155104259693 , -0.4511970175880577 , -0.1638238865490108 , -0.35 , -0.08000000000000002 , 0.7399999999999993 , 0.0 , -0.35 , 0.35 , -0.29000000000000004 , 0.0 , 6449.544468209153 , -0.34890451123655375 , 0.34890451123655375 , 0.0 , 0.5926630322941375 , 0.5926630322941375 , 2.1567488156120294 , -0.5094869365010105 , -0.5094869365010105 , -1.3079325283429648
2.549999999999999 , 0.05 , 6445.001096281425 , -0.34996718517786984 , -0.08366588745405966 , 0.0 , 5.4612546566080304 , -2.6221207663719124 , 5.538431545934804 , -0.9500495194946428 , -0.13800838882358463 , 0.2031116062821602 , -0.35 , -0.08000000000000002 , -0.2900000000000005 , 0.0 , -0.35 , 0.35 , -0.31999999999999984 , 0.0 , 6449.544468209153 , -0.3492653391340714 , 0.3492653391340714 , 0.0 , 0.5672048958142056 , 0.5672048958142056 , 2.079224242399976 , -0.5088388197039686 , -0.5088388197039686 , -1.7923755265206975
2.5999999999999988 , 0.05 , 6445.001096281425 , -0.3499779935984322 , -0.08245843147028172 , 0.0 , 5.413736871990476 , -2.628707179602823 , 5.537180995312814 , -0.9477915514189367 , -0.13796461668512108 , -0.2873795779558392 , -0.35 , -0.08000000000000002 , -0.3200000000000005 , 0.0 , -0.35 , 0.35 , 0.6500000000000001 , 0.0 , 6449.544468209153 , -0.3495073189192474 , 0.3495073189192474 , 0.0 , 0.541779123974847 , 0.541779123974847 , 1.9775804716519463 , -0.5081923497467569 , -0.5081923497467569 , -2.2724979617207572
2.6499999999999986 , 0.05 , 6445.001096281425 , -0.34998524198278314 , -0.08164868271866296 , 0.0 , 5.3664033537185984 , -2.6356042210599058 , 5.510562592996272 , -0.945551088463009 , -0.1379170475038078 , -0.77712306324872 , -0.35 , -0.08000000000000002 , -0.38000000000000056 , 0.0 , -0.35 , 0.35 , 2.82 , 0.0 , 6448.458271849082 , -0.3496695963286071 , 0.3496695963286071 , 0.0 , 0.5225969921440924 , 0.5225969921440924 , 1.8690519417875728 , -0.2488171685782802 , -0.2488171685782802 , -2.040797055969256
2.6999999999999984 , 0.05 , 6445.001096281425 , -0.34999010292202926 , -0.08110564591271947 , 0.0 , 5.319181594072822 , -2.642498884877868 , 5.459499136371581 , -0.9433211928844799 , -0.13786951111419313 , -1.2649679825785358 , -0.35 , -0.08000000000000002 , -0.4100000000000006 , 0.0 , -0.35 , 0.35 , 2.82 , 0.0 , 6446.787070773893 , -0.3497784234257521 , 0.3497784234257521 , 0.0 , 0.5199812960172422 , 0.5199812960172422 , 1.7819029702016917 , 0.1497464371118784 , 0.1497464371118784 , -1.4309015886741556
2.7499999999999982 , 0.05 , 6445.001096281425 , -0.3499933627837046 , -0.0807414724922359 , 0.0 , 5.2720710665521295 , -2.649391172695447 , 5.384115065130935 , -0.9411017900960537 , -0.13782200748238146 , -1.7497382185624866 , -0.35 , -0.08000000000000002 , -0.4400000000000006 , 0.0 , -0.35 , 0.35 , 2.82 , 0.0 , 6445.115782729455 , -0.3498514054700166 , 0.3498514054700166 , 0.0 , 0.5374275706672641 , 0.5374275706672641 , 1.725505912118929 , 0.5479844298940151 , 0.5479844298940151 , -0.8256303363887065
2.799999999999998 , 0.05 , 6445.001096281425 , -0.34999554892461365 , -0.08049724911964831 , 0.0 , 5.225071248367326 , -2.6562810861496864 , 5.28459293122057 , -0.9388928062107282 , -0.13777453657452385 , -2.2302873727485153 , -0.35 , -0.08000000000000002 , 0.5299999999999994 , 0.0 , -0.35 , 0.35 , 1.82 , 0.0 , 6443.444436381844 , -0.3499003489677736 , 0.3499003489677736 , 0.0 , 0.5747624288402673 , 0.5747624288402673 , 1.6992973542156675 , 0.945143820881803 , 0.9451438208818032 , -0.223027907638304
2.849999999999998 , 0.05 , 6444.215643151206 , -0.3499970150027944 , -0.08033346710711468 , 0.0 , 5.17699489450046 , -2.6577878294688966 , 5.175863238017996 , -0.986081251779212 , 0.08646122831960346 , -2.0946806904301294 , -0.35 , -0.08000000000000002 , 1.4699999999999993 , 0.0 , -0.35 , 0.35 , 0.8200000000000001 , 0.0 , 6441.773050943948 , -0.34993317164349924 , 0.34993317164349924 , 0.0 , 0.6319118218379254 , 0.6319118218379254 , 1.7031889886671487 , 1.3404233341107263 , 1.3404233341107263 , 0.3785971405898289
2.8999999999999977 , 0.05 , 6442.7337784266465 , -0.3499979981897532 , -0.0802236309872325 , 0.0 , 5.125467494300622 , -2.6430909595039274 , 5.087522043717335 , -1.0766575319037957 , 0.5092460075253938 , -1.4183369033715174 , -0.35 , -0.08000000000000002 , 1.4399999999999995 , 0.0 , -0.35 , 0.35 , 0.8200000000000001 , 0.0 , 6440.402493392072 , -0.3499551833118754 , 0.3499551833118754 , 0.0 , 0.707044347817839 , 0.707044347817839 , 1.732423359669548 , 1.661578087269318 , 1.661578087269318 , 0.7826914943716671
2.9499999999999975 , 0.05 , 6441.251995743706 , -0.3499986575383533 , -0.08014997226827947 , 0.0 , 5.069382631946962 , -2.607079971056271 , 5.033405582982071 , -1.1666290608163854 , 0.9309138606591323 , -0.7469980420628615 , -0.28 , -0.08000000000000002 , 1.4099999999999993 , 0.0 , -0.35 , 0.35 , -0.17999999999999997 , 0.0 , 6439.031921428139 , -0.34996994486113936 , 0.34996994486113936 , 0.0 , 0.7980986624672793 , 0.7980986624672793 , 1.7816279663179173 , 1.9800694401196324 , 1.9800694401196324 , 1.1851200950506113
2.9999999999999973 , 0.05 , 6439.777835816958 , -0.32678005118325126 , -0.08010057497635382 , 0.0 , 5.008808031360183 , -2.5502472965502894 , 5.012857717881147 , -1.25639362769134 , 1.336720300985059 , -0.07333792357978505 , -0.28 , 0.12 , 0.37999999999999945 , 0.0 , -0.35 , 0.35 , -0.17999999999999997 , 0.0 , 6439.031921428139 , -0.34997984430778506 , 0.34997984430778506 , 0.0 , 0.8971820602109722 , 0.8971820602109722 , 1.8294458828571563 , 1.9702513446415355 , 1.9702513446415355 , 0.6922640977489796
3.049999999999997 , 0.05 , 6439.23497524256 , -0.3113718169069635 , -0.01372730931835246 , 0.0 , 4.945374936743797 , -2.47958160138295 , 5.008785263369787 , -1.2728556042241843 , 1.4787810954274967 , -0.11784254576658618 , -0.08000000000000002 , 0.12 , -0.6800000000000006 , 0.0 , -0.35 , 0.35 , -0.17999999999999997 , 0.0 , 6439.031921428139 , -0.3499864831125703 , 0.3499864831125703 , 0.0 , 0.995452771544544 , 0.995452771544544 , 1.851777949033839 , 1.9605941932835196 , 1.9605941932835196 , 0.20121715684246208
3.099999999999997 , 0.05 , 6439.23497524256 , -0.2346985492269502 , 0.03031928017859338 , 0.0 , 4.881827098124867 , -2.4056357149934255 , 4.991083381883354 , -1.2688172720251685 , 1.473312980696044 , -0.6079715607950185 , -0.08000000000000002 , 0.12 , -0.7100000000000009 , 0.0 , -0.35 , 0.35 , -0.17999999999999997 , 0.0 , 6439.031921428139 , -0.3499909352532357 , 0.3499909352532357 , 0.0 , 1.0932429867171805 , 1.0932429867171805 , 1.8495759056234848 , 1.9510312488101291 , 1.9510312488101291 , -0.2892559534124509
3.149999999999997 , 0.05 , 6439.23497524256 , -0.18374453296576002 , 0.05985797255114681 , 0.0 , 4.818486649280876 , -2.3321054126576675 , 4.94845957486855 , -1.264805256346164 , 1.4679062694879692 , -1.0966070133755488 , -0.08000000000000002 , 0.35 , -0.7400000000000007 , 0.0 , -0.35 , 0.35 , -0.17999999999999997 , 0.0 , 6439.031921428139 , -0.3499939209648428 , 0.3499939209648428 , 0.0 , 1.1905573816570925 , 1.1905573816570925 , 1.8228637888613672 , 1.941561139411112 , 1.941561139411112 , -0.7789944418444184
3.1999999999999966 , 0.05 , 6439.23497524256 , -0.14957355562846247 , 0.15595848290197126 , 0.0 , 4.755346167838472 , -2.258844455483257 , 4.881465488728076 , -1.2608185327705996 , 1.4625390958805657 , -1.5825715680464498 , -0.08000000000000002 , 0.35 , 0.4599999999999992 , 0.0 , -0.35 , 0.35 , 0.8200000000000001 , 0.0 , 6439.031921428139 , -0.3499959232541842 , 0.3499959232541842 , 0.0 , 1.2874005643675333 , 1.2874005643675333 , 1.7717069815422273 , 1.9321825197820186 , 1.9321825197820186 , -1.2668298207037714
3.2499999999999964 , 0.05 , 6438.583163956325 , -0.1266576840669216 , 0.2198711353926807 , 0.0 , 4.694816512135052 , -2.1839652954087585 , 4.8035352774943805 , -1.1505605239246015 , 1.533420028519834 , -1.5134544417548614 , -0.08000000000000002 , 0.35 , 1.459999999999999 , 0.0 , -0.35 , 0.35 , 1.82 , 0.0 , 6437.661322793118 , -0.3499972660371232 , 0.3499972660371232 , 0.0 , 1.3915967437929833 , 1.3915967437929833 , 1.7176757432171186 , 2.248099282159975 , 2.2480992821599743 , -0.8590825942366326
3.2999999999999963 , 0.05 , 6437.140976729899 , -0.11128975460322867 , 0.26273248293850787 , 0.0 , 4.6443677483531225 , -2.103895412350491 , 4.744920041315409 , -0.8525833352396577 , 1.6688903340778922 , -0.8079802524398205 , -0.08000000000000002 , 0.35 , 1.459999999999999 , 0.0 , -0.35 , 0.35 , 1.82 , 0.0 , 6435.989859971136 , -0.3499981665393553 , 0.3499981665393553 , 0.0 , 1.5135412658017033 , 1.5135412658017033 , 1.6895847647779587 , 2.6316909928739176 , 2.631690992873917 , -0.25703280911526966
3.349999999999996 , 0.05 , 6435.684040674188 , -0.10098365494793977 , 0.29147632381901634 , 0.0 , 4.610063155647691 , -2.0174340469674537 , 4.721891553817012 , -0.513621227791662 , 1.7869953398721297 , -0.11498304929463712 , -0.08000000000000002 , 0.35 , 1.459999999999999 , 0.0 , -0.35 , 0.35 , 0.8200000000000001 , 0.0 , 6434.318396430278 , -0.3499987704376076 , 0.3499987704376076 , 0.0 , 1.6546129649249033 , 1.6546129649249033 , 1.6917608603968959 , 3.01020819052958 , 3.0102081905295797 , 0.3439905934823428
3.399999999999996 , 0.05 , 6434.218183850467 , -0.09407213896553741 , 0.31075262836545203 , 0.0 , 4.5934380662063115 , -1.92538415442301 , 4.733293289064558 , -0.14737074612386836 , 1.8932339656931416 , 0.5697623925787441 , -0.08000000000000002 , 0.2 , 0.4599999999999992 , 0.0 , -0.35 , 0.35 , 0.8200000000000001 , 0.0 , 6432.947795931457 , -0.349999175426164 , 0.349999175426164 , 0.0 , 1.8127579797431075 , 1.8127579797431075 , 1.7192544372777705 , 3.311873379292898 , 3.3118733792928974 , 0.747685706271713
3.4499999999999957 , 0.05 , 6433.549430700431 , -0.08943711167366669 , 0.2739246734795175 , 0.0 , 4.590450839668733 , -1.8296360818744086 , 4.763661761233864 , 0.01576857140048403 , 1.9338934912098051 , 0.6208876208769396 , 0.2 , 0.2 , -0.5400000000000008 , 0.0 , -0.35 , 0.35 , -0.17999999999999997 , 0.0 , 6431.577195167528 , -0.3499994470211392 , 0.3499994470211392 , 0.0 , 1.9857924630132258 , 1.9857924630132258 , 1.7667004765165781 , 3.6085765680530817 , 3.6085765680530812 , 1.1497979020248377
3.4999999999999956 , 0.05 , 6433.549430700431 , 0.00654744218254949 , 0.2495756473677568 , 0.0 , 4.591392532656873 , -1.7331258868875972 , 4.78297370409175 , 0.015767590609981116 , 1.924579228284975 , 0.12995456642515776 , 0.2 , 0.2 , -0.5400000000000008 , 0.0 , -0.35 , 0.35 , -0.17999999999999997 , 0.0 , 6431.577195167528 , -0.34999962915920063 , 0.34999962915920063 , 0.0 , 2.165734045590795 , 2.165734045590795 , 1.8127563802236706 , 3.5761965330577192 , 3.576196533057719 , 0.6571073635143271
3.5499999999999954 , 0.05 , 6433.549430700431 , 0.07026610551880515 , 0.2332466103162856 , 0.0 , 4.592180896649207 , -1.6371277152835546 , 4.777209372449554 , 0.015766969092196628 , 1.9153635623480467 , -0.36047064358827763 , 0.2 , 0.0 , -0.5400000000000008 , 0.0 , -0.35 , 0.35 , -0.6799999999999999 , 0.0 , 6431.577195167528 , -0.34999975130532424 , 0.34999975130532424 , 0.0 , 2.3437490941198043 , 2.3437490941198043 , 1.833332881945211 , 3.5445069747130087 , 3.5445069747130082 , 0.16613576615820705
3.599999999999995 , 0.05 , 6433.549430700431 , 0.11299735931566185 , 0.15595583035614857 , 0.0 , 4.592969229566878 , -1.5415881253963395 , 4.746940805344561 , 0.015766347623407468 , 1.9062357324488621 , -0.8500065227396245 , 0.2 , 0.0 , -0.5400000000000008 , 0.0 , -0.24 , 0.24 , -0.17999999999999997 , 0.0 , 6431.577195167528 , -0.349999833219425 , 0.349999833219425 , 0.0 , 2.5201936484430814 , 2.5201936484430814 , 1.8293772010582607 , 3.5133741001149987 , 3.5133741001149983 , -0.3243145429815496
3.649999999999995 , 0.05 , 6433.549430700431 , 0.14165395622849156 , 0.10458769564703373 , 0.0 , 4.593757531412331 , -1.4465027567768758 , 4.692241997226082 , 0.015765726203607843 , 1.8971944887746313 , -1.337467034064432 , 0.2 , 0.0 , 0.4599999999999992 , 0.0 , -0.24 , 0.24 , 0.8200000000000001 , 0.0 , 6431.577195167528 , -0.313512811891571 , 0.313512811891571 , 0.0 , 2.6950951769136653 , 2.6950951769136653 , 1.8009141848451755 , 3.4827833682984037 , 3.4827833682984033 , -0.813956444227387
3.699999999999995 , 0.05 , 6432.934697632902 , 0.16087175289152345 , 0.0701390006117543 , 0.0 , 4.595783944214897 , -1.35387719694058 , 4.626663582923 , 0.06413665555146945 , 1.8028128821460674 , -1.2633930318128164 , 0.2 , 0.0 , 0.4599999999999992 , 0.0 , -0.24 , 0.24 , 0.8200000000000001 , 0.0 , 6430.25044282767 , -0.28929944317384826 , 0.28929944317384826 , 0.0 , 2.875404792893563 , 2.875404792893563 , 1.770134602316438 , 3.736961071788059 , 3.7369610717880586 , -0.37831201977427936
3.7499999999999947 , 0.05 , 6432.326345913811 , 0.17375966521778755 , 0.04703688494503315 , 0.0 , 4.5998585303212085 , -1.2662706006045572 , 4.565329245889979 , 0.09649997337434521 , 1.7002898171449927 , -1.1901496932805038 , 0.2 , 0.0 , 1.459999999999999 , 0.0 , -0.24 , 0.24 , 0.8200000000000001 , 0.0 , 6428.943740340876 , -0.2730613812029978 , 0.2730613812029978 , 0.0 , 3.068151791546838 , 3.068151791546838 , 1.7623257736418134 , 3.9695964823465726 , 3.9695964823465717 , 0.06746019969008839
3.7999999999999945 , 0.05 , 6431.013818218229 , 0.1824026062917236 , 0.031544055746946416 , 0.0 , 4.6059152938730055 , -1.1867417591387373 , 4.523373513537052 , 0.1435927475632762 , 1.4746703858882448 , -0.4626151809933444 , 0.2 , 0.0 , 1.459999999999999 , 0.0 , -0.24 , 0.24 , 0.8200000000000001 , 0.0 , 6427.651260572395 , -0.2621717499565951 , 0.2621717499565951 , 0.0 , 3.2721093778536368 , 3.2721093778536368 , 1.776986816430594 , 4.18619592725689 , 4.186195927256889 , 0.5198620204796774
3.8499999999999943 , 0.05 , 6429.708281929711 , 0.18819876850298417 , 0.021154195353906675 , 0.0 , 4.6139396285653405 , -1.1187993046663345 , 4.518363939617245 , 0.17509446477921775 , 1.2420359809941275 , 0.2619315873057572 , 0.2 , 0.0 , 0.4599999999999992 , 0.0 , 0.24 , -0.24 , -0.17999999999999997 , 0.0 , 6426.368662095905 , -0.2548689037859435 , 0.2548689037859435 , 0.0 , 3.48657596808116 , 3.48657596808116 , 1.814363940252386 , 4.390514998590286 , 4.390514998590285 , 0.9755613663104395
3.899999999999994 , 0.05 , 6429.109954092753 , 0.19208581298146116 , 0.014186507425081714 , 0.0 , 4.62296701005264 , -1.0595920735235138 , 4.533810652110434 , 0.18474177658062943 , 1.1309658302230965 , 0.329632301618611 , 0.2 , 0.0 , 0.4599999999999992 , 0.0 , 0.24 , -0.24 , -0.17999999999999997 , 0.0 , 6426.368662095905 , -0.09075510836895759 , 0.09075510836895759 , 0.0 , 3.7051483379911225 , 3.7051483379911225 , 1.8517825318439296 , 4.342739941817191 , 4.34273994181719 , 0.48359051918420465
3.949999999999994 , 0.05 , 6428.513142127416 , 0.19469255762161372 , 0.009513809887584839 , 0.0 , 4.632376683251852 , -1.0058460755416876 , 4.551976239378929 , 0.19117342692441047 , 1.0187202839675187 , 0.39691922627983633 , 0.2 , 0.0 , -0.5400000000000008 , 0.0 , 0.24 , -0.24 , -0.17999999999999997 , 0.0 , 6426.368662095905 , 0.018187743742596428 , -0.018187743742596428 , 0.0 , 3.9211147526759196 , 3.9211147526759196 , 1.8636921480840447 , 4.2960980144633 , 4.296098014463299 , -0.007099469433913458
3.999999999999994 , 0.05 , 6428.513142127416 , 0.1964407026857079 , 0.006380187587050567 , 0.0 , 4.641938375771141 , -0.9550844025149817 , 4.560112506607742 , 0.19108200082673657 , 1.0161434980625825 , -0.09370531227601345 , 0.2 , 0.0 , -0.5400000000000008 , 0.0 , 0.24 , -0.24 , -0.17999999999999997 , 0.0 , 6426.368662095905 , 0.0912474160455999 , -0.0912474160455999 , 0.0 , 4.134773995738469 , 4.134773995738469 , 1.8510771019870171 , 4.250447325531213 , 4.250447325531213 , -0.49739224698841533
4.049999999999994 , 0.05 , 6428.513142127416 , 0.1976130504170676 , 0.00427870581049501 , 0.0 , 4.651490194489243 , -0.9043416570986528 , 4.543169412024451 , 0.1909907635842482 , 1.0135686705242508 , -0.5838701858515847 , 0.35 , 0.0 , 0.4599999999999992 , 0.0 , 0.35 , -0.35 , 0.8200000000000001 , 0.0 , 6426.368662095905 , 0.1402429730148318 , -0.1402429730148318 , 0.0 , 4.346174841421941 , 4.346174841421941 , 1.8139724682979805 , 4.205756608533861 , 4.205756608533861 , -0.9864676486017256
4.099999999999993 , 0.05 , 6427.90869756052 , 0.24815435873094446 , 0.0028694020611432954 , 0.0 , 4.661087545457305 , -0.8566284801488759 , 4.515070350160735 , 0.19285312908587587 , 0.8851647819481131 , -0.5190707858436712 , 0.35 , 0.0 , 0.4599999999999992 , 0.0 , 0.35 , -0.35 , 0.8200000000000001 , 0.0 , 6425.188618311298 , 0.20958763715000997 , -0.20958763715000997 , 0.0 , 4.551457816584925 , 4.551457816584925 , 1.7761025471549663 , 3.9884029030330863 , 3.9884029030330863 , -0.49349473788557396
4.149999999999993 , 0.05 , 6427.289211427128 , 0.2816998863864213 , 0.0019242893886973844 , 0.0 , 4.670762676879193 , -0.8160705738640155 , 4.4906094198428255 , 0.19405629669268484 , 0.7339454163647021 , -0.4602983911146849 , 0.35 , 0.0 , 0.4599999999999992 , 0.0 , 0.35 , -0.35 , 0.8200000000000001 , 0.0 , 6423.933922365516 , 0.2558361240019094 , -0.2558361240019094 , 0.0 , 4.744390335542423 , 4.744390335542423 , 1.7632380436972317 , 3.7222837343703437 , 3.7222837343703437 , -0.02501240019354596
4.199999999999993 , 0.05 , 6426.660567629838 , 0.30419631648934264 , 0.0012904743122607086 , 0.0 , 4.680486279904083 , -0.7834639062406638 , 4.468969114292137 , 0.19482443804934635 , 0.5682128165574241 , -0.406005779889806 , 0.28 , 0.0 , 0.4599999999999992 , 0.0 , 0.32000000000000006 , -0.32000000000000006 , 0.8200000000000001 , 0.0 , 6422.635905118294 , 0.28685146120319416 , -0.28685146120319416 , 0.0 , 4.92323590403254 , 4.92323590403254 , 1.773298132779344 , 3.4276445357513134 , 3.4276445357513134 , 0.42439025589190205
4.249999999999993 , 0.05 , 6426.029970678051 , 0.29606390998727256 , 8.654228206974952E-4 , 0.0 , 4.690240586729484 , -0.7593000820405826 , 4.449988703671836 , 0.1953064648061056 , 0.39939023727226824 , -0.3529304690180669 , 0.28 , 0.0 , 0.4599999999999992 , 0.0 , 0.32000000000000006 , -0.32000000000000006 , -0.17999999999999997 , 0.0 , 6421.316635850216 , 0.29770006450454567 , -0.29770006450454567 , 0.0 , 5.08696011495566 , 5.08696011495566 , 1.8054837594078805 , 3.1207016558785945 , 3.1207016558785945 , 0.8617514934159938
4.299999999999993 , 0.05 , 6425.401913448606 , 0.2907728407768628 , 5.803731631604151E-4 , 0.0 , 4.700013917529997 , -0.7434602557558838 , 4.433692278938005 , 0.19559886202662308 , 0.23477023974518046 , -0.2987898885490223 , 0.28 , 0.0 , 0.4599999999999992 , 0.0 , 0.32000000000000006 , -0.32000000000000006 , -0.17999999999999997 , 0.0 , 6421.316635850216 , 0.30504513193754346 , -0.30504513193754346 , 0.0 , 5.242108885277623 , 5.242108885277623 , 1.8372000800310895 , 3.096630349088635 , 3.096630349088635 , 0.37017559441053716
4.3499999999999925 , 0.05 , 6424.775440940452 , 0.2872245236991235 , 3.892120712108704E-4 , 0.0 , 4.70979844810996 , -0.7357822427277911 , 4.42011930745823 , 0.19576360326271178 , 0.07272261643160483 , -0.24404301221277963 , 0.28 , 0.0 , 0.4599999999999992 , 0.0 , 0.35 , -0.35 , -0.17999999999999997 , 0.0 , 6421.316635850216 , 0.30997090916199865 , -0.30997090916199865 , 0.0 , 5.3963440364408415 , 5.3963440364408415 , 1.8434427764050378 , 3.072841754056407 , 3.072841754056407 , -0.12040641418767864
4.399999999999992 , 0.05 , 6424.150038120054 , 0.284844937724439 , 2.6101488833725576E-4 , 0.0 , 4.719588917539316 , -0.7361616453462837 , 4.40929399491402 , 0.19584257827794274 , -0.08765913887988767 , -0.18891571592921863 , 0.28 , 0.0 , 0.4599999999999992 , 0.0 , 0.35 , -0.35 , -0.17999999999999997 , 0.0 , 6421.316635850216 , 0.32322527352905855 , -0.32322527352905855 , 0.0 , 5.549398863112181 , 5.549398863112181 , 1.8251655073434845 , 3.0494158643360447 , 3.0494158643360447 , -0.6105243068661709
4.449999999999992 , 0.05 , 6423.525355770646 , 0.2832491306736996 , 1.7504280307071654E-4 , 0.0 , 4.729381792893534 , -0.7445299549525378 , 4.401231489840047 , 0.19586398501704344 , -0.246891187205067 , -0.133550975490082 , 0.08000000000000002 , 0.0 , 0.4599999999999992 , 0.0 , 0.35 , -0.35 , 0.8200000000000001 , 0.0 , 6421.316635850216 , 0.332044230492823 , -0.332044230492823 , 0.0 , 5.7012912936105 , 5.7012912936105 , 1.7824143070711986 , 3.02634444743673 , 3.02634444743673 , -1.0991488853723155
4.499999999999992 , 0.05 , 6422.913379804791 , 0.21583880578661357 , 1.1738787431644098E-4 , 0.0 , 4.7391747149651 , -0.760544673722316 , 4.396020083752808 , 0.19584744758884667 , -0.3864472964376288 , -0.07306962144611187 , 0.08000000000000002 , 0.0 , 0.4599999999999992 , 0.0 , 0.35 , -0.35 , 0.8200000000000001 , 0.0 , 6419.958194791621 , 0.33795843315356455 , -0.33795843315356455 , 0.0 , 5.844535246120268 , 5.844535246120268 , 1.7369600336123765 , 2.6910011053190273 , 2.6910011053190273 , -0.6838756900020011
4.549999999999992 , 0.05 , 6422.322947394783 , 0.17109673966162656 , 7.872310540505637E-5 , 0.0 , 4.7489661336017175 , -0.7826782481871611 , 4.394033673092342 , 0.19580550293199334 , -0.4943530636825252 , -0.0055153549029325726 , 0.08000000000000002 , 0.0 , 0.4599999999999992 , 0.0 , 0.35 , -0.35 , 1.82 , 0.0 , 6418.595658960502 , 0.34192463836990017 , -0.34192463836990017 , 0.0 , 5.970716144420641 , 5.970716144420641 , 1.7130471910178282 , 2.356437645021899 , 2.356437645021899 , -0.27328635190923345
4.599999999999992 , 0.05 , 6421.74757812261 , 0.1410916440918532 , 5.279359014466485E-5 , 0.0 , 4.758754987875969 , -0.8096489064330877 , 4.39552519705399 , 0.19574608513586061 , -0.5813936017643805 , 0.06564676633561574 , 0.08000000000000002 , 0.0 , 0.4599999999999992 , 0.0 , 0.35 , -0.35 , 0.8200000000000001 , 0.0 , 6416.930740975389 , 0.3445844700869478 , -0.3445844700869478 , 0.0 , 6.078517115005013 , 6.078517115005013 , 1.714321352012607 , 1.9531339065003015 , 1.9531339065003015 , 0.3316849670377976
4.6499999999999915 , 0.05 , 6421.182755627852 , 0.12096951210008895 , 3.540463941332064E-5 , 0.0 , 4.768540554281738 , -0.8405933773436359 , 4.4006291847602474 , 0.19567482904652944 , -0.6543002946192785 , 0.1387707316202128 , 0.08000000000000002 , 0.0 , -0.5400000000000008 , 0.0 , 0.35 , -0.35 , -0.17999999999999997 , 0.0 , 6415.563721779786 , 0.34636821660966277 , -0.34636821660966277 , 0.0 , 6.167825425414304 , 6.167825425414304 , 1.7412514178786482 , 1.6223059107018318 , 1.6223059107018318 , 0.7372251512359475
4.699999999999991 , 0.05 , 6421.182755627852 , 0.1074751309556452 , 2.374319474300671E-5 , 0.0 , 4.778321923406812 , -0.8733500827915558 , 4.3958696092925456 , 0.19557915386265964 , -0.6532272708557868 , -0.3516675189455328 , 0.08000000000000002 , 0.0 , -0.5400000000000008 , 0.0 , 0.35 , -0.35 , -0.17999999999999997 , 0.0 , 6415.563721779786 , 0.3475644395274154 , -0.3475644395274154 , 0.0 , 6.248455263423824 , 6.248455263423824 , 1.766722000188523 , 1.6158043964766053 , 1.6158043964766053 , 0.24600731919926197
4.749999999999991 , 0.05 , 6421.182755627852 , 0.09842547744248618 , 1.592275210102098E-5 , 0.0 , 4.788098491147469 , -0.9059848050599659 , 4.366040634578553 , 0.19548357258404483 , -0.6521622455313948 , -0.8412298113454386 , 0.08000000000000002 , 0.0 , -0.5400000000000008 , 0.0 , 0.35 , -0.35 , -0.17999999999999997 , 0.0 , 6415.563721779786 , 0.34836665511731807 , -0.34836665511731807 , 0.0 , 6.3290827274470445 , 6.3290827274470445 , 1.7667588385575224 , 1.609303600069751 , 1.609303600069751 , -0.2444931163120578
4.799999999999991 , 0.05 , 6421.182755627852 , 0.09235656417913495 , 1.0678176935108685E-5 , 0.0 , 4.7978702821592405 , -0.938566362818302 , 4.311779564735218 , 0.19538808468264351 , -0.651100687400054 , -1.3287380092783305 , 0.08000000000000002 , 0.0 , 0.4599999999999992 , 0.0 , 0.35 , -0.35 , -0.17999999999999997 , 0.0 , 6415.563721779786 , 0.34890464000552934 , -0.34890464000552934 , 0.0 , 6.409386456957979 , 6.409386456957979 , 1.7422824945561943 , 1.6028549027792778 , 1.6028549027792778 , -0.7343460280869831
4.849999999999991 , 0.05 , 6420.635805454087 , 0.08828660634654788 , 7.161039871378506E-6 , 0.0 , 4.8076374284382455 , -0.9723314352293433 , 4.246776191984848 , 0.19529766553396993 , -0.7011511713617784 , -1.24886011339311 , 0.08000000000000002 , 0.0 , 1.459999999999999 , 0.0 , 0.35 , -0.35 , 0.8200000000000001 , 0.0 , 6415.563721779786 , 0.3492654254896145 , -0.3492654254896145 , 0.0 , 6.4893690412722425 , 6.4893690412722425 , 1.6933530199902493 , 1.5964576808008302 , 1.5964576808008302 , -1.222404288887245
4.899999999999991 , 0.05 , 6419.450116692355 , 0.0855571956530278 , 4.802363956984831E-6 , 0.0 , 4.817400118370347 , -1.009990509536987 , 4.20225015748232 , 0.19520961449887808 , -0.8068839221426736 , -0.5061964132402295 , 0.08000000000000002 , 0.0 , 1.459999999999999 , 0.0 , 0.35 , -0.35 , 0.8200000000000001 , 0.0 , 6414.193602015103 , 0.3495073768313322 , -0.3495073768313322 , 0.0 , 6.561232117844136 , 6.561232117844136 , 1.64151183541827 , 1.2654666044565381 , 1.2654666044565381 , -0.8159537349710649
4.94999999999999 , 0.05 , 6418.266670917572 , 0.08372678781089878 , 3.2205796908804822E-6 , 0.0 , 4.827158348610861 , -1.0529102143223825 , 4.19546324093757 , 0.19511926010074934 , -0.9094174454157621 , 0.23461835823933214 , 0.08000000000000002 , 0.0 , 1.459999999999999 , 0.0 , 0.35 , -0.35 , 1.82 , 0.0 , 6412.82332349211 , 0.34966963516583094 , -0.34966963516583094 , 0.0 , 6.616273358951737 , 6.616273358951737 , 1.6108323523015917 , 0.936492452536892 , 0.936492452536892 , -0.4114841610567258
4.99999999999999 , 0.05 , 6417.084732736137 , 0.0824992727005925 , 2.1597974743721795E-6 , 0.0 , 4.836912020373544 , -1.100895319591479 , 4.225696948626301 , 0.19502739117734108 , -1.0096263790789937 , 0.9743346271519314 , -0.2 , 0.0 , 0.4599999999999992 , 0.0 , 0.35 , -0.35 , 0.8200000000000001 , 0.0 , 6411.152122385879 , 0.3497784494709197 , -0.3497784494709197 , 0.0 , 6.653189374547535 , 6.653189374547535 , 1.6050552156516802 , 0.5375451673703687 , 0.5375451673703687 , 0.18812712735469111
5.04999999999999 , 0.05 , 6416.563636643115 , -0.011200122299137413 , 1.4484116457398216E-6 , 0.0 , 4.846661041909544 , -1.1521109962329288 , 4.276934282149995 , 0.19493335727495104 , -1.0264532674679734 , 1.0489171400928814 , -0.35 , 0.0 , -0.5400000000000008 , 0.0 , 0.28 , -0.28 , -0.17999999999999997 , 0.0 , 6409.781666172376 , 0.34985142293652643 , -0.34985142293652643 , 0.0 , 6.671832605295311 , 6.671832605295311 , 1.6247303964645143 , 0.2111502630816226 , 0.2111502630816226 , 0.5908714664157108
5.09999999999999 , 0.05 , 6416.563636643115 , -0.12314140765276249 , 9.71339359550166E-7 , 0.0 , 4.85640533639783 , -1.2033615784915812 , 4.31763316028678 , 0.19483840599807029 , -1.0238266444131423 , 0.5566998065755702 , -0.35 , 0.0 , -0.5400000000000008 , 0.0 , 0.28 , -0.28 , -0.17999999999999997 , 0.0 , 6409.781666172376 , 0.32668131215124835 , -0.32668131215124835 , 0.0 , 6.682061549065729 , 6.682061549065729 , 1.6428904676830594 , 0.21104520787357986 , 0.21104520787357986 , 0.09997274288384819
5.14999999999999 , 0.05 , 6416.563636643115 , -0.19786322282954044 , 6.51403317686944E-7 , 0.0 , 4.866144884811853 , -1.2544875040310282 , 4.333194924964877 , 0.19474354719296152 , -1.0212127827844248 , 0.06590946870376252 , -0.35 , 0.0 , -1.040000000000001 , 0.0 , 0.28 , -0.28 , -0.17999999999999997 , 0.0 , 6409.781666172376 , 0.31130560015954195 , -0.31130560015954195 , 0.0 , 6.6926110266440775 , 6.6926110266440775 , 1.6356273997975295 , 0.21093391639392658 , 0.21093391639392658 , -0.3904289943790331
5.1999999999999895 , 0.05 , 6416.563636643115 , -0.24797345241221183 , 4.3684658520382233E-7 , 0.0 , 4.875879692594246 , -1.3054830697617121 , 4.32422912904348 , 0.19464878070860528 , -1.0186122337076633 , -0.4244623318706499 , -0.35 , 0.0 , -0.5400000000000008 , 0.0 , 0.28 , -0.28 , -0.17999999999999997 , 0.0 , 6409.781666172376 , 0.30099428135554035 , -0.30099428135554035 , 0.0 , 6.703154942582127 , 6.703154942582127 , 1.603862906385252 , 0.210822742228146 , 0.210822742228146 , -0.8798720948135175
5.249999999999989 , 0.05 , 6416.563636643115 , -0.2815785662987976 , 2.9295972836287147E-7 , 0.0 , 4.885609764357678 , -1.3563489387704721 , 4.290765366601273 , 0.19455410641029108 , -1.0160248957387854 , -0.9137946136489012 , -0.35 , 0.0 , 0.4599999999999992 , 0.0 , 0.28 , -0.28 , 0.8200000000000001 , 0.0 , 6409.781666172376 , 0.29407926528765954 , -0.29407926528765954 , 0.0 , 6.713693302740932 , 6.713693302740932 , 1.5476746253410847 , 0.21071168519084257 , 0.21071168519084257 , -1.3671674750218994
5.299999999999989 , 0.05 , 6415.935789566512 , -0.3041149563480047 , 1.9646577391100202E-7 , 0.0 , 4.89533510806885 , -1.4031923443071401 , 4.245934617259912 , 0.19445965534321377 , -0.8493365260914469 , -0.8583456072934674 , -0.35 , 0.0 , 0.4599999999999992 , 0.0 , 0.28 , -0.28 , 0.8200000000000001 , 0.0 , 6408.463674729235 , 0.2894418907550738 , -0.2894418907550738 , 0.0 , 6.717520949688291 , 6.717520949688291 , 1.4894353879976425 , -0.06810746023714016 , -0.06810746023714018 , -0.9253858982953642
5.349999999999989 , 0.05 , 6415.301803285255 , -0.319228396467984 , 1.317546289865444E-7 , 0.0 , 4.905055730507591 , -1.4412928288880138 , 4.204330380854533 , 0.19436525233947985 , -0.6733320432059371 , -0.8063420694659754 , -0.35 , 0.0 , 0.4599999999999992 , 0.0 , 0.28 , -0.28 , 1.82 , 0.0 , 6407.149542321661 , 0.28633195690324037 , -0.28633195690324037 , 0.0 , 6.707217167429739 , 6.707217167429739 , 1.4542068226100202 , -0.3435126693240265 , -0.3435126693240265 , -0.4837441436335277
5.399999999999989 , 0.05 , 6414.663823571174 , -0.32936382950590476 , 8.835779338973122E-8 , 0.0 , 4.914771634309428 , -1.4704288140849069 , 4.16526162312673 , 0.19427091198443136 , -0.4912207308517706 , -0.7567782839742825 , -0.2 , 0.0 , 0.4599999999999992 , 0.0 , 0.08000000000000002 , -0.08000000000000002 , 0.8200000000000001 , 0.0 , 6405.5501328153505 , 0.2842463611647855 , -0.2842463611647855 , 0.0 , 6.681771787777442 , 6.681771787777442 , 1.4459732882095402 , -0.6761601408622515 , -0.6761601408622515 , 0.1627002066705084
5.449999999999989 , 0.05 , 6414.031465838786 , -0.2864057883955695 , 5.925484146367063E-8 , 0.0 , 4.924482822869846 , -1.490565961841224 , 4.128695927331473 , 0.1941766441786783 , -0.31890235798136946 , -0.7044293214408803 , -0.2 , 0.0 , 0.4599999999999992 , 0.0 , 0.08000000000000002 , -0.08000000000000002 , -0.17999999999999997 , 0.0 , 6404.278390563517 , 0.21650757231399162 , -0.21650757231399162 , 0.0 , 6.6416030151072905 , 6.6416030151072905 , 1.46563788790798 , -0.9163681196267446 , -0.9163681196267446 , 0.6219335046300346
5.4999999999999885 , 0.05 , 6413.41135426995 , -0.25794578040603233 , 3.9737708493892717E-8 , 0.0 , 4.934189299989596 , -1.5026319187781756 , 4.0949068897261975 , 0.19408245518119133 , -0.16657748796191352 , -0.6463896801214907 , -0.2 , 0.0 , 0.4599999999999992 , 0.0 , 0.08000000000000002 , -0.08000000000000002 , -0.17999999999999997 , 0.0 , 6404.278390563517 , 0.1715452304289458 , -0.1715452304289458 , 0.0 , 6.595625443621113 , 6.595625443621113 , 1.4854208778444955 , -0.9142539831365162 , -0.9142539831365162 , 0.13097124129769472
5.549999999999988 , 0.05 , 6412.79961144946 , -0.23885982095889643 , 2.664905410832525E-8 , 0.0 , 4.943891069711955 , -1.5074298764144107 , 4.064107574835909 , 0.19398834886397381 , -0.02724837388475505 , -0.5851412526371198 , -0.2 , 0.0 , 0.4599999999999992 , 0.0 , 0.08000000000000002 , -0.08000000000000002 , -0.17999999999999997 , 0.0 , 6404.278390563517 , 0.14139241268617744 , -0.14139241268617744 , 0.0 , 6.549964909436914 , 6.549964909436914 , 1.4797073683037887 , -0.9121690978851815 , -0.9121690978851815 , -0.3594547174475472
5.599999999999988 , 0.05 , 6412.193671940443 , -0.22606032181077126 , 1.7871490626531553E-8 , 0.0 , 4.953588136242334 , -1.5054948345367074 , 4.036423076941672 , 0.1938943278945745 , 0.10336910023724638 , -0.5219727245540788 , -0.2 , 0.0 , 0.4599999999999992 , 0.0 , 0.08000000000000002 , -0.08000000000000002 , -0.17999999999999997 , 0.0 , 6404.278390563517 , 0.12117121468556802 , -0.12117121468556802 , 0.0 , 6.504408382043144 , 6.504408382043144 , 1.4494895319424008 , -0.9100936998355478 , -0.9100936998355478 , -0.8489936645182234
5.649999999999988 , 0.05 , 6411.5917093108355 , -0.2174766727206313 , 1.1985047421042483E-8 , 0.0 , 4.963280503896062 , -1.4971866352671797 , 4.011928596404062 , 0.19380039405763394 , 0.22808208878217504 , -0.4576458771923059 , 0.0 , 0.0 , 0.4599999999999992 , 0.0 , 0.08000000000000002 , -0.08000000000000002 , 0.8200000000000001 , 0.0 , 6404.278390563517 , 0.10761039751524178 , -0.10761039751524178 , 0.0 , 6.458955388697613 , 6.458955388697613 , 1.3948412396148493 , -0.908027724377829 , -0.908027724377829 , -1.336459698521181
5.699999999999988 , 0.05 , 6411.006096520009 , -0.14538013446930365 , 8.0374583567971E-9 , 0.0 , 4.972968177061858 , -1.4830470511994645 , 3.9907281856238055 , 0.19370654855599106 , 0.3296910713760607 , -0.3889650716066626 , 0.0 , 0.0 , 0.4599999999999992 , 0.0 , 0.08000000000000002 , -0.08000000000000002 , 0.8200000000000001 , 0.0 , 6403.2068764810865 , 0.09851619042021839 , -0.09851619042021839 , 0.0 , 6.411095194140088 , 6.411095194140088 , 1.3398761268621917 , -1.0089850369007205 , -1.0089850369007203 , -0.8223812804161655
5.749999999999988 , 0.05 , 6410.445966137471 , -0.09749538200833865 , 5.390111074890386E-9 , 0.0 , 4.982651160176949 , -1.4647528049080019 , 3.973109624229956 , 0.19361279212389634 , 0.39719006954252356 , -0.31521478408791803 , 0.0 , 0.0 , 0.4599999999999992 , 0.0 , 0.08000000000000002 , -0.08000000000000002 , 1.82 , 0.0 , 6402.1472189269525 , 0.0924173984633334 , -0.0924173984633334 , 0.0 , 6.358290830412785 , 6.358290830412785 , 1.3115899698813722 , -1.102007717162547 , -1.1020077171625469 , -0.30913006204043336
5.799999999999987 , 0.05 , 6409.90358264001 , -0.06538272610388111 , 3.6147369118356006E-9 , 0.0 , 4.992329457706395 , -1.4436832664715809 , 3.9592396826788083 , 0.19351912519182712 , 0.4422976498984649 , -0.23934000725693327 , 0.0 , 0.0 , 1.689999999999999 , 0.0 , -0.12 , 0.12 , 0.8200000000000001 , 0.0 , 6400.864745373998 , 0.08832740326697158 , -0.08832740326697158 , 0.0 , 6.300500561322679 , 6.300500561322679 , 1.3142507121982006 , -1.2094099057530692 , -1.209409905753069 , 0.42441559421277697
