time , step-size , {uav2}.uav2.batteryCharge , {uav2}.uav2.currentPitch , {uav2}.uav2.currentRoll , {uav2}.uav2.currentYaw , {uav2}.uav2.posX , {uav2}.uav2.posY , {uav2}.uav2.posZ , {uav2}.uav2.velX , {uav2}.uav2.velY , {uav2}.uav2.velZ , {uavCont2}.controller2.pitchOut , {uavCont2}.controller2.rollOut , {uavCont2}.controller2.throttleOut , {uavCont2}.controller2.yawOut , {uavCont}.controller.pitchOut , {uavCont}.controller.rollOut , {uavCont}.controller.throttleOut , {uavCont}.controller.yawOut , {uav}.uav.batteryCharge , {uav}.uav.currentPitch , {uav}.uav.currentRoll , {uav}.uav.currentYaw , {uav}.uav.posX , {uav}.uav.posY , {uav}.uav.posZ , {uav}.uav.velX , {uav}.uav.velY , {uav}.uav.velZ
0.0 , 0.0 , 6480.0 , 0.0 , 0.0 , 0.0 , 5.0 , 5.0 , 0.5 , 0.0 , 0.0 , 0.0 , 0.0 , 0.0 , 0.0 , 0.0 , 0.0 , 0.0 , 0.0 , 0.0 , 6480.0 , 0.0 , 0.0 , 0.0 , 5.0 , 5.0 , 0.5 , 0.0 , 0.0 , 0.0
0.05 , 0.05 , 6480.0 , 0.0 , 0.0 , 0.0 , 5.0 , 5.0 , 0.48773978499389453 , 0.0 , 0.0 , -0.4903016023394045 , 0.35 , -0.35 , 1.23 , 0.0 , 0.35 , -0.35 , 1.23 , 0.0 , 6480.0 , 0.0 , 0.0 , 0.0 , 5.0 , 5.0 , 0.48773978499389453 , 0.0 , 0.0 , -0.4903016023394045
0.1 , 0.05 , 6478.510403587067 , 0.13405912801440112 , -0.13405912801440112 , 0.0 , 4.997969324272113 , 4.997969324272113 , 0.4839489532254772 , -0.10458567562874094 , -0.10458567562874092 , 0.40015348880426715 , 0.35 , 0.35 , 8.64 , 0.0 , 0.35 , -0.35 , 1.26 , 0.0 , 6478.510403587067 , 0.13405912801440112 , -0.13405912801440112 , 0.0 , 4.997969324272113 , 4.997969324272113 , 0.4839489532254772 , -0.10458567562874094 , -0.10458567562874092 , 0.40015348880426715
0.15000000000000002 , 0.05 , 6477.1850144955915 , 0.20518490623012176 , 0.027005579069707394 , 0.0 , 4.9901412940360474 , 4.9878418112816885 , 0.5221414411552847 , -0.168966416924216 , -0.3164755430635813 , 1.1266538288101338 , 0.35 , 0.35 , 9.85 , 0.0 , 0.35 , -0.35 , 2.29 , 0.0 , 6477.078757476663 , 0.20518490623012176 , -0.20518490623012176 , 0.0 , 4.987884714229073 , 4.987884714229073 , 0.5218955108917545 , -0.31373280464046016 , -0.3137328046404601 , 1.1118799965730402
0.2 , 0.05 , 6476.0753515310325 , 0.24480453612151168 , 0.11537288306480917 , 0.0 , 4.9844904398538095 , 4.970889990448954 , 0.5786308501574553 , -0.09764979285998149 , -0.5379726366014747 , 1.6943984502072935 , 0.35 , 0.35 , 9.06 , 0.0 , 0.35 , -0.35 , 1.3199999999999998 , 0.0 , 6475.8642498583595 , 0.24480453612151168 , -0.24480453612151168 , 0.0 , 4.971137523664154 , 4.971137523664154 , 0.577369202597763 , -0.530221003887971 , -0.5302210038879709 , 1.6579991381605226
0.25 , 0.05 , 6474.585100141619 , 0.27945341553152064 , 0.19265346514766402 , 0.0 , 4.983876641285456 , 4.936212903467899 , 0.6805385152754847 , 0.08925561432981674 , -0.855599416796586 , 2.3760723566037276 , 0.35 , 0.35 , 8.98 , 0.0 , 0.35 , -0.35 , 0.8799999999999999 , 0.0 , 6474.293364224209 , 0.27945341553152064 , -0.27945341553152064 , 0.0 , 4.937025118998294 , 4.937025118998294 , 0.6767905568153417 , -0.840778490192529 , -0.840778490192529 , 2.313776898916764
0.3 , 0.05 , 6473.025441490346 , 0.3026897796095368 , 0.24447966478283892 , 0.0 , 4.994566504045977 , 4.884888676197182 , 0.8157314746326015 , 0.34878748771988355 , -1.201174015955476 , 3.026172449996352 , 0.35 , 0.35 , 9.19 , 0.0 , 0.35 , -0.35 , 0.9099999999999999 , 0.0 , 6472.878671270073 , 0.3026897796095368 , -0.3026897796095368 , 0.0 , 4.887577273082671 , 4.887577273082671 , 0.8050589744210956 , -1.1391041319571624 , -1.1391041319571624 , 2.807807235255511
0.35 , 0.05 , 6471.424449938413 , 0.3182726389908463 , 0.27923554907140846 , 0.0 , 5.019497825263882 , 4.815841499637567 , 0.9826990201388868 , 0.6551878645988984 , -1.5628426766058992 , 3.6476936116731014 , 0.35 , 0.35 , 8.9 , 0.0 , 0.35 , -0.35 , 0.43999999999999995 , 0.0 , 6471.395113178176 , 0.3182726389908463 , -0.3182726389908463 , 0.0 , 4.822573331175251 , 4.822573331175251 , 0.9582177306159486 , -1.46366735452457 , -1.46366735452457 , 3.316627236618946
0.39999999999999997 , 0.05 , 6469.798181915678 , 0.3287228757698182 , 0.30254367317049013 , 0.0 , 5.060560177556224 , 4.728468724623034 , 1.1800988443668912 , 0.991567921070819 , -1.933123877365022 , 4.244029632512345 , 0.35 , 0.35 , 8.61 , 0.0 , 0.35 , -0.35 , 0.47 , 0.0 , 6470.671491160185 , 0.3287228757698182 , -0.3287228757698182 , 0.0 , 4.745266265645833 , 4.745266265645833 , 1.1238962302787516 , -1.6222997020257672 , -1.6222997020257672 , 3.2890451941704195
0.44999999999999996 , 0.05 , 6468.156088144983 , 0.3357310535415796 , 0.3181746565316834 , 0.0 , 5.118951280688721 , 4.622470704239395 , 1.4067432449597097 , 1.346683481523692 , -2.307137153324491 , 4.817888138185955 , 0.35 , 0.35 , 7.299999999999999 , 0.0 , 0.35 , -0.35 , -1.2 , 0.0 , 6469.894212526883 , 0.3357310535415796 , -0.3357310535415796 , 0.0 , 4.6598578934835615 , 4.6598578934835615 , 1.2884059222582682 , -1.794801241732775 , -1.794801241732775 , 3.2922004446379667
0.49999999999999994 , 0.05 , 6466.5038948618485 , 0.34043090453246233 , 0.32865716639816933 , 0.0 , 5.195404196221588 , 4.497749121627576 , 1.6615584653169624 , 1.7129059852799886 , -2.6815702151293164 , 5.37112851240768 , 0.35 , 0.35 , 7.479999999999999 , 0.0 , 0.35 , -0.35 , -1.2 , 0.0 , 6469.894212526883 , 0.34043090453246233 , -0.34043090453246233 , 0.0 , 4.570138603659773 , 4.570138603659773 , 1.4406542124860195 , -1.7867514876864983 , -1.7867514876864983 , 2.7784563480475164
0.5499999999999999 , 0.05 , 6464.845161755946 , 0.3435827365857965 , 0.33568698727135754 , 0.0 , 5.29033371529638 , 4.354344963648071 , 1.9435450478484848 , 2.084953232445168 , -3.0540821705661703 , 5.904897570937131 , 0.35 , 0.35 , 7.66 , 0.0 , 0.35 , -0.35 , -1.2 , 0.0 , 6469.894212526883 , 0.3435827365857965 , -0.3435827365857965 , 0.0 , 4.480999990659536 , 4.480999990659536 , 1.5668860776770874 , -1.7788057827321053 , -1.7788057827321053 , 2.271970565212388
0.6 , 0.05 , 6463.182148374105 , 0.345696430256446 , 0.3404013526417266 , 0.0 , 5.4039319933333525 , 4.192399512134626 , 2.2517471149440196 , 2.4590875152144127 , -3.4229541218814394 , 6.419826917462633 , 0.35 , 0.35 , 7.34 , 0.0 , 0.35 , -0.35 , -0.7 , 0.0 , 6469.894212526883 , 0.345696430256446 , -0.345696430256446 , 0.0 , 4.392256899773222 , 4.392256899773222 , 1.6679427339823776 , -1.7709304341478824 , -1.7709304341478824 , 1.7712079710025994
0.65 , 0.05 , 6461.516312162538 , 0.3471139235929382 , 0.3435629183837645 , 0.0 , 5.536231928468873 , 4.0121289445678325 , 2.585231232420985 , 2.832602497121494 , -3.786880033436989 , 6.916211598549379 , 0.35 , 0.35 , 5.970000000000001 , 0.0 , 0.35 , -0.35 , -0.19999999999999996 , 0.0 , 6469.894212526883 , 0.3471139235929382 , -0.3471139235929382 , 0.0 , 4.303905836515423 , 4.303905836515423 , 1.7440774505728973 , -1.7631245115826686 , -1.7631245115826686 , 1.2748622100811735
0.7000000000000001 , 0.05 , 6459.848604367713 , 0.348064528397646 , 0.34568313969797404 , 0.0 , 5.687149781248636 , 3.8138071717182918 , 2.9430732514668696 , 3.203490994773237 , -4.144838540631913 , 7.39414952685697 , 0.35 , 0.35 , 6.120000000000001 , 0.0 , 0.35 , -0.35 , -0.19999999999999996 , 0.0 , 6469.894212526883 , 0.348064528397646 , -0.348064528397646 , 0.0 , 4.215943352508381 , 4.215943352508381 , 1.7954793517653267 , -1.755387101016529 , -1.755387101016529 , 0.7816714130077587
0.7500000000000001 , 0.05 , 6458.179651118357 , 0.34870202662883326 , 0.3471050106277655 , 0.0 , 5.856514291807308 , 3.597753778074691 , 3.324351135476496 , 3.570227863340616 , -4.496012607028133 , 7.85364242517596 , 0.35 , 0.35 , 6.27 , 0.0 , 0.35 , -0.35 , -0.19999999999999996 , 0.0 , 6469.894212526883 , 0.34870202662883326 , -0.34870202662883326 , 0.0 , 4.128366044674391 , 4.128366044674391 , 1.8222753109205123 , -1.747717304403976 , -1.747717304403976 , 0.2904051267722967
0.8000000000000002 , 0.05 , 6456.509866993059 , 0.3491295481317272 , 0.34805855115084056 , 0.0 , 6.044086941806288 , 3.3643251909841787 , 3.7281420107062946 , 3.931627104410944 , -4.839738157899427 , 8.29466524468774 , 0.35 , 0.35 , 5.92 , 0.0 , 0.35 , -0.35 , 0.30000000000000004 , 0.0 , 6469.894212526883 , 0.3491295481317272 , -0.3491295481317272 , 0.0 , 4.041170554445804 , 4.041170554445804 , 1.8245312890710017 , -1.7401142393265034 , -1.7401142393265034 , -0.20012245093114756
0.8500000000000002 , 0.05 , 6454.839527622868 , 0.3494162542377132 , 0.3486980181447114 , 0.0 , 6.249576372909438 , 3.1139079322938743 , 4.153522057346105 , 4.286747314815946 , -5.175470620115169 , 8.717211660964054 , 0.35 , 0.35 , 4.460000000000001 , 0.0 , 0.35 , -0.35 , 1.3 , 0.0 , 6469.392981840526 , 0.3494162542377132 , -0.3494162542377132 , 0.0 , 3.9514906715981026 , 3.9514906715981026 , 1.8101494569021925 , -1.8516851702728072 , -1.8516851702728072 , -0.3619906058826384
0.9000000000000002 , 0.05 , 6453.168816774288 , 0.34960852618345933 , 0.3491268599467688 , 0.0 , 6.472648929945189 , 2.8469132389788765 , 4.599568213545872 , 4.6348288234374735 , -5.50276268825936 , 9.121322137426159 , 0.35 , 0.35 , 4.58 , 0.0 , 0.35 , -0.35 , 1.3 , 0.0 , 6467.721983365448 , 0.34960852618345933 , -0.34960852618345933 , 0.0 , 3.849455797404554 , 3.849455797404554 , 1.8063880411118411 , -2.2401553754295978 , -2.2401553754295978 , 0.24204931822322334
0.9500000000000003 , 0.05 , 6451.4978572002765 , 0.34973746833135616 , 0.34941445147683137 , 0.0 , 6.712936621176899 , 2.5637726034704014 , 5.065360953260993 , 4.975251665162748 , -5.821249185970238 , 9.507099601382858 , 0.19999999999999996 , 0.32000000000000006 , 3.4699999999999998 , 0.0 , 0.35 , -0.35 , 1.3 , 0.0 , 6466.050831110522 , 0.34973746833135616 , -0.34973746833135616 , 0.0 , 3.7278224737051575 , 3.7278224737051575 , 1.8335714288246483 , -2.6243508026279128 , -2.6243508026279128 , 0.8449516929308856
1.0000000000000002 , 0.05 , 6449.842538176103 , 0.30006883601509626 , 0.3396562964104952 , 0.0 , 6.970011171597372 , 2.2653583289692807 , 5.550170345162296 , 5.305390261857324 , -6.103390286507182 , 9.886296811190183 , -0.08000000000000007 , 0.32000000000000006 , 3.0599999999999996 , 0.0 , 0.24 , -0.24 , 0.30000000000000004 , 0.0 , 6464.379575791086 , 0.3498239400079168 , -0.3498239400079168 , 0.0 , 3.5871000294942883 , 3.5871000294942883 , 1.8908390931084655 , -3.003593411105631 , -3.003593411105631 , 1.445102807338329
1.0500000000000003 , 0.05 , 6448.246982611537 , 0.17423235155610492 , 0.33318198070462646 , 0.0 , 7.243351351053443 , 1.9551059026943467 , 6.054183904423183 , 5.627610775275689 , -6.278591052483561 , 10.277740912662772 , -0.28 , 0.1200000000000001 , 1.9799999999999986 , 0.0 , 0.040000000000000036 , -0.040000000000000036 , -0.19999999999999996 , 0.0 , 6463.883971316713 , 0.31339485371309445 , -0.31339485371309445 , 0.0 , 3.4343109134933654 , 3.4343109134933654 , 1.9597441058669272 , -3.0945239712220585 , -3.0945239712220585 , 1.2823575328306567
1.1000000000000003 , 0.05 , 6446.788745039154 , 0.024154133647174947 , 0.26250001167785747 , 0.0 , 7.532054653005245 , 1.6400445807256387 , 6.578262725017016 , 5.904008391674601 , -6.291356916480202 , 10.689711857516109 , -0.28 , 0.1200000000000001 , 2.039999999999999 , 0.0 , 0.040000000000000036 , -0.040000000000000036 , -0.19999999999999996 , 0.0 , 6463.883971316713 , 0.22288019895179131 , -0.22288019895179131 , 0.0 , 3.2800725643142044 , 3.2800725643142044 , 2.011854545284619 , -3.070734238029508 , -3.070734238029508 , 0.7890862814354462
1.1500000000000004 , 0.05 , 6445.43176180842 , -0.07602699118697101 , 0.21556390304246761 , 0.0 , 7.832552531128435 , 1.3282722188852367 , 7.1231704602156105 , 6.104507942958287 , -6.158512710483624 , 11.104375519806982 , -0.35 , -0.15999999999999992 , 0.3699999999999992 , 0.0 , 0.040000000000000036 , -0.040000000000000036 , -0.19999999999999996 , 0.0 , 6463.883971316713 , 0.16264381872841496 , -0.16264381872841496 , 0.0 , 3.127122310138078 , 3.127122310138078 , 2.0390206663094115 , -3.047340348323638 , -3.047340348323638 , 0.2978000165705361
1.2000000000000004 , 0.05 , 6444.924831776406 , -0.1664298889504434 , 0.09121123616993694 , 0.0 , 8.13759023645045 , 1.0239485369467234 , 7.670501846106955 , 6.07975379968793 , -6.009884191724637 , 10.763098359128932 , -0.35 , -0.15999999999999992 , 0.39999999999999947 , 0.0 , 0.040000000000000036 , -0.040000000000000036 , -0.9299999999999999 , 0.0 , 6463.883971316713 , 0.12224786695607966 , -0.12224786695607966 , 0.0 , 2.9753328703166244 , 2.9753328703166244 , 2.04164624760327 , -3.024300208114136 , -3.024300208114136 , -0.19273227329976642
1.2500000000000004 , 0.05 , 6444.389645266593 , -0.22689350978094883 , 0.008468240345082 , 0.0 , 8.440029591891241 , 0.7279710440604977 , 8.201377083605243 , 6.011047365847423 , -5.8246096275359 , 10.47538665940449 , -0.35 , -0.35 , -0.8000000000000007 , 0.0 , -0.24 , 0.24 , 0.010000000000000009 , 0.0 , 6463.883971316713 , 0.09515737922189865 , -0.09515737922189865 , 0.0 , 2.8246867575529326 , 2.8246867575529326 , 2.01975551795592 , -3.0016058538179395 , -3.0016058538179395 , -0.6827050489508141
1.3000000000000005 , 0.05 , 6444.389645266593 , -0.2674418545186692 , -0.11004431581741805 , 0.0 , 8.738349152890455 , 0.4389501922460089 , 8.706799637992408 , 5.922051206738324 , -5.741075502531411 , 9.729307995927217 , -0.35 , -0.35 , -0.8000000000000007 , 0.0 , -0.24 , 0.24 , -0.020000000000000018 , 0.0 , 6463.872169847008 , -0.01588634143167964 , 0.01588634143167964 , 0.0 , 2.675149949521617 , 2.675149949521617 , 1.9736983374406476 , -2.979708973484435 , -2.979708973484435 , -1.1586765128324494
1.3500000000000005 , 0.05 , 6444.389645266593 , -0.29463454060635863 , -0.1890800009928953 , 0.0 , 9.032280354929455 , 0.15393767613147374 , 9.175361384894 , 5.835654162391376 , -5.659842048476993 , 9.019157047232857 , -0.35 , -0.35 , -2.030000000000001 , 0.0 , -0.24 , 0.24 , -0.04999999999999982 , 0.0 , 6463.872169847008 , -0.08970404082259044 , 0.08970404082259044 , 0.0 , 2.526716979879998 , 2.526716979879998 , 1.9036230445458788 , -2.9576765300969385 , -2.9576765300969385 , -1.6442185690607451
1.4000000000000006 , 0.05 , 6444.389645266593 , -0.3128706037908504 , -0.24208321457914317 , 0.0 , 9.321954310296404 , -0.1270702690670365 , 9.609216035002438 , 5.751741753783687 , -5.58087533612123 , 8.340335050958886 , -0.35 , -0.35 , -1.5600000000000014 , 0.0 , -0.040000000000000036 , 0.040000000000000036 , 2.15 , 0.0 , 6463.872169847008 , -0.13920794881775841 , 0.13920794881775841 , 0.0 , 2.379377319781054 , 2.379377319781054 , 1.809352547599376 , -2.935967460403313 , -2.935967460403313 , -2.1257852559444355
1.4500000000000006 , 0.05 , 6444.389645266593 , -0.32510014225558215 , -0.27762843246688634 , 0.0 , 9.607492581683738 , -0.4041846174804759 , 10.009838230801536 , 5.670208319879675 , -5.504081794627679 , 7.6892521433518315 , -0.35 , -0.35 , -2.3800000000000003 , 0.0 , -0.040000000000000036 , 0.040000000000000036 , 3.15 , 0.0 , 6462.52765524887 , -0.1060663103444266 , 0.1060663103444266 , 0.0 , 2.2369030632770426 , 2.2369030632770426 , 1.7202837759544627 , -2.7649659635422386 , -2.7649659635422386 , -1.3875775437661786
1.5000000000000007 , 0.05 , 6444.389645266593 , -0.33330156213153117 , -0.3014659024842695 , 0.0 , 9.889011598328251 , -0.6775117932992063 , 10.378533922497418 , 5.590954106959013 , -5.429372933352329 , 7.062737141560886 , -0.35 , -0.35 , -2.4400000000000004 , 0.0 , -0.040000000000000036 , 0.040000000000000036 , 3.15 , 0.0 , 6461.2370849019035 , -0.0843056418156729 , 0.0843056418156729 , 0.0 , 2.102143603886461 , 2.102143603886461 , 1.669410323643074 , -2.630513410445129 , -2.630513410445129 , -0.6471448787765184
1.5500000000000007 , 0.05 , 6444.389645266593 , -0.33880162970771893 , -0.317451877830494 , 0.0 , 10.166622941041165 , -0.94715391615142 , 10.716459560899775 , 5.513884861475652 , -5.356665001692104 , 6.457970269383994 , -0.35 , -0.35 , -3.23 , 0.0 , -0.040000000000000036 , 0.040000000000000036 , 2.15 , 0.0 , 6459.9818098927035 , -0.0697124190296833 , 0.0697124190296833 , 0.0 , 1.9734789465781206 , 1.9734789465781206 , 1.6555890002055453 , -2.5195521060485038 , -2.5195521060485038 , 0.09458341668088299
1.6000000000000008 , 0.05 , 6444.389645266593 , -0.34249010606915276 , -0.3281724537801959 , 0.0 , 10.440433607726415 , -1.2132090301599219 , 11.024638232261365 , 5.438911456131727 , -5.285878675902481 , 5.872427615753001 , -0.35 , -0.35 , -3.32 , 0.0 , -0.040000000000000036 , 0.040000000000000036 , 1.15 , 0.0 , 6458.7507247385765 , -0.059925856130656256 , 0.059925856130656256 , 0.0 , 1.8499338728253731 , 1.8499338728253731 , 1.6788886071392066 , -2.424630374948346 , -2.424630374948346 , 0.8373549532769173
1.6500000000000008 , 0.05 , 6444.389645266593 , -0.3449636861989238 , -0.3353619274409612 , 0.0 , 10.710546260968282 , -1.4757713179629626 , 11.303973258514619 , 5.36594954604746 , -5.216938770422093 , 5.303834909899967 , -0.35 , -0.35 , -3.73 , 0.0 , -0.32000000000000006 , 0.32000000000000006 , 0.15000000000000002 , 0.0 , 6457.536087197493 , -0.05336275387550778 , 0.05336275387550778 , 0.0 , 1.730841368597491 , 1.730841368597491 , 1.7392920329317028 , -2.340706910770814 , -2.340706910770814 , 1.5781260233051255
1.7000000000000008 , 0.05 , 6444.389645266593 , -0.346622527969573 , -0.34018335977457353 , 0.0 , 10.97705945912207 , -1.734931300868183 , 11.555259679709632 , 5.294919252238437 , -5.149773971495839 , 4.750128735809435 , -0.35 , -0.35 , -3.85 , 0.0 , -0.32000000000000006 , 0.32000000000000006 , 0.15000000000000002 , 0.0 , 6457.341390946045 , -0.14183757525038537 , 0.14183757525038537 , 0.0 , 1.6145782370063866 , 1.6145782370063866 , 1.8114546062197052 , -2.3089743007650854 , -2.3089743007650854 , 1.2662619749880863
1.7500000000000009 , 0.05 , 6444.389645266593 , -0.3477349867846044 , -0.3434167271731444 , 0.0 , 11.240067872209575 , -1.99077602620405 , 11.779193952227764 , 5.225744869903077 , -5.084316591112529 , 4.209423713623869 , -0.35 , -0.35 , -3.97 , 0.0 , -0.32000000000000006 , 0.32000000000000006 , -0.35 , 0.0 , 6457.12632926948 , -0.20052003305745214 , 0.20052003305745214 , 0.0 , 1.500201295107906 , 1.500201295107906 , 1.8669430212552758 , -2.2643460296776503 , -2.2643460296776503 , 0.9529244614102801
1.800000000000001 , 0.05 , 6444.389645266593 , -0.3484810281714552 , -0.3455851003889742 , 0.0 , 11.499662483802723 , -2.2433892428390374 , 11.97638213077985 , 5.158354599280746 , -5.020502339472321 , 3.6799844825658052 , -0.35 , -0.35 , -3.5900000000000003 , 0.0 , -0.32000000000000006 , 0.32000000000000006 , -0.35 , 0.0 , 6457.12632926948 , -0.2398738874335891 , 0.2398738874335891 , 0.0 , 1.387339236780525 , 1.387339236780525 , 1.9024642633484194 , -2.251608166244807 , -2.251608166244807 , 0.4611106930023187
1.850000000000001 , 0.05 , 6444.389645266593 , -0.348981341300691 , -0.3470392631312615 , 0.0 , 11.755930779972676 , -2.4928515657541057 , 12.147346750059555 , 5.09268029706903 , -4.958270114376187 , 3.160201553953989 , -0.35 , -0.35 , -3.3300000000000005 , 0.0 , -0.32000000000000006 , 0.32000000000000006 , 0.15000000000000002 , 0.0 , 6457.12632926948 , -0.26626551982482294 , 0.26626551982482294 , 0.0 , 1.2750745500699003 , 1.2750745500699003 , 1.9132507737935458 , -2.2390047745937083 , -2.2390047745937083 , -0.02955380046181992
1.900000000000001 , 0.05 , 6444.389645266593 , -0.34931686320563815 , -0.3480144593131823 , 0.0 , 12.008956926286299 , -2.739240630477651 , 12.292532580048158 , 5.028657246591017 , -4.897561806087113 , 2.6485702822281794 , -0.35 , -0.35 , -3.4500000000000006 , 0.0 , -0.32000000000000006 , 0.32000000000000006 , 0.15000000000000002 , 0.0 , 6456.888230184772 , -0.2839643773145323 , 0.2839643773145323 , 0.0 , 1.164589956226979 , 1.164589956226979 , 1.9036481080031553 , -2.1781144756162365 , -2.1781144756162365 , -0.3478921218022295
1.950000000000001 , 0.05 , 6444.389645266593 , -0.34954187218925487 , -0.3486684491078438 , 0.0 , 12.25882193374594 , -2.9826312381231648 , 12.412311394972459 , 4.966223945083072 , -4.8383221163530585 , 2.143672339772835 , -0.35 , -0.35 , -4.800000000000001 , 0.0 , -0.32000000000000006 , 0.32000000000000006 , 1.15 , 0.0 , 6456.647370429955 , -0.2958336528408574 , 0.2958336528408574 , 0.0 , 1.0572412767898482 , 1.0572412767898482 , 1.8782743874066536 , -2.1156211972751255 , -2.1156211972751255 , -0.6671297975564239
2.000000000000001 , 0.05 , 6444.389645266593 , -0.34969276857474174 , -0.34910703024613227 , 0.0 , 12.505603814491193 , -3.2230954917075403 , 12.506985867984397 , 4.905321906633508 , -4.780498390406985 , 1.6441591873962191 , -0.35 , -0.35 , -4.450000000000001 , 0.0 , -0.32000000000000006 , 0.32000000000000006 , 1.15 , 0.0 , 6455.029804891555 , -0.30379347180667093 , 0.30379347180667093 , 0.0 , 0.9601289987012644 , 0.9601289987012644 , 1.859997560440005 , -1.7563280171093765 , -1.7563280171093765 , -0.02666928857873574
2.0500000000000007 , 0.05 , 6444.389645266593 , -0.3498097869057394 , -0.3494471446408144 , 0.0 , 12.797777976048279 , -3.507887537584608 , 12.587786252499992 , 4.834182559394738 , -4.712908522250828 , 1.050032820516875 , -0.35 , -0.35 , -4.25 , 0.0 , -0.35 , 0.35 , 1.15 , 0.0 , 6453.07880781057 , -0.3099662156230178 , 0.3099662156230178 , 0.0 , 0.8677960604123194 , 0.8677960604123194 , 1.881275603143 , -1.3208373728570533 , -1.3208373728570533 , 0.7346936026303575
2.1000000000000005 , 0.05 , 6444.389645266593 , -0.3498724385669636 , -0.349629242023775 , 0.0 , 13.038037725549522 , -3.742155128519391 , 12.627974872702008 , 4.77645714574202 , -4.658026615702922 , 0.557869256079714 , -0.35 , -0.35 , -4.4 , 0.0 , -0.35 , 0.35 , 1.15 , 0.0 , 6451.441951976433 , -0.3232221259299895 , 0.3232221259299895 , 0.0 , 0.8109487871683893 , 0.8109487871683893 , 1.9336940850533064 , -0.950913600317219 , -0.950913600317219 , 1.359581710546085
2.1500000000000004 , 0.05 , 6444.389645266593 , -0.34991445426372164 , -0.3497513608674483 , 0.0 , 13.275445482471836 , -3.9737104099311367 , 12.643595051394822 , 4.720094067356627 , -4.604408192384102 , 0.06707709638785132 , -0.35 , -0.35 , -4.550000000000001 , 0.0 , -0.35 , 0.35 , 0.15000000000000002 , 0.0 , 6449.792963254548 , -0.3320421196378925 , 0.3320421196378925 , 0.0 , 0.7728479693842484 , 0.7728479693842484 , 2.0170347234347994 , -0.5718272117708468 , -0.5718272117708468 , 1.9719045139673894
2.2 , 0.05 , 6444.389645266593 , -0.3499426309910354 , -0.34983325667362436 , 0.0 , 13.510068161773475 , -4.202615468614026 , 12.63468762125255 , 4.665045659667898 , -4.552010117398553 , -0.4232957879045205 , -0.35 , -0.35 , -4.2 , 0.0 , -0.35 , 0.35 , -0.35 , 0.0 , 6449.544468209153 , -0.33795701756395474 , 0.33795701756395474 , 0.0 , 0.7460380221943025 , 0.7460380221943025 , 2.1082268847022 , -0.5134076089258612 , -0.5134076089258612 , 1.6386855186236293
2.25 , 0.05 , 6444.389645266593 , -0.34996152697571187 , -0.349888177952499 , 0.0 , 13.7419703507158 , -4.428930283655192 , 12.6012821014291 , 4.611266456009186 , -4.500791197231495 , -0.9126319635625283 , -0.35 , -0.35 , -3.5 , 0.0 , -0.35 , 0.35 , -1.6099999999999999 , 0.0 , 6449.544468209153 , -0.3419236890417799 , 0.3419236890417799 , 0.0 , 0.7204420828688799 , 0.7204420828688799 , 2.1779252892936842 , -0.5127524447441907 , -0.5127524447441907 , 1.1432751830707562
2.3 , 0.05 , 6444.389645266593 , -0.3499741990732525 , -0.349925009470669 , 0.0 , 13.971214415587704 , -4.652712820770255 , 12.543460129028908 , 4.558713062375224 , -4.450712071744675 , -1.399741122505554 , -0.35 , -0.35 , -3.6500000000000004 , 0.0 , -0.35 , 0.35 , -1.64 , 0.0 , 6449.544468209153 , -0.34458383344489163 , 0.34458383344489163 , 0.0 , 0.6948208793543551 , 0.6948208793543551 , 2.222765100310646 , -0.5120959985884738 , -0.5120959985884738 , 0.650716057292372
2.3499999999999996 , 0.05 , 6444.389645266593 , -0.34998269728378917 , -0.34994970956430305 , 0.0 , 14.197860602382708 , -4.874019121419454 , 12.461362401800836 , 4.507344040646985 , -4.401735113302803 , -1.8834542846737055 , -0.35 , -0.35 , -3.8 , 0.0 , -0.35 , 0.35 , -1.67 , 0.0 , 6449.544468209153 , -0.3463677896623312 , 0.3463677896623312 , 0.0 , 0.6692324561519023 , 0.6692324561519023 , 2.243022433249531 , -0.5114412311007419 , -0.5114412311007419 , 0.15975749538084177
2.3999999999999995 , 0.05 , 6444.389645266593 , -0.34998839638625373 , -0.3499662740355996 , 0.0 , 14.421967131835308 , -5.092903387047138 , 12.355187296717698 , 4.457119799623543 , -4.35382433248763 , -2.36263520375116 , -0.35 , -0.35 , -2.9499999999999993 , 0.0 , -0.35 , 0.35 , -1.2 , 0.0 , 6449.544468209153 , -0.3475641532063624 , 0.3475641532063624 , 0.0 , 0.6436767294890411 , 0.6436767294890411 , 2.238747912727957 , -0.5107881358501684 , -0.5107881358501684 , -0.3306885361504227
2.4499999999999993 , 0.05 , 6444.389645266593 , -0.3499922183401536 , -0.34997738256471683 , 0.0 , 14.643590289191636 , -5.309418058761378 , 12.22518896944769 , 4.40800249325877 , -4.306945289903151 , -2.836190782832718 , -0.35 , -0.35 , -2.25 , 0.0 , -0.35 , 0.35 , -0.26 , 0.0 , 6449.544468209153 , -0.34836646310359803 , 0.34836646310359803 , 0.0 , 0.6181536159140112 , 0.6181536159140112 , 2.2099665824040318 , -0.5101367064387324 , -0.5101367064387324 , -0.820312219281969
2.499999999999999 , 0.05 , 6444.389645266593 , -0.3499947814335008 , -0.3499848322090151 , 0.0 , 14.862784509060692 , -5.523613892746707 , 12.071674953767094 , 4.359955925553122 , -4.2610650136177535 , -3.3030806280515796 , -0.35 , -0.35 , -2.3999999999999995 , 0.0 , -0.35 , 0.35 , -0.29000000000000004 , 0.0 , 6449.544468209153 , -0.34890451123655375 , 0.34890451123655375 , 0.0 , 0.5926630322941375 , 0.5926630322941375 , 2.1567488156120294 , -0.5094869365010105 , -0.5094869365010105 , -1.3079325283429648
2.549999999999999 , 0.05 , 6444.389645266593 , -0.3499965003049679 , -0.34998982811797713 , 0.0 , 15.079602455666146 , -5.735540031681297 , 11.895003308354166 , 4.312945461598247 , -4.216151921827396 , -3.7623255723633067 , -0.35 , -0.35 , -2.55 , 0.0 , -0.35 , 0.35 , -0.31999999999999984 , 0.0 , 6449.544468209153 , -0.3492653391340714 , 0.3492653391340714 , 0.0 , 0.5672048958142056 , 0.5672048958142056 , 2.079224242399976 , -0.5088388197039686 , -0.5088388197039686 , -1.7923755265206975
2.5999999999999988 , 0.05 , 6444.389645266593 , -0.34999765302112756 , -0.34999317849355976 , 0.0 , 15.294095098794688 , -5.945244072409935 , 11.695579365966049 , 4.266937944314968 , -4.17217575035863 , -4.213015035511865 , -0.35 , -0.35 , -1.7000000000000002 , 0.0 , -0.35 , 0.35 , 0.6500000000000001 , 0.0 , 6449.544468209153 , -0.3495073189192474 , 0.3495073189192474 , 0.0 , 0.541779123974847 , 0.541779123974847 , 1.9775804716519463 , -0.5081923497467569 , -0.5081923497467569 , -2.2724979617207572
2.6499999999999986 , 0.05 , 6444.389645266593 , -0.34999842606004894 , -0.3499954253352517 , 0.0 , 15.506311785714901 , -6.1527721301058955 , 11.473852145787713 , 4.221901616464027 , -4.129107484661752 , -4.654313123058542 , -0.35 , -0.35 , 0.2600000000000007 , 0.0 , -0.35 , 0.35 , 2.82 , 0.0 , 6448.458271849082 , -0.3496695963286071 , 0.3496695963286071 , 0.0 , 0.5225969921440924 , 0.5225969921440924 , 1.8690519417875728 , -0.2488171685782802 , -0.2488171685782802 , -2.040797055969256
2.6999999999999984 , 0.05 , 6443.95506500352 , -0.34999894447836805 , -0.3499969321208236 , 0.0 , 15.713827950661816 , -6.3556961805545305 , 11.23707722311053 , 4.075173254089693 , -3.9842632332706858 , -4.8047652496235855 , -0.35 , -0.35 , 0.14000000000000057 , 0.0 , -0.35 , 0.35 , 2.82 , 0.0 , 6446.787070773893 , -0.3497784234257521 , 0.3497784234257521 , 0.0 , 0.5199812960172422 , 0.5199812960172422 , 1.7819029702016917 , 0.1497464371118784 , 0.1497464371118784 , -1.4309015886741556
2.7499999999999982 , 0.05 , 6443.721060133308 , -0.34999929214204467 , -0.3499979426071289 , 0.0 , 15.915121903921063 , -6.5524897623774985 , 10.990024869656443 , 3.9788363164468943 , -3.8897176151989785 , -5.081303752495239 , -0.35 , -0.35 , 0.020000000000000462 , 0.0 , -0.35 , 0.35 , 2.82 , 0.0 , 6445.115782729455 , -0.3498514054700166 , 0.3498514054700166 , 0.0 , 0.5374275706672641 , 0.5374275706672641 , 1.725505912118929 , 0.5479844298940151 , 0.5479844298940151 , -0.8256303363887065
2.799999999999998 , 0.05 , 6443.687630855294 , -0.3499995252935897 , -0.3499986202633211 , 0.0 , 16.11283535729905 , -6.7457906521523805 , 10.726068613081065 , 3.9317716869078625 , -3.844378362384057 , -5.480252798809654 , -0.35 , -0.35 , -0.09999999999999964 , 0.0 , -0.35 , 0.35 , 1.82 , 0.0 , 6443.444436381844 , -0.3499003489677736 , 0.3499003489677736 , 0.0 , 0.5747624288402673 , 0.5747624288402673 , 1.6992973542156675 , 0.945143820881803 , 0.9451438208818032 , -0.223027907638304
2.849999999999998 , 0.05 , 6443.687630855294 , -0.3499996816505709 , -0.34999907471570946 , 0.0 , 16.308455952761257 , -6.93708365974636 , 10.441784025022624 , 3.8935039886358007 , -3.8077850912601265 , -5.889901146180124 , -0.35 , -0.35 , 1.9200000000000008 , 0.0 , -0.35 , 0.35 , 0.8200000000000001 , 0.0 , 6441.773050943948 , -0.34993317164349924 , 0.34993317164349924 , 0.0 , 0.6319118218379254 , 0.6319118218379254 , 1.7031889886671487 , 1.3404233341107263 , 1.3404233341107263 , 0.3785971405898289
2.8999999999999977 , 0.05 , 6442.016166347176 , -0.3499997865072878 , -0.3499993794823089 , 0.0 , 16.492675404273044 , -7.117056822826496 , 10.163275240966325 , 3.460860852758819 , -3.3766880957711733 , -5.2105669702813895 , -0.35 , -0.35 , 1.830000000000001 , 0.0 , -0.35 , 0.35 , 0.8200000000000001 , 0.0 , 6440.402493392072 , -0.3499551833118754 , 0.3499551833118754 , 0.0 , 0.707044347817839 , 0.707044347817839 , 1.732423359669548 , 1.661578087269318 , 1.661578087269318 , 0.7826914943716671
2.9499999999999975 , 0.05 , 6440.344701675559 , -0.34999985682670054 , -0.3499995838660519 , 0.0 , 16.65506165526025 , -7.2752687813881165 , 9.919347583896938 , 3.035840935417955 , -2.953006261413044 , -4.549467876102232 , -0.35 , -0.35 , 1.7400000000000002 , 0.0 , -0.35 , 0.35 , -0.17999999999999997 , 0.0 , 6439.031921428139 , -0.34996994486113936 , 0.34996994486113936 , 0.0 , 0.7980986624672793 , 0.7980986624672793 , 1.7816279663179173 , 1.9800694401196324 , 1.9800694401196324 , 1.1851200950506113
2.9999999999999973 , 0.05 , 6438.673236894294 , -0.3499999039845741 , -0.3499997209306595 , 0.0 , 16.796362615984336 , -7.412457481945149 , 9.708088705296113 , 2.6172714508057817 , -2.535581912041835 , -3.9033697106467304 , -0.35 , -0.35 , 1.6500000000000004 , 0.0 , -0.35 , 0.35 , -0.17999999999999997 , 0.0 , 6439.031921428139 , -0.34997984430778506 , 0.34997984430778506 , 0.0 , 0.8971820602109722 , 0.8971820602109722 , 1.8294458828571563 , 1.9702513446415355 , 1.9702513446415355 , 0.6922640977489796
3.049999999999997 , 0.05 , 6437.001772039496 , -0.3499999356097677 , -0.34999981284945114 , 0.0 , 16.916876550556196 , -7.528911793952246 , 9.528808940048958 , 2.2041913015611896 , -2.1234637366731506 , -3.269890443502816 , -0.35 , -0.35 , 0.7300000000000004 , 0.0 , -0.35 , 0.35 , -0.17999999999999997 , 0.0 , 6439.031921428139 , -0.3499864831125703 , 0.3499864831125703 , 0.0 , 0.995452771544544 , 0.995452771544544 , 1.851777949033839 , 1.9605941932835196 , 1.9605941932835196 , 0.20121715684246208
3.099999999999997 , 0.05 , 6435.781602659496 , -0.34999995681837603 , -0.3499998744923829 , 0.0 , 17.01942917378591 , -7.627448794017022 , 9.373891654174901 , 1.9027652677216658 , -1.8228452053820707 , -2.939470038902563 , -0.35 , -0.35 , 0.6700000000000004 , 0.0 , -0.35 , 0.35 , -0.17999999999999997 , 0.0 , 6439.031921428139 , -0.3499909352532357 , 0.3499909352532357 , 0.0 , 1.0932429867171805 , 1.0932429867171805 , 1.8495759056234848 , 1.9510312488101291 , 1.9510312488101291 , -0.2892559534124509
3.149999999999997 , 0.05 , 6434.661721151584 , -0.3499999710413741 , -0.3499999158316016 , 0.0 , 17.107663536061516 , -7.711704824340039 , 9.233514186563669 , 1.628003486669672 , -1.5487696668349196 , -2.6789063971544116 , -0.35 , -0.35 , 0.6100000000000003 , 0.0 , -0.35 , 0.35 , -0.17999999999999997 , 0.0 , 6439.031921428139 , -0.3499939209648428 , 0.3499939209648428 , 0.0 , 1.1905573816570925 , 1.1905573816570925 , 1.8228637888613672 , 1.941561139411112 , 1.941561139411112 , -0.7789944418444184
3.1999999999999966 , 0.05 , 6433.6421275263765 , -0.3499999805796555 , -0.3499999435546667 , 0.0 , 17.182813954945267 , -7.7829084509473 , 9.104444662699235 , 1.3793071488658806 , -1.3006509805732172 , -2.486938655901846 , -0.35 , -0.35 , -0.44999999999999973 , 0.0 , -0.35 , 0.35 , 0.8200000000000001 , 0.0 , 6439.031921428139 , -0.3499959232541842 , 0.3499959232541842 , 0.0 , 1.2874005643675333 , 1.2874005643675333 , 1.7717069815422273 , 1.9321825197820186 , 1.9321825197820186 , -1.2668298207037714
3.2499999999999964 , 0.05 , 6433.6421275263765 , -0.34999998697625423 , -0.3499999621464146 , 0.0 , 17.251418965512105 , -7.847593709516987 , 8.968930185052447 , 1.3746003061739318 , -1.2964665985435149 , -2.959015539062484 , -0.35 , -0.35 , -0.5699999999999998 , 0.0 , -0.35 , 0.35 , 1.82 , 0.0 , 6437.661322793118 , -0.3499972660371232 , 0.3499972660371232 , 0.0 , 1.3915967437929833 , 1.3915967437929833 , 1.7176757432171186 , 2.248099282159975 , 2.2480992821599743 , -0.8590825942366326
3.2999999999999963 , 0.05 , 6433.6421275263765 , -0.34999999126596576 , -0.34999997461448373 , 0.0 , 17.32003114456785 , -7.912312205270568 , 8.809321488200624 , 1.3698926706267995 , -1.2922781113422321 , -3.4239973568729707 , -0.35 , -0.35 , -0.6299999999999999 , 0.0 , -0.35 , 0.35 , 1.82 , 0.0 , 6435.989859971136 , -0.3499981665393553 , 0.3499981665393553 , 0.0 , 1.5135412658017033 , 1.5135412658017033 , 1.6895847647779587 , 2.6316909928739176 , 2.631690992873917 , -0.25703280911526966
3.349999999999996 , 0.05 , 6433.6421275263765 , -0.34999999414274857 , -0.349999982975868 , 0.0 , 17.38840874669969 , -7.976821952247847 , 8.62665677248436 , 1.3652171697814492 , -1.2881166004235334 , -3.8810891678003 , -0.35 , -0.35 , 0.54 , 0.0 , -0.35 , 0.35 , 0.8200000000000001 , 0.0 , 6434.318396430278 , -0.3499987704376076 , 0.3499987704376076 , 0.0 , 1.6546129649249033 , 1.6546129649249033 , 1.6917608603968959 , 3.01020819052958 , 3.0102081905295797 , 0.3439905934823428
3.399999999999996 , 0.05 , 6432.739536428871 , -0.3499999960719876 , -0.3499999885832114 , 0.0 , 17.451400227963518 , -8.03597055654817 , 8.435414229142031 , 1.1461044092988528 , -1.0694732483412719 , -3.745647261136126 , -0.35 , -0.35 , 1.5099999999999998 , 0.0 , -0.35 , 0.35 , 0.8200000000000001 , 0.0 , 6432.947795931457 , -0.349999175426164 , 0.349999175426164 , 0.0 , 1.8127579797431075 , 1.8127579797431075 , 1.7192544372777705 , 3.311873379292898 , 3.3118733792928974 , 0.747685706271713
3.4499999999999957 , 0.05 , 6431.0680714304835 , -0.3499999973657813 , -0.3499999923436295 , 0.0 , 17.498863462410945 , -8.079611656614409 , 8.263443837682638 , 0.745457369828404 , -0.6691744727057385 , -3.1151706133928774 , -0.35 , -0.35 , 1.4500000000000002 , 0.0 , -0.35 , 0.35 , -0.17999999999999997 , 0.0 , 6431.577195167528 , -0.3499994470211392 , 0.3499994470211392 , 0.0 , 1.9857924630132258 , 1.9857924630132258 , 1.7667004765165781 , 3.6085765680530817 , 3.6085765680530812 , 1.1497979020248377
3.4999999999999956 , 0.05 , 6429.396606430079 , -0.3499999982334302 , -0.3499999948654555 , 0.0 , 17.526153973686 , -8.103093544104564 , 8.123235509356224 , 0.3463682475004853 , -0.270278749088702 , -2.494753311171322 , -0.35 , -0.35 , 1.42 , 0.0 , -0.35 , 0.35 , -0.17999999999999997 , 0.0 , 6431.577195167528 , -0.34999962915920063 , 0.34999962915920063 , 0.0 , 2.165734045590795 , 2.165734045590795 , 1.8127563802236706 , 3.5761965330577192 , 3.576196533057719 , 0.6571073635143271
3.5499999999999954 , 0.05 , 6427.725141428322 , -0.34999999881529625 , -0.34999999655665215 , 0.0 , 17.533512034601983 , -8.106648861903947 , 8.013843547810628 , -0.051983793601429795 , 0.1280240827741853 , -1.8821562420511597 , -0.35 , -0.35 , 1.3899999999999997 , 0.0 , -0.35 , 0.35 , -0.6799999999999999 , 0.0 , 6431.577195167528 , -0.34999975130532424 , 0.34999975130532424 , 0.0 , 2.3437490941198043 , 2.3437490941198043 , 1.833332881945211 , 3.5445069747130087 , 3.5445069747130082 , 0.16613576615820705
3.599999999999995 , 0.05 , 6426.053676425657 , -0.34999999920550945 , -0.34999999769080886 , 0.0 , 17.52095963669227 , -8.0902965151206 , 7.934926162255906 , -0.45001467058183714 , 0.5259451429872345 , -1.2754257814386718 , -0.35 , -0.35 , 0.3599999999999999 , 0.0 , -0.24 , 0.24 , -0.17999999999999997 , 0.0 , 6431.577195167528 , -0.349999833219425 , 0.349999833219425 , 0.0 , 2.5201936484430814 , 2.5201936484430814 , 1.8293772010582607 , 3.5133741001149987 , 3.5133741001149983 , -0.3243145429815496
3.649999999999995 , 0.05 , 6425.451949024478 , -0.3499999994671957 , -0.3499999984514014 , 0.0 , 17.494636246465305 , -8.060181738963191 , 7.869511209339944 , -0.5926666014736803 , 0.6683831056186126 , -1.368937507362189 , -0.35 , -0.35 , 0.5299999999999998 , 0.0 , -0.24 , 0.24 , 0.8200000000000001 , 0.0 , 6431.577195167528 , -0.313512811891571 , 0.313512811891571 , 0.0 , 2.6950951769136653 , 2.6950951769136653 , 1.8009141848451755 , 3.4827833682984037 , 3.4827833682984033 , -0.813956444227387
3.699999999999995 , 0.05 , 6424.5660725725265 , -0.34999999964268874 , -0.34999999896147294 , 0.0 , 17.45982200280701 , -8.02158824543005 , 7.8031826560377 , -0.8024743920815853 , 0.8779134945890953 , -1.276918418633541 , -0.35 , -0.35 , 0.5299999999999998 , 0.0 , -0.24 , 0.24 , 0.8200000000000001 , 0.0 , 6430.25044282767 , -0.28929944317384826 , 0.28929944317384826 , 0.0 , 2.875404792893563 , 2.875404792893563 , 1.770134602316438 , 3.736961071788059 , 3.7369610717880586 , -0.37831201977427936
3.7499999999999947 , 0.05 , 6423.680196120429 , -0.34999999976037854 , -0.349999999303539 , 0.0 , 17.414470199856357 , -7.972473028505914 , 7.741623739872684 , -1.0114250297027294 , 1.086508643764875 , -1.1855459216341606 , -0.35 , -0.35 , 0.5299999999999998 , 0.0 , -0.24 , 0.24 , 0.8200000000000001 , 0.0 , 6428.943740340876 , -0.2730613812029978 , 0.2730613812029978 , 0.0 , 3.068151791546838 , 3.068151791546838 , 1.7623257736418134 , 3.9695964823465726 , 3.9695964823465717 , 0.06746019969008839
3.7999999999999945 , 0.05 , 6422.7943196682345 , -0.34999999983930413 , -0.34999999953293665 , 0.0 , 17.358696581592003 , -7.912955680371669 , 7.68461885882694 , -1.2193088720109102 , 1.2939609039390647 , -1.0947489316717804 , -0.35 , -0.35 , 0.5299999999999998 , 0.0 , -0.24 , 0.24 , 0.8200000000000001 , 0.0 , 6427.651260572395 , -0.2621717499565951 , 0.2621717499565951 , 0.0 , 3.2721093778536368 , 3.2721093778536368 , 1.776986816430594 , 4.18619592725689 , 4.186195927256889 , 0.5198620204796774
3.8499999999999943 , 0.05 , 6421.908443215976 , -0.34999999989223357 , -0.3499999996867762 , 0.0 , 17.29255974587434 , -7.843098560357343 , 7.6321403516498 , -1.425916461739398 , 1.5000625994167898 , -1.0044830660367186 , -0.35 , -0.35 , 0.5299999999999998 , 0.0 , 0.24 , -0.24 , -0.17999999999999997 , 0.0 , 6426.368662095905 , -0.2548689037859435 , 0.2548689037859435 , 0.0 , 3.48657596808116 , 3.48657596808116 , 1.814363940252386 , 4.390514998590286 , 4.390514998590285 , 0.9755613663104395
3.899999999999994 , 0.05 , 6421.022566763673 , -0.3499999999277293 , -0.34999999978994467 , 0.0 , 17.216128636422564 , -7.762974277347369 , 7.5841627517779635 , -1.6310435660609288 , 1.7046115649882556 , -0.9147049039182417 , -0.35 , -0.35 , 0.5299999999999998 , 0.0 , 0.24 , -0.24 , -0.17999999999999997 , 0.0 , 6426.368662095905 , -0.09075510836895759 , 0.09075510836895759 , 0.0 , 3.7051483379911225 , 3.7051483379911225 , 1.8517825318439296 , 4.342739941817191 , 4.34273994181719 , 0.48359051918420465
3.949999999999994 , 0.05 , 6420.136690311343 , -0.3499999999515336 , -0.34999999985913194 , 0.0 , 17.129482261942062 , -7.672665395038452 , 7.540662741435731 , -1.8344919539516764 , 1.9074119055992371 , -0.8253718992531225 , -0.35 , -0.35 , 0.5299999999999998 , 0.0 , 0.24 , -0.24 , -0.17999999999999997 , 0.0 , 6426.368662095905 , 0.018187743742596428 , -0.018187743742596428 , 0.0 , 3.9211147526759196 , 3.9211147526759196 , 1.8636921480840447 , 4.2960980144633 , 4.296098014463299 , -0.007099469433913458
3.999999999999994 , 0.05 , 6419.250813858992 , -0.34999999996749726 , -0.34999999990553055 , 0.0 , 17.032709377634315 , -7.572264100515568 , 7.501619110004866 , -2.036070122510676 , 2.108274702988312 , -0.7364422970240632 , -0.35 , -0.35 , -0.4700000000000002 , 0.0 , 0.24 , -0.24 , -0.17999999999999997 , 0.0 , 6426.368662095905 , 0.0912474160455999 , -0.0912474160455999 , 0.0 , 4.134773995738469 , 4.134773995738469 , 1.8510771019870171 , 4.250447325531213 , 4.250447325531213 , -0.49739224698841533
4.049999999999994 , 0.05 , 6419.250813858992 , -0.34999999997820286 , -0.3499999999366465 , 0.0 , 16.93095490345304 , -7.466918067630908 , 7.453161195911581 , -2.025715862242285 , 2.097176619601215 , -1.2245338500214646 , -0.35 , -0.35 , -0.4700000000000002 , 0.0 , 0.35 , -0.35 , 0.8200000000000001 , 0.0 , 6426.368662095905 , 0.1402429730148318 , -0.1402429730148318 , 0.0 , 4.346174841421941 , 4.346174841421941 , 1.8139724682979805 , 4.205756608533861 , 4.205756608533861 , -0.9864676486017256
4.099999999999993 , 0.05 , 6419.250813858992 , -0.3499999999853822 , -0.34999999995751363 , 0.0 , 16.82992475226431 , -7.36233320195431 , 7.3797917703004 , -2.0155087499561635 , 2.086238601544727 , -1.7096037134548685 , -0.35 , -0.35 , -0.4700000000000002 , 0.0 , 0.35 , -0.35 , 0.8200000000000001 , 0.0 , 6425.188618311298 , 0.20958763715000997 , -0.20958763715000997 , 0.0 , 4.551457816584925 , 4.551457816584925 , 1.7761025471549663 , 3.9884029030330863 , 3.9884029030330863 , -0.49349473788557396
4.149999999999993 , 0.05 , 6419.250813858992 , -0.34999999999019704 , -0.34999999997150766 , 0.0 , 16.729402391057505 , -7.258292391577055 , 7.2822669392422625 , -2.0054039844324345 , 2.0754140878868994 , -2.1905463544202686 , -0.35 , -0.35 , 0.5299999999999998 , 0.0 , 0.35 , -0.35 , 0.8200000000000001 , 0.0 , 6423.933922365516 , 0.2558361240019094 , -0.2558361240019094 , 0.0 , 4.744390335542423 , 4.744390335542423 , 1.7632380436972317 , 3.7222837343703437 , 3.7222837343703437 , -0.02501240019354596
4.199999999999993 , 0.05 , 6418.364937406608 , -0.3499999999934259 , -0.3499999999808924 , 0.0 , 16.624335728570447 , -7.1497435195900065 , 7.174642524244633 , -2.2052936949327293 , 2.2745600099315073 , -2.09158896859689 , -0.35 , -0.35 , 0.5299999999999998 , 0.0 , 0.32000000000000006 , -0.32000000000000006 , 0.8200000000000001 , 0.0 , 6422.635905118294 , 0.28685146120319416 , -0.28685146120319416 , 0.0 , 4.92323590403254 , 4.92323590403254 , 1.773298132779344 , 3.4276445357513134 , 3.4276445357513134 , 0.42439025589190205
4.249999999999993 , 0.05 , 6417.479060954223 , -0.3499999999955913 , -0.34999999998718595 , 0.0 , 16.509119672284392 , -7.031084016052286 , 7.072511858549844 , -2.4029364814074587 , 2.4713975217986235 , -1.9938238533723833 , -0.35 , -0.35 , 1.5299999999999998 , 0.0 , 0.32000000000000006 , -0.32000000000000006 , -0.17999999999999997 , 0.0 , 6421.316635850216 , 0.29770006450454567 , -0.29770006450454567 , 0.0 , 5.08696011495566 , 5.08696011495566 , 1.8054837594078805 , 3.1207016558785945 , 3.1207016558785945 , 0.8617514934159938
4.299999999999993 , 0.05 , 6415.807595949717 , -0.3499999999970434 , -0.3499999999914066 , 0.0 , 16.379608458441265 , -6.8981715118120706 , 6.987507666886561 , -2.784068715164502 , 2.851637318794011 , -1.3868565150906729 , -0.35 , -0.35 , 1.5299999999999998 , 0.0 , 0.32000000000000006 , -0.32000000000000006 , -0.17999999999999997 , 0.0 , 6421.316635850216 , 0.30504513193754346 , -0.30504513193754346 , 0.0 , 5.242108885277623 , 5.242108885277623 , 1.8372000800310895 , 3.096630349088635 , 3.096630349088635 , 0.37017559441053716
4.3499999999999925 , 0.05 , 6414.1361309452095 , -0.3499999999980172 , -0.34999999999423703 , 0.0 , 16.23098535353093 , -6.74619467777754 , 6.933243768503678 , -3.1598424618293603 , 3.22640308602921 , -0.7843126106245377 , -0.35 , -0.35 , 0.5299999999999998 , 0.0 , 0.35 , -0.35 , -0.17999999999999997 , 0.0 , 6421.316635850216 , 0.30997090916199865 , -0.30997090916199865 , 0.0 , 5.3963440364408415 , 5.3963440364408415 , 1.8434427764050378 , 3.072841754056407 , 3.072841754056407 , -0.12040641418767864
4.399999999999992 , 0.05 , 6413.25025449282 , -0.34999999999867026 , -0.34999999999613524 , 0.0 , 16.06818474353899 , -6.580093003663356 , 6.896753833598362 , -3.344196043246632 , 3.4096710116494493 , -0.6958180563495683 , -0.35 , -0.35 , 1.7599999999999998 , 0.0 , 0.35 , -0.35 , -0.17999999999999997 , 0.0 , 6421.316635850216 , 0.32322527352905855 , -0.32322527352905855 , 0.0 , 5.549398863112181 , 5.549398863112181 , 1.8251655073434845 , 3.0494158643360447 , 3.0494158643360447 , -0.6105243068661709
4.449999999999992 , 0.05 , 6411.57878948831 , -0.34999999999910825 , -0.34999999999740816 , 0.0 , 15.891963247809999 , -6.400626152580436 , 6.8764529554827165 , -3.7109328235838515 , 3.775253634532973 , -0.09598630764509974 , -0.35 , -0.35 , 0.8199999999999998 , 0.0 , 0.35 , -0.35 , 0.8200000000000001 , 0.0 , 6421.316635850216 , 0.332044230492823 , -0.332044230492823 , 0.0 , 5.7012912936105 , 5.7012912936105 , 1.7824143070711986 , 3.02634444743673 , 3.02634444743673 , -1.0991488853723155
4.499999999999992 , 0.05 , 6410.2081881846125 , -0.34999999999940196 , -0.3499999999982618 , 0.0 , 15.699096095725283 , -6.204573629492073 , 6.8819264491316146 , -3.9998971157843615 , 4.0629792126394975 , 0.30702394186321125 , -0.35 , -0.35 , 0.8499999999999999 , 0.0 , 0.35 , -0.35 , 0.8200000000000001 , 0.0 , 6419.958194791621 , 0.33795843315356455 , -0.33795843315356455 , 0.0 , 5.844535246120268 , 5.844535246120268 , 1.7369600336123765 , 2.6910011053190273 , 2.6910011053190273 , -0.6838756900020011
4.549999999999992 , 0.05 , 6408.787442930777 , -0.3499999999995989 , -0.34999999999883435 , 0.0 , 15.491709125025253 , -5.994064872335875 , 6.9081241416713395 , -4.294948851540054 , 4.356726521423203 , 0.7419697691953994 , -0.35 , -0.35 , 0.8799999999999999 , 0.0 , 0.35 , -0.35 , 1.82 , 0.0 , 6418.595658960502 , 0.34192463836990017 , -0.34192463836990017 , 0.0 , 5.970716144420641 , 5.970716144420641 , 1.7130471910178282 , 2.356437645021899 , 2.356437645021899 , -0.27328635190923345
4.599999999999992 , 0.05 , 6407.316553726807 , -0.349999999999731 , -0.34999999999921827 , 0.0 , 15.269429584133343 , -5.768730354214447 , 6.956846735176304 , -4.595498120960496 , 4.655908504760247 , 1.2078144744402342 , -0.35 , -0.35 , -0.09000000000000008 , 0.0 , 0.35 , -0.35 , 0.8200000000000001 , 0.0 , 6416.930740975389 , 0.3445844700869478 , -0.3445844700869478 , 0.0 , 6.078517115005013 , 6.078517115005013 , 1.714321352012607 , 1.9531339065003015 , 1.9531339065003015 , 0.3316849670377976
4.6499999999999915 , 0.05 , 6407.316553726807 , -0.3499999999998196 , -0.3499999999994758 , 0.0 , 15.040621395369271 , -5.536936275434397 , 7.005859410328516 , -4.543143158840433 , 4.602178186400507 , 0.7148410394278857 , -0.32000000000000006 , -0.35 , -0.53 , 0.0 , 0.35 , -0.35 , -0.17999999999999997 , 0.0 , 6415.563721779786 , 0.34636821660966277 , -0.34636821660966277 , 0.0 , 6.167825425414304 , 6.167825425414304 , 1.7412514178786482 , 1.6223059107018318 , 1.6223059107018318 , 0.7372251512359475
4.699999999999991 , 0.05 , 6407.316553726807 , -0.340048979201315 , -0.3499999999996485 , 0.0 , 14.814744942303607 , -5.308141447907596 , 7.02931878313596 , -4.492122466184126 , 4.549830565259472 , 0.22374246738943437 , -0.32000000000000006 , -0.35 , -0.5 , 0.0 , 0.35 , -0.35 , -0.17999999999999997 , 0.0 , 6415.563721779786 , 0.3475644395274154 , -0.3475644395274154 , 0.0 , 6.248455263423824 , 6.248455263423824 , 1.766722000188523 , 1.6158043964766053 , 1.6158043964766053 , 0.24600731919926197
4.749999999999991 , 0.05 , 6407.316553726807 , -0.333445323140227 , -0.3499999999997642 , 0.0 , 14.591391021462293 , -5.081934384004681 , 7.0282427015487725 , -4.442234994491401 , 4.498660405838423 , -0.2667446351355313 , -0.32000000000000006 , -0.35 , -1.2 , 0.0 , 0.35 , -0.35 , -0.17999999999999997 , 0.0 , 6415.563721779786 , 0.34836665511731807 , -0.34836665511731807 , 0.0 , 6.3290827274470445 , 6.3290827274470445 , 1.7667588385575224 , 1.609303600069751 , 1.609303600069751 , -0.2444931163120578
4.799999999999991 , 0.05 , 6407.316553726807 , -0.32901675404667324 , -0.3499999999998419 , 0.0 , 14.37050391281142 , -4.858257200772989 , 7.002654928034177 , -4.393443403612889 , 4.448628422914652 , -0.7565419150753916 , -0.32000000000000006 , -0.1200000000000001 , -1.2 , 0.0 , 0.35 , -0.35 , -0.17999999999999997 , 0.0 , 6415.563721779786 , 0.34890464000552934 , -0.34890464000552934 , 0.0 , 6.409386456957979 , 6.409386456957979 , 1.7422824945561943 , 1.6028549027792778 , 1.6028549027792778 , -0.7343460280869831
4.849999999999991 , 0.05 , 6407.316553726807 , -0.32604685009726186 , -0.27370884054423583 , 0.0 , 14.152029722351974 , -4.637053935873156 , 6.952618157451585 , -4.345711976070781 , 4.3996970596702605 , -1.2444906123390131 , -0.040000000000000036 , -0.1200000000000001 , -0.19999999999999996 , 0.0 , 0.35 , -0.35 , 0.8200000000000001 , 0.0 , 6415.563721779786 , 0.3492654254896145 , -0.3492654254896145 , 0.0 , 6.4893690412722425 , 6.4893690412722425 , 1.6933530199902493 , 1.5964576808008302 , 1.5964576808008302 , -1.222404288887245
4.899999999999991 , 0.05 , 6407.316553726807 , -0.23117896762779794 , -0.2230808107422909 , 0.0 , 13.935916303192215 , -4.418270463537789 , 6.878254353395875 , -4.299006529861958 , 4.351830393672343 , -1.7294136015338981 , -0.040000000000000036 , -0.1200000000000001 , -0.19999999999999996 , 0.0 , 0.35 , -0.35 , 0.8200000000000001 , 0.0 , 6414.193602015103 , 0.3495073768313322 , -0.3495073768313322 , 0.0 , 6.561232117844136 , 6.561232117844136 , 1.64151183541827 , 1.2654666044565381 , 1.2654666044565381 , -0.8159537349710649
4.94999999999999 , 0.05 , 6407.316553726807 , -0.16820917072935798 , -0.18912844769153045 , 0.0 , 13.722113180838882 , -4.201854415077227 , 6.779743653775193 , -4.253294336824107 , 4.304994048924361 , -2.21016301440694 , -0.040000000000000036 , -0.1200000000000001 , 2.0300000000000002 , 0.0 , 0.35 , -0.35 , 1.82 , 0.0 , 6412.82332349211 , 0.34966963516583094 , -0.34966963516583094 , 0.0 , 6.616273358951737 , 6.616273358951737 , 1.6108323523015917 , 0.936492452536892 , 0.936492452536892 , -0.4114841610567258
4.99999999999999 , 0.05 , 6405.903331176795 , -0.12598012460822386 , -0.16635918407925449 , 0.0 , 13.505343184703737 , -3.983355502683665 , 6.686037385927728 , -4.42124977790744 , 4.433503034648808 , -1.4894184338289698 , -0.040000000000000036 , 0.15999999999999992 , 2.06 , 0.0 , 0.35 , -0.35 , 0.8200000000000001 , 0.0 , 6411.152122385879 , 0.3497784494709197 , -0.3497784494709197 , 0.0 , 6.653189374547535 , 6.653189374547535 , 1.6050552156516802 , 0.5375451673703687 , 0.5375451673703687 , 0.18812712735469111
5.04999999999999 , 0.05 , 6404.58249199023 , -0.097660320128355 , -0.05821337927949417 , 0.0 , 13.281517558377086 , -3.7593898454305403 , 6.629781739787552 , -4.506157121520302 , 4.518885173179119 , -0.7579850926517392 , 0.24 , 0.15999999999999992 , 2.12 , 0.0 , 0.28 , -0.28 , -0.17999999999999997 , 0.0 , 6409.781666172376 , 0.34985142293652643 , -0.34985142293652643 , 0.0 , 6.671832605295311 , 6.671832605295311 , 1.6247303964645143 , 0.2111502630816226 , 0.2111502630816226 , 0.5908714664157108
5.09999999999999 , 0.05 , 6403.419042322544 , 0.01420780962463427 , 0.013660908693980772 , 0.0 , 13.056474800710431 , -3.532845603164416 , 6.610405005736587 , -4.479732599859056 , 4.516445767870485 , -0.015891094606400757 , 0.24 , 0.15999999999999992 , 2.1500000000000004 , 0.0 , 0.28 , -0.28 , -0.17999999999999997 , 0.0 , 6409.781666172376 , 0.32668131215124835 , -0.32668131215124835 , 0.0 , 6.682061549065729 , 6.682061549065729 , 1.6428904676830594 , 0.21104520787357986 , 0.21104520787357986 , 0.09997274288384819
5.14999999999999 , 0.05 , 6402.224730663085 , 0.08857837740001609 , 0.06186151868881376 , 0.0 , 12.834677156648754 , -3.3095352806084906 , 6.628152616741885 , -4.38190439124006 , 4.3999557647237335 , 0.7242620418275443 , 0.24 , 0.15999999999999992 , 1.1800000000000002 , 0.0 , 0.28 , -0.28 , -0.17999999999999997 , 0.0 , 6409.781666172376 , 0.31130560015954195 , -0.31130560015954195 , 0.0 , 6.6926110266440775 , 6.6926110266440775 , 1.6356273997975295 , 0.21093391639392658 , 0.21093391639392658 , -0.3904289943790331
5.1999999999999895 , 0.05 , 6400.929138219872 , 0.13845305210647582 , 0.09418599618111811 , 0.0 , 12.619007007403868 , -3.0939824667480864 , 6.6826379680869366 , -4.238440543884499 , 4.2119679621236585 , 1.4525989275345017 , 0.24 , 0.15999999999999992 , 1.2100000000000002 , 0.0 , 0.28 , -0.28 , -0.17999999999999997 , 0.0 , 6409.781666172376 , 0.30099428135554035 , -0.30099428135554035 , 0.0 , 6.703154942582127 , 6.703154942582127 , 1.603862906385252 , 0.210822742228146 , 0.210822742228146 , -0.8798720948135175
5.249999999999989 , 0.05 , 6399.5699983753 , 0.1719001972807336 , 0.1158635609518233 , 0.0 , 12.411282436681281 , -2.889052525152281 , 6.773170060892358 , -4.066572883158969 , 3.978864462667463 , 2.1658564163392287 , 0.24 , 0.35 , -0.22999999999999976 , 0.0 , 0.28 , -0.28 , 0.8200000000000001 , 0.0 , 6409.781666172376 , 0.29407926528765954 , -0.29407926528765954 , 0.0 , 6.713693302740932 , 6.713693302740932 , 1.5476746253410847 , 0.21071168519084257 , 0.21071168519084257 , -1.3671674750218994
5.299999999999989 , 0.05 , 6399.5699983753 , 0.1943306497476843 , 0.1934241841018713 , 0.0 , 12.209118963562858 , -2.691298864817141 , 6.870145363162722 , -4.025702630123663 , 3.939757798715723 , 1.665872197139438 , 0.24 , 0.35 , -0.19999999999999973 , 0.0 , 0.28 , -0.28 , 0.8200000000000001 , 0.0 , 6408.463674729235 , 0.2894418907550738 , -0.2894418907550738 , 0.0 , 6.717520949688291 , 6.717520949688291 , 1.4894353879976425 , -0.06810746023714016 , -0.06810746023714018 , -0.9253858982953642
5.349999999999989 , 0.05 , 6399.5699983753 , 0.20937304560092926 , 0.24499652727671267 , 0.0 , 12.008840245313156 , -2.4952750065494844 , 6.941033774818962 , -3.9855907433547273 , 3.9013321504060876 , 1.170297917389789 , 0.32000000000000006 , 0.35 , -0.6699999999999997 , 0.0 , 0.28 , -0.28 , 1.82 , 0.0 , 6407.149542321661 , 0.28633195690324037 , -0.28633195690324037 , 0.0 , 6.707217167429739 , 6.707217167429739 , 1.4542068226100202 , -0.3435126693240265 , -0.3435126693240265 , -0.4837441436335277
5.399999999999989 , 0.05 , 6399.5699983753 , 0.24599689012371184 , 0.27958216937458785 , 0.0 , 11.810547228472032 , -2.301153775123677 , 6.987221353512284 , -3.946270313614598 , 3.863648813915264 , 0.6776160836649401 , 0.32000000000000006 , 0.35 , -0.13999999999999968 , 0.0 , 0.08000000000000002 , -0.08000000000000002 , 0.8200000000000001 , 0.0 , 6405.5501328153505 , 0.2842463611647855 , -0.2842463611647855 , 0.0 , 6.681771787777442 , 6.681771787777442 , 1.4459732882095402 , -0.6761601408622515 , -0.6761601408622515 , 0.1627002066705084
5.449999999999989 , 0.05 , 6399.5699983753 , 0.2703717513157399 , 0.3027761250043922 , 0.0 , 11.614200924223006 , -2.1088985912797167 , 7.008821984446512 , -3.9077181451750658 , 3.826686484963504 , 0.1866012829924285 , 0.32000000000000006 , 0.35 , 0.4200000000000004 , 0.0 , 0.08000000000000002 , -0.08000000000000002 , -0.17999999999999997 , 0.0 , 6404.278390563517 , 0.21650757231399162 , -0.21650757231399162 , 0.0 , 6.6416030151072905 , 6.6416030151072905 , 1.46563788790798 , -0.9163681196267446 , -0.9163681196267446 , 0.6219335046300346
5.4999999999999885 , 0.05 , 6398.893258543747 , 0.2867181139875861 , 0.3183305442699053 , 0.0 , 11.423376223222313 , -1.921690002024438 , 7.017288410436865 , -3.718796929602405 , 3.6557044236030456 , 0.17029085312656872 , 0.32000000000000006 , 0.35 , 0.4500000000000004 , 0.0 , 0.08000000000000002 , -0.08000000000000002 , -0.17999999999999997 , 0.0 , 6404.278390563517 , 0.1715452304289458 , -0.1715452304289458 , 0.0 , 6.595625443621113 , 6.595625443621113 , 1.4854208778444955 , -0.9142539831365162 , -0.9142539831365162 , 0.13097124129769472
5.549999999999988 , 0.05 , 6398.161179766304 , 0.2976803742644536 , 0.3287617084296088 , 0.0 , 11.242469288450604 , -1.7434767986886441 , 7.026120035488934 , -3.5168508609584963 , 3.4721186035569747 , 0.18369825136922124 , 0.32000000000000006 , 0.35 , -0.7499999999999996 , 0.0 , 0.08000000000000002 , -0.08000000000000002 , -0.17999999999999997 , 0.0 , 6404.278390563517 , 0.14139241268617744 , -0.14139241268617744 , 0.0 , 6.549964909436914 , 6.549964909436914 , 1.4797073683037887 , -0.9121690978851815 , -0.9121690978851815 , -0.3594547174475472
5.599999999999988 , 0.05 , 6398.161179766304 , 0.3050319271933972 , 0.33575709564846373 , 0.0 , 11.067564431653258 , -1.5707721904087857 , 7.023544321517487 , -3.4862590570406202 , 3.4422916327617727 , -0.30677164786598726 , 0.35 , 0.35 , -0.7499999999999996 , 0.0 , 0.08000000000000002 , -0.08000000000000002 , -0.17999999999999997 , 0.0 , 6404.278390563517 , 0.12117121468556802 , -0.12117121468556802 , 0.0 , 6.504408382043144 , 6.504408382043144 , 1.4494895319424008 , -0.9100936998355478 , -0.9100936998355478 , -0.8489936645182234
5.649999999999988 , 0.05 , 6398.161179766304 , 0.31991307454452145 , 0.3404483689898192 , 0.0 , 10.894006891971626 , -1.3993941395867144 , 6.99595741509633 , -3.4561366559916458 , 3.4129210239346106 , -0.796462645379131 , 0.35 , 0.35 , 0.25000000000000044 , 0.0 , 0.08000000000000002 , -0.08000000000000002 , 0.8200000000000001 , 0.0 , 6404.278390563517 , 0.10761039751524178 , -0.10761039751524178 , 0.0 , 6.458955388697613 , 6.458955388697613 , 1.3948412396148493 , -0.908027724377829 , -0.908027724377829 , -1.336459698521181
5.699999999999988 , 0.05 , 6397.747439606347 , 0.32982299093719947 , 0.3435944486670089 , 0.0 , 10.724281824291117 , -1.2316788380829264 , 6.950532663850135 , -3.3292663830574867 , 3.2919448267482725 , -1.0095510171615791 , 0.35 , 0.35 , 0.25000000000000044 , 0.0 , 0.08000000000000002 , -0.08000000000000002 , 0.8200000000000001 , 0.0 , 6403.2068764810865 , 0.09851619042021839 , -0.09851619042021839 , 0.0 , 6.411095194140088 , 6.411095194140088 , 1.3398761268621917 , -1.0089850369007205 , -1.0089850369007203 , -0.8223812804161655
5.749999999999988 , 0.05 , 6397.33230282413 , 0.33646881698421593 , 0.3457042846571596 , 0.0 , 10.56095548233786 , -1.0701101521926801 , 6.894726983871089 , -3.2040924728781395 , 3.1708398335957724 , -1.222614978460885 , 0.35 , 0.35 , 1.4800000000000004 , 0.0 , 0.08000000000000002 , -0.08000000000000002 , 1.82 , 0.0 , 6402.1472189269525 , 0.0924173984633334 , -0.0924173984633334 , 0.0 , 6.358290830412785 , 6.358290830412785 , 1.3115899698813722 , -1.102007717162547 , -1.1020077171625469 , -0.30913006204043336
5.799999999999987 , 0.05 , 6395.668091825457 , 0.3409256662750772 , 0.347119190941196 , 0.0 , 10.410921843880221 , -0.9214846936864758 , 6.8479538489394365 , -2.786438807224897 , 2.7629905737228575 , -0.6164372243562916 , 0.35 , 0.35 , 2.5100000000000007 , 0.0 , -0.12 , 0.12 , 0.8200000000000001 , 0.0 , 6400.864745373998 , 0.08832740326697158 , -0.08832740326697158 , 0.0 , 6.300500561322679 , 6.300500561322679 , 1.3142507121982006 , -1.2094099057530692 , -1.209409905753069 , 0.42441559421277697
5.849999999999987 , 0.05 , 6394.001460996721 , 0.34391453559860824 , 0.34806806080688774 , 0.0 , 10.28193352271948 , -0.7934931727478863 , 6.832198891745804 , -2.3739502187654544 , 2.3570502614961977 , -0.01423394893019679 , 0.35 , 0.35 , 1.5700000000000005 , 0.0 , -0.12 , 0.12 , -0.17999999999999997 , 0.0 , 6399.875507792008 , 0.01924441638279903 , -0.01924441638279903 , 0.0 , 6.2384393875135356 , 6.2384393875135356 , 1.3485846502641465 , -1.2587398292902765 , -1.2587398292902763 , 0.9412857394238987
