time , step-size , {uav2}.uav2.batteryCharge , {uav2}.uav2.currentPitch , {uav2}.uav2.currentRoll , {uav2}.uav2.currentYaw , {uav2}.uav2.posX , {uav2}.uav2.posY , {uav2}.uav2.posZ , {uav2}.uav2.velX , {uav2}.uav2.velY , {uav2}.uav2.velZ , {uav3}.uav3.batteryCharge , {uav3}.uav3.currentPitch , {uav3}.uav3.currentRoll , {uav3}.uav3.currentYaw , {uav3}.uav3.posX , {uav3}.uav3.posY , {uav3}.uav3.posZ , {uav3}.uav3.velX , {uav3}.uav3.velY , {uav3}.uav3.velZ , {uav4}.uav4.batteryCharge , {uav4}.uav4.currentPitch , {uav4}.uav4.currentRoll , {uav4}.uav4.currentYaw , {uav4}.uav4.posX , {uav4}.uav4.posY , {uav4}.uav4.posZ , {uav4}.uav4.velX , {uav4}.uav4.velY , {uav4}.uav4.velZ , {uav5}.uav5.batteryCharge , {uav5}.uav5.currentPitch , {uav5}.uav5.currentRoll , {uav5}.uav5.currentYaw , {uav5}.uav5.posX , {uav5}.uav5.posY , {uav5}.uav5.posZ , {uav5}.uav5.velX , {uav5}.uav5.velY , {uav5}.uav5.velZ , {uavCont2}.controller2.pitchOut , {uavCont2}.controller2.rollOut , {uavCont2}.controller2.throttleOut , {uavCont2}.controller2.yawOut , {uavCont3}.controller3.pitchOut , {uavCont3}.controller3.rollOut , {uavCont3}.controller3.throttleOut , {uavCont3}.controller3.yawOut , {uavCont4}.controller4.pitchOut , {uavCont4}.controller4.rollOut , {uavCont4}.controller4.throttleOut , {uavCont4}.controller4.yawOut , {uavCont5}.controller5.pitchOut , {uavCont5}.controller5.rollOut , {uavCont5}.controller5.throttleOut , {uavCont5}.controller5.yawOut , {uavCont}.controller.pitchOut , {uavCont}.controller.rollOut , {uavCont}.controller.throttleOut , {uavCont}.controller.yawOut , {uavGlobalCont}.global.uav1TargetX , {uavGlobalCont}.global.uav1TargetY , {uavGlobalCont}.global.uav1TargetZ , {uavGlobalCont}.global.uav2TargetX , {uavGlobalCont}.global.uav2TargetY , {uavGlobalCont}.global.uav2TargetZ , {uavGlobalCont}.global.uav3TargetX , {uavGlobalCont}.global.uav3TargetY , {uavGlobalCont}.global.uav3TargetZ , {uavGlobalCont}.global.uav4TargetX , {uavGlobalCont}.global.uav4TargetY , {uavGlobalCont}.global.uav4TargetZ , {uavGlobalCont}.global.uav5TargetX , {uavGlobalCont}.global.uav5TargetY , {uavGlobalCont}.global.uav5TargetZ , {uav}.uav.batteryCharge , {uav}.uav.currentPitch , {uav}.uav.currentRoll , {uav}.uav.currentYaw , {uav}.uav.posX , {uav}.uav.posY , {uav}.uav.posZ , {uav}.uav.velX , {uav}.uav.velY , {uav}.uav.velZ
0.0 , 0.0 , 6480.0 , 0.0 , 0.0 , 0.0 , 5.0 , 5.0 , 0.5 , 0.0 , 0.0 , 0.0 , 6480.0 , 0.0 , 0.0 , 0.0 , 5.0 , 5.0 , 0.5 , 0.0 , 0.0 , 0.0 , 6480.0 , 0.0 , 0.0 , 0.0 , 5.0 , 5.0 , 0.5 , 0.0 , 0.0 , 0.0 , 6480.0 , 0.0 , 0.0 , 0.0 , 5.0 , 5.0 , 0.5 , 0.0 , 0.0 , 0.0 , 0.0 , 0.0 , 0.0 , 0.0 , 0.0 , 0.0 , 0.0 , 0.0 , 0.0 , 0.0 , 0.0 , 0.0 , 0.0 , 0.0 , 0.0 , 0.0 , 0.0 , 0.0 , 0.0 , 0.0 , 0.0 , 0.0 , 0.0 , 0.0 , 0.0 , 0.0 , 0.0 , 0.0 , 0.0 , 0.0 , 0.0 , 0.0 , 0.0 , 0.0 , 0.0 , 6480.0 , 0.0 , 0.0 , 0.0 , 5.0 , 5.0 , 0.5 , 0.0 , 0.0 , 0.0
0.05 , 0.05 , 6480.0 , 0.0 , 0.0 , 0.0 , 5.0 , 5.0 , 0.48773978499389453 , 0.0 , 0.0 , -0.4903016023394045 , 6480.0 , 0.0 , 0.0 , 0.0 , 5.0 , 5.0 , 0.48773978499389453 , 0.0 , 0.0 , -0.4903016023394045 , 6480.0 , 0.0 , 0.0 , 0.0 , 5.0 , 5.0 , 0.48773978499389453 , 0.0 , 0.0 , -0.4903016023394045 , 6480.0 , 0.0 , 0.0 , 0.0 , 5.0 , 5.0 , 0.48773978499389453 , 0.0 , 0.0 , -0.4903016023394045 , 0.35 , -0.35 , 0.0 , 0.0 , 0.35 , -0.35 , 0.0 , 0.0 , 0.35 , -0.35 , 0.0 , 0.0 , 0.35 , -0.35 , 0.0 , 0.0 , 0.35 , -0.35 , 0.0 , 0.0 , 10.0 , 10.0 , 4.0 , 0.0 , 0.0 , 0.0 , 0.0 , 0.0 , 0.0 , 0.0 , 0.0 , 0.0 , 0.0 , 0.0 , 0.0 , 6480.0 , 0.0 , 0.0 , 0.0 , 5.0 , 5.0 , 0.48773978499389453 , 0.0 , 0.0 , -0.4903016023394045
0.1 , 0.05 , 6480.0 , 0.13405912801440112 , -0.13405912801440112 , 0.0 , 5.0 , 5.0 , 0.4407069742734344 , 0.0 , 0.0 , -1.0769745290617336 , 6480.0 , 0.13405912801440112 , -0.13405912801440112 , 0.0 , 5.0 , 5.0 , 0.4407069742734344 , 0.0 , 0.0 , -1.0769745290617336 , 6480.0 , 0.13405912801440112 , -0.13405912801440112 , 0.0 , 5.0 , 5.0 , 0.4407069742734344 , 0.0 , 0.0 , -1.0769745290617336 , 6480.0 , 0.13405912801440112 , -0.13405912801440112 , 0.0 , 5.0 , 5.0 , 0.4407069742734344 , 0.0 , 0.0 , -1.0769745290617336 , 0.35 , -0.35 , 0.0 , 0.0 , 0.35 , -0.35 , 0.0 , 0.0 , 0.35 , -0.35 , 0.0 , 0.0 , 0.35 , -0.35 , 0.0 , 0.0 , 0.35 , -0.35 , 0.0 , 0.0 , 10.0 , 10.0 , 4.0 , 0.0 , 0.0 , 0.0 , 0.0 , 0.0 , 0.0 , 0.0 , 0.0 , 0.0 , 0.0 , 0.0 , 0.0 , 6480.0 , 0.13405912801440112 , -0.13405912801440112 , 0.0 , 5.0 , 5.0 , 0.4407069742734344 , 0.0 , 0.0 , -1.0769745290617336
0.15000000000000002 , 0.05 , 6480.0 , 0.20518490623012176 , -0.20518490623012176 , 0.0 , 5.0 , 5.0 , 0.37469146913845064 , 0.0 , 0.0 , -1.563069219085933 , 6480.0 , 0.20518490623012176 , -0.20518490623012176 , 0.0 , 5.0 , 5.0 , 0.37469146913845064 , 0.0 , 0.0 , -1.563069219085933 , 6480.0 , 0.20518490623012176 , -0.20518490623012176 , 0.0 , 5.0 , 5.0 , 0.37469146913845064 , 0.0 , 0.0 , -1.563069219085933 , 6480.0 , 0.20518490623012176 , -0.20518490623012176 , 0.0 , 5.0 , 5.0 , 0.37469146913845064 , 0.0 , 0.0 , -1.563069219085933 , 0.35 , -0.35 , 1.0 , 0.0 , 0.35 , -0.35 , 1.0 , 0.0 , 0.35 , -0.35 , 1.0 , 0.0 , 0.35 , -0.35 , 1.0 , 0.0 , -0.35 , 0.35 , 6.1 , 0.0 , 10.0 , 10.0 , 4.0 , 0.0 , 0.0 , 0.0 , 0.0 , 0.0 , 0.0 , 0.0 , 0.0 , 0.0 , 0.0 , 0.0 , 0.0 , 6480.0 , 0.20518490623012176 , -0.20518490623012176 , 0.0 , 5.0 , 5.0 , 0.37469146913845064 , 0.0 , 0.0 , -1.563069219085933
0.2 , 0.05 , 6478.785492381697 , 0.24480453612151168 , -0.24480453612151168 , 0.0 , 4.996043210791862 , 4.996043210791862 , 0.32213149691038223 , -0.21686129813812988 , -0.21686129813812988 , -1.0093328385385718 , 6478.785492381697 , 0.24480453612151168 , -0.24480453612151168 , 0.0 , 4.996043210791862 , 4.996043210791862 , 0.32213149691038223 , -0.21686129813812988 , -0.21686129813812988 , -1.0093328385385718 , 6478.785492381697 , 0.24480453612151168 , -0.24480453612151168 , 0.0 , 4.996043210791862 , 4.996043210791862 , 0.32213149691038223 , -0.21686129813812988 , -0.21686129813812988 , -1.0093328385385718 , 6478.785492381697 , 0.24480453612151168 , -0.24480453612151168 , 0.0 , 4.996043210791862 , 4.996043210791862 , 0.32213149691038223 , -0.21686129813812988 , -0.21686129813812988 , -1.0093328385385718 , 0.35 , -0.35 , 2.0 , 0.0 , 0.35 , -0.35 , 2.0 , 0.0 , 0.35 , -0.35 , 2.0 , 0.0 , 0.35 , -0.35 , 2.0 , 0.0 , -0.35 , 0.35 , 7.3999999999999995 , 0.0 , 10.0 , 10.0 , 4.0 , 0.0 , 0.0 , 0.0 , 0.0 , 0.0 , 0.0 , 0.0 , 0.0 , 0.0 , 0.0 , 0.0 , 0.0 , 6478.917133183928 , 0.05153061356970367 , -0.05153061356970367 , 0.0 , 4.997089063098008 , 4.997089063098008 , 0.3225082986180318 , -0.12697970259564434 , -0.12697970259564434 , -0.9787645462846353
0.25 , 0.05 , 6477.214606747546 , 0.27945341553152064 , -0.27945341553152064 , 0.0 , 4.977578864453702 , 4.977578864453702 , 0.28845285763343914 , -0.5283043795020428 , -0.5283043795020428 , -0.34212765852890514 , 6477.214606747546 , 0.27945341553152064 , -0.27945341553152064 , 0.0 , 4.977578864453702 , 4.977578864453702 , 0.28845285763343914 , -0.5283043795020428 , -0.5283043795020428 , -0.34212765852890514 , 6477.214606747546 , 0.27945341553152064 , -0.27945341553152064 , 0.0 , 4.977578864453702 , 4.977578864453702 , 0.28845285763343914 , -0.5283043795020428 , -0.5283043795020428 , -0.34212765852890514 , 6477.214606747546 , 0.27945341553152064 , -0.27945341553152064 , 0.0 , 4.977578864453702 , 4.977578864453702 , 0.28845285763343914 , -0.5283043795020428 , -0.5283043795020428 , -0.34212765852890514 , 0.35 , -0.35 , 2.0 , 0.0 , 0.35 , -0.35 , 2.0 , 0.0 , 0.35 , -0.35 , 2.0 , 0.0 , 0.35 , -0.35 , 2.0 , 0.0 , -0.35 , 0.35 , 7.0 , 0.0 , 10.0 , 10.0 , 4.0 , 0.0 , 0.0 , 0.0 , 0.0 , 0.0 , 0.0 , 0.0 , 0.0 , 0.0 , 0.0 , 0.0 , 0.0 , 6477.745739066817 , -0.08072400365480016 , 0.08072400365480016 , 0.0 , 4.990602541117435 , 4.990602541117435 , 0.2923314804606009 , -0.10298185436623408 , -0.10298185436623408 , -0.22972609224201748
0.3 , 0.05 , 6475.6070011178435 , 0.3026897796095368 , -0.3026897796095368 , 0.0 , 4.942750679708262 , 4.942750679708262 , 0.28760204787387966 , -0.8689396408126938 , -0.8689396408126938 , 0.3051417940777869 , 6475.6070011178435 , 0.3026897796095368 , -0.3026897796095368 , 0.0 , 4.942750679708262 , 4.942750679708262 , 0.28760204787387966 , -0.8689396408126938 , -0.8689396408126938 , 0.3051417940777869 , 6475.6070011178435 , 0.3026897796095368 , -0.3026897796095368 , 0.0 , 4.942750679708262 , 4.942750679708262 , 0.28760204787387966 , -0.8689396408126938 , -0.8689396408126938 , 0.3051417940777869 , 6475.6070011178435 , 0.3026897796095368 , -0.3026897796095368 , 0.0 , 4.942750679708262 , 4.942750679708262 , 0.28760204787387966 , -0.8689396408126938 , -0.8689396408126938 , 0.3051417940777869 , 0.35 , -0.35 , 2.0 , 0.0 , 0.35 , -0.35 , 2.0 , 0.0 , 0.35 , -0.35 , 2.0 , 0.0 , 0.35 , -0.35 , 2.0 , 0.0 , -0.35 , 0.35 , 7.3 , 0.0 , 10.0 , 10.0 , 4.0 , 0.0 , 0.0 , 0.0 , 0.0 , 0.0 , 0.0 , 0.0 , 0.0 , 0.0 , 0.0 , 0.0 , 0.0 , 6476.391995177071 , -0.16941710106964789 , 0.16941710106964789 , 0.0 , 4.988904060858811 , 4.988904060858811 , 0.29919546521337886 , 0.05421700276292949 , 0.05421700276292949 , 0.4991911748723167
0.35 , 0.05 , 6473.976717500374 , 0.3182726389908463 , -0.3182726389908463 , 0.0 , 4.890400135870195 , 4.890400135870195 , 0.31873537096581883 , -1.2275692671239478 , -1.2275692671239478 , 0.9377879307431437 , 6473.976717500374 , 0.3182726389908463 , -0.3182726389908463 , 0.0 , 4.890400135870195 , 4.890400135870195 , 0.31873537096581883 , -1.2275692671239478 , -1.2275692671239478 , 0.9377879307431437 , 6473.976717500374 , 0.3182726389908463 , -0.3182726389908463 , 0.0 , 4.890400135870195 , 4.890400135870195 , 0.31873537096581883 , -1.2275692671239478 , -1.2275692671239478 , 0.9377879307431437 , 6473.976717500374 , 0.3182726389908463 , -0.3182726389908463 , 0.0 , 4.890400135870195 , 4.890400135870195 , 0.31873537096581883 , -1.2275692671239478 , -1.2275692671239478 , 0.9377879307431437 , 0.35 , -0.35 , 1.0 , 0.0 , 0.35 , -0.35 , 1.0 , 0.0 , 0.35 , -0.35 , 1.0 , 0.0 , 0.35 , -0.35 , 1.0 , 0.0 , -0.35 , 0.35 , 7.6 , 0.0 , 10.0 , 10.0 , 4.0 , 0.0 , 0.0 , 0.0 , 0.0 , 0.0 , 0.0 , 0.0 , 0.0 , 0.0 , 0.0 , 0.0 , 0.0 , 6474.912440625419 , -0.22889680540152949 , 0.22889680540152949 , 0.0 , 4.9973798351567345 , 4.9973798351567345 , 0.3417521957265406 , 0.2970134938200748 , 0.2970134938200749 , 1.1973448386319887
0.39999999999999997 , 0.05 , 6472.332122004942 , 0.3287228757698182 , -0.3287228757698182 , 0.0 , 4.819827165310882 , 4.819827165310882 , 0.3811820209119858 , -1.5967366759337471 , -1.5967366759337471 , 1.5579516023135271 , 6472.332122004942 , 0.3287228757698182 , -0.3287228757698182 , 0.0 , 4.819827165310882 , 4.819827165310882 , 0.3811820209119858 , -1.5967366759337471 , -1.5967366759337471 , 1.5579516023135271 , 6472.332122004942 , 0.3287228757698182 , -0.3287228757698182 , 0.0 , 4.819827165310882 , 4.819827165310882 , 0.3811820209119858 , -1.5967366759337471 , -1.5967366759337471 , 1.5579516023135271 , 6472.332122004942 , 0.3287228757698182 , -0.3287228757698182 , 0.0 , 4.819827165310882 , 4.819827165310882 , 0.3811820209119858 , -1.5967366759337471 , -1.5967366759337471 , 1.5579516023135271 , 0.35 , -0.35 , 0.0 , 0.0 , 0.35 , -0.35 , 0.0 , 0.0 , 0.35 , -0.35 , 0.0 , 0.0 , 0.35 , -0.35 , 0.0 , 0.0 , -0.35 , 0.35 , 6.9 , 0.0 , 10.0 , 10.0 , 4.0 , 0.0 , 0.0 , 0.0 , 0.0 , 0.0 , 0.0 , 0.0 , 0.0 , 0.0 , 0.0 , 0.0 , 0.0 , 6473.3595484149355 , -0.2687853122924367 , 0.2687853122924367 , 0.0 , 5.019464129470426 , 5.019464129470426 , 0.4184408927697063 , 0.5940621621999204 , 0.5940621621999205 , 1.8649953992287989
0.44999999999999996 , 0.05 , 6472.332122004942 , 0.3357310535415796 , -0.3357310535415796 , 0.0 , 4.739772775859679 , 4.739772775859679 , 0.44779796424832224 , -1.5903272899163852 , -1.5903272899163852 , 1.0629379617930408 , 6472.332122004942 , 0.3357310535415796 , -0.3357310535415796 , 0.0 , 4.739772775859679 , 4.739772775859679 , 0.44779796424832224 , -1.5903272899163852 , -1.5903272899163852 , 1.0629379617930408 , 6472.332122004942 , 0.3357310535415796 , -0.3357310535415796 , 0.0 , 4.739772775859679 , 4.739772775859679 , 0.44779796424832224 , -1.5903272899163852 , -1.5903272899163852 , 1.0629379617930408 , 6472.332122004942 , 0.3357310535415796 , -0.3357310535415796 , 0.0 , 4.739772775859679 , 4.739772775859679 , 0.44779796424832224 , -1.5903272899163852 , -1.5903272899163852 , 1.0629379617930408 , 0.35 , -0.35 , -0.5 , 0.0 , 0.35 , -0.35 , -0.5 , 0.0 , 0.35 , -0.35 , -0.5 , 0.0 , 0.35 , -0.35 , -0.5 , 0.0 , -0.35 , 0.35 , 7.0 , 0.0 , 10.0 , 10.0 , 4.0 , 0.0 , 0.0 , 0.0 , 0.0 , 0.0 , 0.0 , 0.0 , 0.0 , 0.0 , 0.0 , 0.0 , 0.0 , 6471.762882383656 , -0.2955354953987288 , 0.2955354953987288 , 0.0 , 5.057326176303183 , 5.057326176303183 , 0.5278231762465232 , 0.9252362172027337 , 0.9252362172027339 , 2.505811826598216
0.49999999999999994 , 0.05 , 6472.332122004942 , 0.34043090453246233 , -0.34043090453246233 , 0.0 , 4.660414081549539 , 4.660414081549539 , 0.4886303936354655 , -1.584029479621321 , -1.584029479621321 , 0.5707222249912187 , 6472.332122004942 , 0.34043090453246233 , -0.34043090453246233 , 0.0 , 4.660414081549539 , 4.660414081549539 , 0.4886303936354655 , -1.584029479621321 , -1.584029479621321 , 0.5707222249912187 , 6472.332122004942 , 0.34043090453246233 , -0.34043090453246233 , 0.0 , 4.660414081549539 , 4.660414081549539 , 0.4886303936354655 , -1.584029479621321 , -1.584029479621321 , 0.5707222249912187 , 6472.332122004942 , 0.34043090453246233 , -0.34043090453246233 , 0.0 , 4.660414081549539 , 4.660414081549539 , 0.4886303936354655 , -1.584029479621321 , -1.584029479621321 , 0.5707222249912187 , 0.35 , -0.35 , -0.5 , 0.0 , 0.35 , -0.35 , -0.5 , 0.0 , 0.35 , -0.35 , -0.5 , 0.0 , 0.35 , -0.35 , -0.5 , 0.0 , -0.35 , 0.35 , 7.299999999999999 , 0.0 , 10.0 , 10.0 , 4.0 , 0.0 , 0.0 , 0.0 , 0.0 , 0.0 , 0.0 , 0.0 , 0.0 , 0.0 , 0.0 , 0.0 , 0.0 , 6470.139411785406 , -0.31347480554080076 , 0.31347480554080076 , 0.0 , 5.112321818020381 , 5.112321818020381 , 0.6686533905279244 , 1.277520763439718 , 1.277520763439718 , 3.123514727185739
0.5499999999999999 , 0.05 , 6472.332122004942 , 0.3435827365857965 , -0.3435827365857965 , 0.0 , 4.5813690330278725 , 4.5813690330278725 , 0.5048925670149539 , -1.5777813521177375 , -1.5777813521177375 , 0.07990959298067307 , 6472.332122004942 , 0.3435827365857965 , -0.3435827365857965 , 0.0 , 4.5813690330278725 , 4.5813690330278725 , 0.5048925670149539 , -1.5777813521177375 , -1.5777813521177375 , 0.07990959298067307 , 6472.332122004942 , 0.3435827365857965 , -0.3435827365857965 , 0.0 , 4.5813690330278725 , 4.5813690330278725 , 0.5048925670149539 , -1.5777813521177375 , -1.5777813521177375 , 0.07990959298067307 , 6472.332122004942 , 0.3435827365857965 , -0.3435827365857965 , 0.0 , 4.5813690330278725 , 4.5813690330278725 , 0.5048925670149539 , -1.5777813521177375 , -1.5777813521177375 , 0.07990959298067307 , 0.35 , -0.35 , -0.5 , 0.0 , 0.35 , -0.35 , -0.5 , 0.0 , 0.35 , -0.35 , -0.5 , 0.0 , 0.35 , -0.35 , -0.5 , 0.0 , -0.35 , 0.35 , 7.1 , 0.0 , 10.0 , 10.0 , 4.0 , 0.0 , 0.0 , 0.0 , 0.0 , 0.0 , 0.0 , 0.0 , 0.0 , 0.0 , 0.0 , 0.0 , 0.0 , 6468.49914533086 , -0.3255053343448352 , 0.3255053343448352 , 0.0 , 5.185276251710237 , 5.185276251710237 , 0.839850832573994 , 1.6423276920522933 , 1.6423276920522933 , 3.7209167782313433
0.6 , 0.05 , 6472.332122004942 , 0.345696430256446 , -0.345696430256446 , 0.0 , 4.502635160836864 , 4.502635160836864 , 0.49662659334010467 , -1.57158232180198 , -1.57158232180198 , -0.4104749324840017 , 6472.332122004942 , 0.345696430256446 , -0.345696430256446 , 0.0 , 4.502635160836864 , 4.502635160836864 , 0.49662659334010467 , -1.57158232180198 , -1.57158232180198 , -0.4104749324840017 , 6472.332122004942 , 0.345696430256446 , -0.345696430256446 , 0.0 , 4.502635160836864 , 4.502635160836864 , 0.49662659334010467 , -1.57158232180198 , -1.57158232180198 , -0.4104749324840017 , 6472.332122004942 , 0.345696430256446 , -0.345696430256446 , 0.0 , 4.502635160836864 , 4.502635160836864 , 0.49662659334010467 , -1.57158232180198 , -1.57158232180198 , -0.4104749324840017 , 0.35 , -0.35 , 0.0 , 0.0 , 0.35 , -0.35 , 0.0 , 0.0 , 0.35 , -0.35 , 0.0 , 0.0 , 0.35 , -0.35 , 0.0 , 0.0 , -0.35 , 0.35 , 6.899999999999999 , 0.0 , 10.0 , 10.0 , 4.0 , 0.0 , 0.0 , 0.0 , 0.0 , 0.0 , 0.0 , 0.0 , 0.0 , 0.0 , 0.0 , 0.0 , 0.0 , 6466.848154955521 , -0.3335732936007081 , 0.3335732936007081 , 0.0 , 5.27666044553584 , 5.27666044553584 , 1.0404501656863714 , 2.0138464595838372 , 2.0138464595838372 , 4.299840459595194
0.65 , 0.05 , 6472.332122004942 , 0.3471139235929382 , -0.3471139235929382 , 0.0 , 4.424210024568891 , 4.424210024568891 , 0.46386119789696034 , -1.5654318122376027 , -1.5654318122376027 , -0.8998534574664545 , 6472.332122004942 , 0.3471139235929382 , -0.3471139235929382 , 0.0 , 4.424210024568891 , 4.424210024568891 , 0.46386119789696034 , -1.5654318122376027 , -1.5654318122376027 , -0.8998534574664545 , 6472.332122004942 , 0.3471139235929382 , -0.3471139235929382 , 0.0 , 4.424210024568891 , 4.424210024568891 , 0.46386119789696034 , -1.5654318122376027 , -1.5654318122376027 , -0.8998534574664545 , 6472.332122004942 , 0.3471139235929382 , -0.3471139235929382 , 0.0 , 4.424210024568891 , 4.424210024568891 , 0.46386119789696034 , -1.5654318122376027 , -1.5654318122376027 , -0.8998534574664545 , 0.35 , -0.35 , 1.0 , 0.0 , 0.35 , -0.35 , 1.0 , 0.0 , 0.35 , -0.35 , 1.0 , 0.0 , 0.35 , -0.35 , 1.0 , 0.0 , -0.35 , 0.35 , 5.769999999999999 , 0.0 , 10.0 , 10.0 , 4.0 , 0.0 , 0.0 , 0.0 , 0.0 , 0.0 , 0.0 , 0.0 , 0.0 , 0.0 , 0.0 , 0.0 , 0.0 , 6465.190218231439 , -0.33898385930523445 , 0.33898385930523445 , 0.0 , 5.386702670001353 , 5.386702670001353 , 1.2695560394561805 , 2.3880393085765856 , 2.3880393085765856 , 4.861304200698277
0.7000000000000001 , 0.05 , 6470.6629738006495 , 0.348064528397646 , -0.348064528397646 , 0.0 , 4.336585676157002 , 4.336585676157002 , 0.4329545681311335 , -1.9549116430887992 , -1.9549116430887992 , -0.2930917235329692 , 6470.6629738006495 , 0.348064528397646 , -0.348064528397646 , 0.0 , 4.336585676157002 , 4.336585676157002 , 0.4329545681311335 , -1.9549116430887992 , -1.9549116430887992 , -0.2930917235329692 , 6470.6629738006495 , 0.348064528397646 , -0.348064528397646 , 0.0 , 4.336585676157002 , 4.336585676157002 , 0.4329545681311335 , -1.9549116430887992 , -1.9549116430887992 , -0.2930917235329692 , 6470.6629738006495 , 0.348064528397646 , -0.348064528397646 , 0.0 , 4.336585676157002 , 4.336585676157002 , 0.4329545681311335 , -1.9549116430887992 , -1.9549116430887992 , -0.2930917235329692 , 0.35 , -0.35 , 1.0 , 0.0 , 0.35 , -0.35 , 1.0 , 0.0 , 0.35 , -0.35 , 1.0 , 0.0 , 0.35 , -0.35 , 1.0 , 0.0 , -0.35 , 0.35 , 6.039999999999999 , 0.0 , 10.0 , 10.0 , 4.0 , 0.0 , 0.0 , 0.0 , 0.0 , 0.0 , 0.0 , 0.0 , 0.0 , 0.0 , 0.0 , 0.0 , 0.0 , 6463.527734228901 , -0.3426123135790568 , 0.3426123135790568 , 0.0 , 5.515460339804851 , 5.515460339804851 , 1.5263086742197731 , 2.7620225637722617 , 2.7620225637722617 , 5.405752382774076
0.7500000000000001 , 0.05 , 6468.993059660673 , 0.34870202662883326 , -0.34870202662883326 , 0.0 , 4.229165854985107 , 4.229165854985107 , 0.433427961346204 , -2.341235873046718 , -2.341235873046718 , 0.3118513912875194 , 6468.993059660673 , 0.34870202662883326 , -0.34870202662883326 , 0.0 , 4.229165854985107 , 4.229165854985107 , 0.433427961346204 , -2.341235873046718 , -2.341235873046718 , 0.3118513912875194 , 6468.993059660673 , 0.34870202662883326 , -0.34870202662883326 , 0.0 , 4.229165854985107 , 4.229165854985107 , 0.433427961346204 , -2.341235873046718 , -2.341235873046718 , 0.3118513912875194 , 6468.993059660673 , 0.34870202662883326 , -0.34870202662883326 , 0.0 , 4.229165854985107 , 4.229165854985107 , 0.433427961346204 , -2.341235873046718 , -2.341235873046718 , 0.3118513912875194 , 0.35 , -0.35 , 1.0 , 0.0 , 0.35 , -0.35 , 1.0 , 0.0 , 0.35 , -0.35 , 1.0 , 0.0 , 0.35 , -0.35 , 1.0 , 0.0 , -0.35 , 0.35 , 6.309999999999999 , 0.0 , 10.0 , 10.0 , 4.0 , 0.0 , 0.0 , 0.0 , 0.0 , 0.0 , 0.0 , 0.0 , 0.0 , 0.0 , 0.0 , 0.0 , 0.0 , 6461.862250905137 , -0.34504564146678685 , 0.34504564146678685 , 0.0 , 5.662867234194901 , 5.662867234194901 , 1.8098603689837955 , 3.1336794061562676 , 3.1336794061562676 , 5.933255966427028
0.8000000000000002 , 0.05 , 6467.322633426521 , 0.3491295481317272 , -0.3491295481317272 , 0.0 , 4.102526929678956 , 4.102526929678956 , 0.4641156950883162 , -2.723515268612582 , -2.723515268612582 , 0.9152423292033777 , 6467.322633426521 , 0.3491295481317272 , -0.3491295481317272 , 0.0 , 4.102526929678956 , 4.102526929678956 , 0.4641156950883162 , -2.723515268612582 , -2.723515268612582 , 0.9152423292033777 , 6467.322633426521 , 0.3491295481317272 , -0.3491295481317272 , 0.0 , 4.102526929678956 , 4.102526929678956 , 0.4641156950883162 , -2.723515268612582 , -2.723515268612582 , 0.9152423292033777 , 6467.322633426521 , 0.3491295481317272 , -0.3491295481317272 , 0.0 , 4.102526929678956 , 4.102526929678956 , 0.4641156950883162 , -2.723515268612582 , -2.723515268612582 , 0.9152423292033777 , 0.35 , -0.35 , 1.0 , 0.0 , 0.35 , -0.35 , 1.0 , 0.0 , 0.35 , -0.35 , 1.0 , 0.0 , 0.35 , -0.35 , 1.0 , 0.0 , -0.35 , 0.35 , 6.079999999999998 , 0.0 , 10.0 , 10.0 , 4.0 , 0.0 , 0.0 , 0.0 , 0.0 , 0.0 , 0.0 , 0.0 , 0.0 , 0.0 , 0.0 , 0.0 , 0.0 , 6460.194778804182 , -0.3466774891248717 , 0.3466774891248717 , 0.0 , 5.828765188679323 , 5.828765188679323 , 2.11936090982327 , 3.501413597548474 , 3.501413597548474 , 6.4436673810781695
0.8500000000000002 , 0.05 , 6465.651864471993 , 0.3494162542377132 , -0.3494162542377132 , 0.0 , 3.9568925557851267 , 3.9568925557851267 , 0.5249015697036716 , -3.100911706552103 , -3.100911706552103 , 1.5154737332292396 , 6465.651864471993 , 0.3494162542377132 , -0.3494162542377132 , 0.0 , 3.9568925557851267 , 3.9568925557851267 , 0.5249015697036716 , -3.100911706552103 , -3.100911706552103 , 1.5154737332292396 , 6465.651864471993 , 0.3494162542377132 , -0.3494162542377132 , 0.0 , 3.9568925557851267 , 3.9568925557851267 , 0.5249015697036716 , -3.100911706552103 , -3.100911706552103 , 1.5154737332292396 , 6465.651864471993 , 0.3494162542377132 , -0.3494162542377132 , 0.0 , 3.9568925557851267 , 3.9568925557851267 , 0.5249015697036716 , -3.100911706552103 , -3.100911706552103 , 1.5154737332292396 , 0.35 , -0.35 , 0.0 , 0.0 , 0.35 , -0.35 , 0.0 , 0.0 , 0.35 , -0.35 , 0.0 , 0.0 , 0.35 , -0.35 , 0.0 , 0.0 , -0.35 , 0.35 , 4.889999999999999 , 0.0 , 10.0 , 10.0 , 4.0 , 0.0 , 0.0 , 0.0 , 0.0 , 0.0 , 0.0 , 0.0 , 0.0 , 0.0 , 0.0 , 0.0 , 0.0 , 6458.525983183103 , -0.34777184504485453 , 0.34777184504485453 , 0.0 , 6.012925844693151 , 6.012925844693151 , 2.4539496251214543 , 3.8639907051825277 , 3.8639907051825277 , 6.936732797848756
0.9000000000000002 , 0.05 , 6465.651864471993 , 0.34960852618345933 , -0.34960852618345933 , 0.0 , 3.802051188499103 , 3.802051188499103 , 0.5893846084603518 , -3.0769347215930596 , -3.0769347215930596 , 1.0207402583894045 , 6465.651864471993 , 0.34960852618345933 , -0.34960852618345933 , 0.0 , 3.802051188499103 , 3.802051188499103 , 0.5893846084603518 , -3.0769347215930596 , -3.0769347215930596 , 1.0207402583894045 , 6465.651864471993 , 0.34960852618345933 , -0.34960852618345933 , 0.0 , 3.802051188499103 , 3.802051188499103 , 0.5893846084603518 , -3.0769347215930596 , -3.0769347215930596 , 1.0207402583894045 , 6465.651864471993 , 0.34960852618345933 , -0.34960852618345933 , 0.0 , 3.802051188499103 , 3.802051188499103 , 0.5893846084603518 , -3.0769347215930596 , -3.0769347215930596 , 1.0207402583894045 , 0.35 , -0.35 , 0.0 , 0.0 , 0.35 , -0.35 , 0.0 , 0.0 , 0.35 , -0.35 , 0.0 , 0.0 , 0.35 , -0.35 , 0.0 , 0.0 , -0.35 , 0.35 , 5.129999999999999 , 0.0 , 10.0 , 10.0 , 4.0 , 0.0 , 0.0 , 0.0 , 0.0 , 0.0 , 0.0 , 0.0 , 0.0 , 0.0 , 0.0 , 0.0 , 0.0 , 6456.856304571635 , -0.34850574619896535 , 0.34850574619896535 , 0.0 , 6.215065955316986 , 6.215065955316986 , 2.8127521567945504 , 4.220434622020641 , 4.220434622020641 , 7.412170087741154
0.9500000000000003 , 0.05 , 6465.651864471993 , 0.34973746833135616 , -0.34973746833135616 , 0.0 , 3.648793275099771 , 3.648793275099771 , 0.6281118100793484 , -3.053446623236894 , -3.053446623236894 , 0.5286920457008163 , 6465.651864471993 , 0.34973746833135616 , -0.34973746833135616 , 0.0 , 3.648793275099771 , 3.648793275099771 , 0.6281118100793484 , -3.053446623236894 , -3.053446623236894 , 0.5286920457008163 , 6465.651864471993 , 0.34973746833135616 , -0.34973746833135616 , 0.0 , 3.648793275099771 , 3.648793275099771 , 0.6281118100793484 , -3.053446623236894 , -3.053446623236894 , 0.5286920457008163 , 6465.651864471993 , 0.34973746833135616 , -0.34973746833135616 , 0.0 , 3.648793275099771 , 3.648793275099771 , 0.6281118100793484 , -3.053446623236894 , -3.053446623236894 , 0.5286920457008163 , 0.040000000000000036 , -0.040000000000000036 , -0.5 , 0.0 , 0.040000000000000036 , -0.040000000000000036 , -0.5 , 0.0 , 0.040000000000000036 , -0.040000000000000036 , -0.5 , 0.0 , 0.040000000000000036 , -0.040000000000000036 , -0.5 , 0.0 , -0.35 , 0.35 , 5.369999999999999 , 0.0 , 10.0 , 10.0 , 4.0 , 0.0 , 0.0 , 0.0 , 0.0 , 0.0 , 0.0 , 0.0 , 0.0 , 0.0 , 0.0 , 0.0 , 0.0 , 6455.186035873505 , -0.348997917798872 , 0.348997917798872 , 0.0 , 6.434858473141252 , 6.434858473141252 , 3.194880446103055 , 4.569959524972938 , 4.569959524972938 , 7.869720852194189
1.0000000000000002 , 0.05 , 6465.651864471993 , 0.24699672508942108 , -0.24699672508942108 , 0.0 , 3.4967008329231666 , 3.4967008329231666 , 0.6422745358374858 , -3.0303144052511866 , -3.0303144052511866 , 0.037943301710985256 , 6465.651864471993 , 0.24699672508942108 , -0.24699672508942108 , 0.0 , 3.4967008329231666 , 3.4967008329231666 , 0.6422745358374858 , -3.0303144052511866 , -3.0303144052511866 , 0.037943301710985256 , 6465.651864471993 , 0.24699672508942108 , -0.24699672508942108 , 0.0 , 3.4967008329231666 , 3.4967008329231666 , 0.6422745358374858 , -3.0303144052511866 , -3.0303144052511866 , 0.037943301710985256 , 6465.651864471993 , 0.24699672508942108 , -0.24699672508942108 , 0.0 , 3.4967008329231666 , 3.4967008329231666 , 0.6422745358374858 , -3.0303144052511866 , -3.0303144052511866 , 0.037943301710985256 , 0.040000000000000036 , -0.040000000000000036 , -0.5 , 0.0 , 0.040000000000000036 , -0.040000000000000036 , -0.5 , 0.0 , 0.040000000000000036 , -0.040000000000000036 , -0.5 , 0.0 , 0.040000000000000036 , -0.040000000000000036 , -0.5 , 0.0 , -0.32000000000000006 , 0.32000000000000006 , 5.109999999999999 , 0.0 , 10.0 , 10.0 , 4.0 , 0.0 , 0.0 , 0.0 , 0.0 , 0.0 , 0.0 , 0.0 , 0.0 , 0.0 , 0.0 , 0.0 , 0.0 , 6453.515372379666 , -0.34932797980027075 , 0.34932797980027075 , 0.0 , 6.6719408539377145 , 6.6719408539377145 , 3.599434819171154 , 4.911924762371362 , 4.911924762371362 , 8.309183489030275
1.0500000000000003 , 0.05 , 6465.651864471993 , 0.17881693575767973 , -0.17881693575767973 , 0.0 , 3.3457562697341334 , 3.3457562697341334 , 0.63191082450571 , -3.007530040270775 , -3.007530040270775 , -0.45240119871343687 , 6465.651864471993 , 0.17881693575767973 , -0.17881693575767973 , 0.0 , 3.3457562697341334 , 3.3457562697341334 , 0.63191082450571 , -3.007530040270775 , -3.007530040270775 , -0.45240119871343687 , 6465.651864471993 , 0.17881693575767973 , -0.17881693575767973 , 0.0 , 3.3457562697341334 , 3.3457562697341334 , 0.63191082450571 , -3.007530040270775 , -3.007530040270775 , -0.45240119871343687 , 6465.651864471993 , 0.17881693575767973 , -0.17881693575767973 , 0.0 , 3.3457562697341334 , 3.3457562697341334 , 0.63191082450571 , -3.007530040270775 , -3.007530040270775 , -0.45240119871343687 , 0.040000000000000036 , -0.040000000000000036 , 0.0 , 0.0 , 0.040000000000000036 , -0.040000000000000036 , 0.0 , 0.0 , 0.040000000000000036 , -0.040000000000000036 , 0.0 , 0.0 , 0.040000000000000036 , -0.040000000000000036 , 0.0 , 0.0 , -0.32000000000000006 , 0.32000000000000006 , 3.829999999999999 , 0.0 , 10.0 , 10.0 , 4.0 , 0.0 , 0.0 , 0.0 , 0.0 , 0.0 , 0.0 , 0.0 , 0.0 , 0.0 , 0.0 , 0.0 , 0.0 , 6451.8495039392765 , -0.3395983064439158 , 0.3395983064439158 , 0.0 , 6.925846001307952 , 6.925846001307952 , 4.025569880829624 , 5.240958515943843 , 5.240958515943843 , 8.734426132437179
1.1000000000000003 , 0.05 , 6465.651864471993 , 0.13309394457727397 , -0.13309394457727397 , 0.0 , 3.195942388634357 , 3.195942388634357 , 0.5970521950926372 , -2.9850857405525923 , -2.9850857405525923 , -0.9416381984966581 , 6465.651864471993 , 0.13309394457727397 , -0.13309394457727397 , 0.0 , 3.195942388634357 , 3.195942388634357 , 0.5970521950926372 , -2.9850857405525923 , -2.9850857405525923 , -0.9416381984966581 , 6465.651864471993 , 0.13309394457727397 , -0.13309394457727397 , 0.0 , 3.195942388634357 , 3.195942388634357 , 0.5970521950926372 , -2.9850857405525923 , -2.9850857405525923 , -0.9416381984966581 , 6465.651864471993 , 0.13309394457727397 , -0.13309394457727397 , 0.0 , 3.195942388634357 , 3.195942388634357 , 0.5970521950926372 , -2.9850857405525923 , -2.9850857405525923 , -0.9416381984966581 , 0.040000000000000036 , -0.040000000000000036 , 0.0 , 0.0 , 0.040000000000000036 , -0.040000000000000036 , 0.0 , 0.0 , 0.040000000000000036 , -0.040000000000000036 , 0.0 , 0.0 , 0.040000000000000036 , -0.040000000000000036 , 0.0 , 0.0 , -0.32000000000000006 , 0.32000000000000006 , 4.039999999999999 , 0.0 , 10.0 , 10.0 , 4.0 , 0.0 , 0.0 , 0.0 , 0.0 , 0.0 , 0.0 , 0.0 , 0.0 , 0.0 , 0.0 , 0.0 , 0.0 , 6450.191915241914 , -0.333143091251367 , 0.333143091251367 , 0.0 , 7.195778294677251 , 7.195778294677251 , 4.47268207325624 , 5.553678980424435 , 5.553678980424435 , 9.147610303979832
1.1500000000000004 , 0.05 , 6465.651864471993 , 0.10243101729377503 , -0.10243101729377503 , 0.0 , 3.0472423763049403 , 3.0472423763049403 , 0.5377838314996918 , -2.9629739491008156 , -2.9629739491008156 , -1.4285780320035832 , 6465.651864471993 , 0.10243101729377503 , -0.10243101729377503 , 0.0 , 3.0472423763049403 , 3.0472423763049403 , 0.5377838314996918 , -2.9629739491008156 , -2.9629739491008156 , -1.4285780320035832 , 6465.651864471993 , 0.10243101729377503 , -0.10243101729377503 , 0.0 , 3.0472423763049403 , 3.0472423763049403 , 0.5377838314996918 , -2.9629739491008156 , -2.9629739491008156 , -1.4285780320035832 , 6465.651864471993 , 0.10243101729377503 , -0.10243101729377503 , 0.0 , 3.0472423763049403 , 3.0472423763049403 , 0.5377838314996918 , -2.9629739491008156 , -2.9629739491008156 , -1.4285780320035832 , 0.040000000000000036 , -0.040000000000000036 , 1.0 , 0.0 , 0.040000000000000036 , -0.040000000000000036 , 1.0 , 0.0 , 0.040000000000000036 , -0.040000000000000036 , 1.0 , 0.0 , 0.040000000000000036 , -0.040000000000000036 , 1.0 , 0.0 , -0.1200000000000001 , 0.1200000000000001 , 3.0199999999999987 , 0.0 , 10.0 , 10.0 , 4.0 , 0.0 , 0.0 , 0.0 , 0.0 , 0.0 , 0.0 , 0.0 , 0.0 , 0.0 , 0.0 , 0.0 , 0.0 , 6448.539867563002 , -0.32881407014101394 , 0.32881407014101394 , 0.0 , 7.480995436743462 , 7.480995436743462 , 4.940096330709129 , 5.852701668189798 , 5.852701668189798 , 9.546176791552517
1.2000000000000004 , 0.05 , 6464.367124264922 , 0.08186772768126022 , -0.08186772768126022 , 0.0 , 2.896848944062375 , 2.896848944062375 , 0.48367250533563416 , -3.0530223462790826 , -3.0530223462790826 , -0.6868041537637506 , 6464.367124264922 , 0.08186772768126022 , -0.08186772768126022 , 0.0 , 2.896848944062375 , 2.896848944062375 , 0.48367250533563416 , -3.0530223462790826 , -3.0530223462790826 , -0.6868041537637506 , 6464.367124264922 , 0.08186772768126022 , -0.08186772768126022 , 0.0 , 2.896848944062375 , 2.896848944062375 , 0.48367250533563416 , -3.0530223462790826 , -3.0530223462790826 , -0.6868041537637506 , 6464.367124264922 , 0.08186772768126022 , -0.08186772768126022 , 0.0 , 2.896848944062375 , 2.896848944062375 , 0.48367250533563416 , -3.0530223462790826 , -3.0530223462790826 , -0.6868041537637506 , 0.24 , -0.24 , 1.0 , 0.0 , 0.24 , -0.24 , 1.0 , 0.0 , 0.24 , -0.24 , 1.0 , 0.0 , 0.24 , -0.24 , 1.0 , 0.0 , 0.15999999999999992 , -0.15999999999999992 , 2.6999999999999984 , 0.0 , 10.0 , 10.0 , 4.0 , 0.0 , 0.0 , 0.0 , 0.0 , 0.0 , 0.0 , 0.0 , 0.0 , 0.0 , 0.0 , 0.0 , 0.0 , 6446.931738194508 , -0.25957078678387735 , 0.25957078678387735 , 0.0 , 7.780322513061741 , 7.780322513061741 , 5.427418998844432 , 6.10521916002678 , 6.10521916002678 , 9.95238550807922
1.2500000000000004 , 0.05 , 6463.049592822668 , 0.13441763438239504 , -0.13441763438239504 , 0.0 , 2.7417691303570058 , 2.7417691303570058 , 0.46776599015829595 , -3.1624701827385095 , -3.1624701827385095 , 0.04757545265427812 , 6463.049592822668 , 0.13441763438239504 , -0.13441763438239504 , 0.0 , 2.7417691303570058 , 2.7417691303570058 , 0.46776599015829595 , -3.1624701827385095 , -3.1624701827385095 , 0.04757545265427812 , 6463.049592822668 , 0.13441763438239504 , -0.13441763438239504 , 0.0 , 2.7417691303570058 , 2.7417691303570058 , 0.46776599015829595 , -3.1624701827385095 , -3.1624701827385095 , 0.04757545265427812 , 6463.049592822668 , 0.13441763438239504 , -0.13441763438239504 , 0.0 , 2.7417691303570058 , 2.7417691303570058 , 0.46776599015829595 , -3.1624701827385095 , -3.1624701827385095 , 0.04757545265427812 , -0.24 , 0.24 , 1.0 , 0.0 , -0.24 , 0.24 , 1.0 , 0.0 , -0.24 , 0.24 , 1.0 , 0.0 , -0.24 , 0.24 , 1.0 , 0.0 , 0.35 , -0.35 , 1.8299999999999983 , 0.0 , 10.0 , 10.0 , 4.0 , 0.0 , 0.0 , 0.0 , 0.0 , 0.0 , 0.0 , 0.0 , 0.0 , 0.0 , 0.0 , 0.0 , 0.0 , 6445.477840217065 , -0.12072330091679684 , 0.12072330091679684 , 0.0 , 8.089601106848777 , 8.089601106848777 , 5.935935057161466 , 6.235000100179494 , 6.235000100179494 , 10.396281041917451
1.3000000000000005 , 0.05 , 6461.807484069688 , 0.009977617229906213 , -0.009977617229906213 , 0.0 , 2.581342407000747 , 2.581342407000747 , 0.4885366053725554 , -3.224231886969051 , -3.224231886969051 , 0.7875469621215722 , 6461.807484069688 , 0.009977617229906213 , -0.009977617229906213 , 0.0 , 2.581342407000747 , 2.581342407000747 , 0.4885366053725554 , -3.224231886969051 , -3.224231886969051 , 0.7875469621215722 , 6461.807484069688 , 0.009977617229906213 , -0.009977617229906213 , 0.0 , 2.581342407000747 , 2.581342407000747 , 0.4885366053725554 , -3.224231886969051 , -3.224231886969051 , 0.7875469621215722 , 6461.807484069688 , 0.009977617229906213 , -0.009977617229906213 , 0.0 , 2.581342407000747 , 2.581342407000747 , 0.4885366053725554 , -3.224231886969051 , -3.224231886969051 , 0.7875469621215722 , -0.24 , 0.24 , 1.0 , 0.0 , -0.24 , 0.24 , 1.0 , 0.0 , -0.24 , 0.24 , 1.0 , 0.0 , -0.24 , 0.24 , 1.0 , 0.0 , 0.35 , -0.35 , 1.9799999999999986 , 0.0 , 10.0 , 10.0 , 4.0 , 0.0 , 0.0 , 0.0 , 0.0 , 0.0 , 0.0 , 0.0 , 0.0 , 0.0 , 0.0 , 0.0 , 0.0 , 6444.283196450276 , 0.03476339760421208 , -0.03476339760421208 , 0.0 , 8.401000695166571 , 8.401000695166571 , 6.467296078970701 , 6.185685978196046 , 6.185685978196046 , 10.856748216287588
1.3500000000000005 , 0.05 , 6460.639823029748 , -0.07235905390835959 , 0.07235905390835959 , 0.0 , 2.421373363586553 , 2.421373363586553 , 0.5465423657775496 , -3.1563885106461425 , -3.1563885106461425 , 1.530696984115163 , 6460.639823029748 , -0.07235905390835959 , 0.07235905390835959 , 0.0 , 2.421373363586553 , 2.421373363586553 , 0.5465423657775496 , -3.1563885106461425 , -3.1563885106461425 , 1.530696984115163 , 6460.639823029748 , -0.07235905390835959 , 0.07235905390835959 , 0.0 , 2.421373363586553 , 2.421373363586553 , 0.5465423657775496 , -3.1563885106461425 , -3.1563885106461425 , 1.530696984115163 , 6460.639823029748 , -0.07235905390835959 , 0.07235905390835959 , 0.0 , 2.421373363586553 , 2.421373363586553 , 0.5465423657775496 , -3.1563885106461425 , -3.1563885106461425 , 1.530696984115163 , -0.24 , 0.24 , 0.0 , 0.0 , -0.24 , 0.24 , 0.0 , 0.0 , -0.24 , 0.24 , 0.0 , 0.0 , -0.24 , 0.24 , 0.0 , 0.0 , 0.35 , -0.35 , 1.629999999999999 , 0.0 , 10.0 , 10.0 , 4.0 , 0.0 , 0.0 , 0.0 , 0.0 , 0.0 , 0.0 , 0.0 , 0.0 , 0.0 , 0.0 , 0.0 , 0.0 , 6443.001593467526 , 0.13859482359278272 , -0.13859482359278272 , 0.0 , 8.705726736904992 , 8.705726736904992 , 7.021077423250776 , 5.981700631832806 , 5.981700631832806 , 11.286130616720882
1.4000000000000006 , 0.05 , 6460.639823029748 , -0.12757598733068445 , 0.12757598733068445 , 0.0 , 2.2642617197165005 , 2.2642617197165005 , 0.6119214079701261 , -3.1317043764729013 , -3.1317043764729013 , 1.0358430922503066 , 6460.639823029748 , -0.12757598733068445 , 0.12757598733068445 , 0.0 , 2.2642617197165005 , 2.2642617197165005 , 0.6119214079701261 , -3.1317043764729013 , -3.1317043764729013 , 1.0358430922503066 , 6460.639823029748 , -0.12757598733068445 , 0.12757598733068445 , 0.0 , 2.2642617197165005 , 2.2642617197165005 , 0.6119214079701261 , -3.1317043764729013 , -3.1317043764729013 , 1.0358430922503066 , 6460.639823029748 , -0.12757598733068445 , 0.12757598733068445 , 0.0 , 2.2642617197165005 , 2.2642617197165005 , 0.6119214079701261 , -3.1317043764729013 , -3.1317043764729013 , 1.0358430922503066 , -0.24 , 0.24 , 0.0 , 0.0 , -0.24 , 0.24 , 0.0 , 0.0 , -0.24 , 0.24 , 0.0 , 0.0 , -0.24 , 0.24 , 0.0 , 0.0 , 0.35 , -0.35 , 0.5499999999999989 , 0.0 , 10.0 , 10.0 , 4.0 , 0.0 , 0.0 , 0.0 , 0.0 , 0.0 , 0.0 , 0.0 , 0.0 , 0.0 , 0.0 , 0.0 , 0.0 , 6441.56362975912 , 0.20822665175265884 , -0.20822665175265884 , 0.0 , 8.997678485339344 , 8.997678485339344 , 7.595096035978137 , 5.683354378387725 , 5.683354378387725 , 11.665360323875289
1.4500000000000006 , 0.05 , 6460.639823029748 , -0.16460577848468322 , 0.16460577848468322 , 0.0 , 2.108286419160377 , 2.108286419160377 , 0.6514021098343674 , -3.1073759637166676 , -3.1073759637166676 , 0.5437359382888763 , 6460.639823029748 , -0.16460577848468322 , 0.16460577848468322 , 0.0 , 2.108286419160377 , 2.108286419160377 , 0.6514021098343674 , -3.1073759637166676 , -3.1073759637166676 , 0.5437359382888763 , 6460.639823029748 , -0.16460577848468322 , 0.16460577848468322 , 0.0 , 2.108286419160377 , 2.108286419160377 , 0.6514021098343674 , -3.1073759637166676 , -3.1073759637166676 , 0.5437359382888763 , 6460.639823029748 , -0.16460577848468322 , 0.16460577848468322 , 0.0 , 2.108286419160377 , 2.108286419160377 , 0.6514021098343674 , -3.1073759637166676 , -3.1073759637166676 , 0.5437359382888763 , -0.24 , 0.24 , -0.5 , 0.0 , -0.24 , 0.24 , -0.5 , 0.0 , -0.24 , 0.24 , -0.5 , 0.0 , -0.24 , 0.24 , -0.5 , 0.0 , 0.35 , -0.35 , -0.9700000000000006 , 0.0 , 10.0 , 10.0 , 4.0 , 0.0 , 0.0 , 0.0 , 0.0 , 0.0 , 0.0 , 0.0 , 0.0 , 0.0 , 0.0 , 0.0 , 0.0 , 6440.722969259188 , 0.2549234147675502 , -0.2549234147675502 , 0.0 , 9.276070440608754 , 9.276070440608754 , 8.17435739913053 , 5.4528292824556175 , 5.4528292824556175 , 11.483465456193562
1.5000000000000007 , 0.05 , 6460.639823029748 , -0.18943883870592265 , 0.18943883870592265 , 0.0 , 1.9535181230813747 , 1.9535181230813747 , 0.6663163177293046 , -3.083422623494564 , -3.083422623494564 , 0.052965339213743856 , 6460.639823029748 , -0.18943883870592265 , 0.18943883870592265 , 0.0 , 1.9535181230813747 , 1.9535181230813747 , 0.6663163177293046 , -3.083422623494564 , -3.083422623494564 , 0.052965339213743856 , 6460.639823029748 , -0.18943883870592265 , 0.18943883870592265 , 0.0 , 1.9535181230813747 , 1.9535181230813747 , 0.6663163177293046 , -3.083422623494564 , -3.083422623494564 , 0.052965339213743856 , 6460.639823029748 , -0.18943883870592265 , 0.18943883870592265 , 0.0 , 1.9535181230813747 , 1.9535181230813747 , 0.6663163177293046 , -3.083422623494564 , -3.083422623494564 , 0.052965339213743856 , -0.24 , 0.24 , -0.5 , 0.0 , -0.24 , 0.24 , -0.5 , 0.0 , -0.24 , 0.24 , -0.5 , 0.0 , -0.24 , 0.24 , -0.5 , 0.0 , 0.35 , -0.35 , -0.8800000000000008 , 0.0 , 10.0 , 10.0 , 4.0 , 0.0 , 0.0 , 0.0 , 0.0 , 0.0 , 0.0 , 0.0 , 0.0 , 0.0 , 0.0 , 0.0 , 0.0 , 6440.722969259188 , 0.28623937664438415 , -0.28623937664438415 , 0.0 , 9.546707122027764 , 9.546707122027764 , 8.729000905288856 , 5.379584373172693 , 5.379584373172693 , 10.685186521423354
1.5500000000000007 , 0.05 , 6460.639823029748 , -0.2060924805638274 , 0.2060924805638274 , 0.0 , 1.7999382942373594 , 1.7999382942373594 , 0.6567034915224401 , -3.0598357484001957 , -3.0598357484001957 , -0.43739417380861045 , 6460.639823029748 , -0.2060924805638274 , 0.2060924805638274 , 0.0 , 1.7999382942373594 , 1.7999382942373594 , 0.6567034915224401 , -3.0598357484001957 , -3.0598357484001957 , -0.43739417380861045 , 6460.639823029748 , -0.2060924805638274 , 0.2060924805638274 , 0.0 , 1.7999382942373594 , 1.7999382942373594 , 0.6567034915224401 , -3.0598357484001957 , -3.0598357484001957 , -0.43739417380861045 , 6460.639823029748 , -0.2060924805638274 , 0.2060924805638274 , 0.0 , 1.7999382942373594 , 1.7999382942373594 , 0.6567034915224401 , -3.0598357484001957 , -3.0598357484001957 , -0.43739417380861045 , -0.24 , 0.24 , 0.0 , 0.0 , -0.24 , 0.24 , 0.0 , 0.0 , -0.24 , 0.24 , 0.0 , 0.0 , -0.24 , 0.24 , 0.0 , 0.0 , 0.35 , -0.35 , -2.0200000000000005 , 0.0 , 10.0 , 10.0 , 4.0 , 0.0 , 0.0 , 0.0 , 0.0 , 0.0 , 0.0 , 0.0 , 0.0 , 0.0 , 0.0 , 0.0 , 0.0 , 6440.722969259188 , 0.3072406068144191 , -0.3072406068144191 , 0.0 , 9.81389302108513 , 9.81389302108513 , 9.244184087909094 , 5.308195049272786 , 5.308195049272786 , 9.929158525322475
1.6000000000000008 , 0.05 , 6460.639823029748 , -0.21726080958411254 , 0.21726080958411254 , 0.0 , 1.6475288191768802 , 1.6475288191768802 , 0.6225940859618181 , -3.0366069923984194 , -3.0366069923984194 , -0.9266828359755307 , 6460.639823029748 , -0.21726080958411254 , 0.21726080958411254 , 0.0 , 1.6475288191768802 , 1.6475288191768802 , 0.6225940859618181 , -3.0366069923984194 , -3.0366069923984194 , -0.9266828359755307 , 6460.639823029748 , -0.21726080958411254 , 0.21726080958411254 , 0.0 , 1.6475288191768802 , 1.6475288191768802 , 0.6225940859618181 , -3.0366069923984194 , -3.0366069923984194 , -0.9266828359755307 , 6460.639823029748 , -0.21726080958411254 , 0.21726080958411254 , 0.0 , 1.6475288191768802 , 1.6475288191768802 , 0.6225940859618181 , -3.0366069923984194 , -3.0366069923984194 , -0.9266828359755307 , -0.35 , 0.35 , 0.0 , 0.0 , -0.35 , 0.35 , 0.0 , 0.0 , -0.35 , 0.35 , 0.0 , 0.0 , -0.35 , 0.35 , 0.0 , 0.0 , 0.35 , -0.35 , -1.46 , 0.0 , 10.0 , 10.0 , 4.0 , 0.0 , 0.0 , 0.0 , 0.0 , 0.0 , 0.0 , 0.0 , 0.0 , 0.0 , 0.0 , 0.0 , 0.0 , 6440.722969259188 , 0.3213245321426416 , -0.3213245321426416 , 0.0 , 10.077556536821623 , 10.077556536821623 , 9.72250222924488 , 5.238675633191478 , 5.238675633191478 , 9.209766802150465
1.6500000000000008 , 0.05 , 6460.639823029748 , -0.2612376333835964 , 0.2612376333835964 , 0.0 , 1.496271995418804 , 1.496271995418804 , 0.5640714560256292 , -3.0137282609791582 , -3.0137282609791582 , -1.4137104930789806 , 6460.639823029748 , -0.2612376333835964 , 0.2612376333835964 , 0.0 , 1.496271995418804 , 1.496271995418804 , 0.5640714560256292 , -3.0137282609791582 , -3.0137282609791582 , -1.4137104930789806 , 6460.639823029748 , -0.2612376333835964 , 0.2612376333835964 , 0.0 , 1.496271995418804 , 1.496271995418804 , 0.5640714560256292 , -3.0137282609791582 , -3.0137282609791582 , -1.4137104930789806 , 6460.639823029748 , -0.2612376333835964 , 0.2612376333835964 , 0.0 , 1.496271995418804 , 1.496271995418804 , 0.5640714560256292 , -3.0137282609791582 , -3.0137282609791582 , -1.4137104930789806 , -0.35 , 0.35 , 1.0 , 0.0 , -0.35 , 0.35 , 1.0 , 0.0 , -0.35 , 0.35 , 1.0 , 0.0 , -0.35 , 0.35 , 1.0 , 0.0 , 0.35 , -0.35 , -2.1000000000000014 , 0.0 , 10.0 , 10.0 , 4.0 , 0.0 , 0.0 , 0.0 , 0.0 , 0.0 , 0.0 , 0.0 , 0.0 , 0.0 , 0.0 , 0.0 , 0.0 , 6440.722969259188 , 0.3307695480319473 , -0.3307695480319473 , 0.0 , 10.337789334459433 , 10.337789334459433 , 10.165678445577019 , 5.17095360700662 , 5.17095360700662 , 8.522767271724891
1.7000000000000008 , 0.05 , 6459.0510946795575 , -0.2904738420911441 , 0.2904738420911441 , 0.0 , 1.3538144258670275 , 1.3538144258670275 , 0.5088121155529283 , -2.6675989558841366 , -2.6675989558841366 , -0.7545953897612891 , 6459.0510946795575 , -0.2904738420911441 , 0.2904738420911441 , 0.0 , 1.3538144258670275 , 1.3538144258670275 , 0.5088121155529283 , -2.6675989558841366 , -2.6675989558841366 , -0.7545953897612891 , 6459.0510946795575 , -0.2904738420911441 , 0.2904738420911441 , 0.0 , 1.3538144258670275 , 1.3538144258670275 , 0.5088121155529283 , -2.6675989558841366 , -2.6675989558841366 , -0.7545953897612891 , 6459.0510946795575 , -0.2904738420911441 , 0.2904738420911441 , 0.0 , 1.3538144258670275 , 1.3538144258670275 , 0.5088121155529283 , -2.6675989558841366 , -2.6675989558841366 , -0.7545953897612891 , -0.35 , 0.35 , 1.0 , 0.0 , -0.35 , 0.35 , 1.0 , 0.0 , -0.35 , 0.35 , 1.0 , 0.0 , -0.35 , 0.35 , 1.0 , 0.0 , 0.35 , -0.35 , -2.070000000000002 , 0.0 , 10.0 , 10.0 , 4.0 , 0.0 , 0.0 , 0.0 , 0.0 , 0.0 , 0.0 , 0.0 , 0.0 , 0.0 , 0.0 , 0.0 , 0.0 , 6440.722969259188 , 0.33710360072466306 , -0.33710360072466306 , 0.0 , 10.594679546964937 , 10.594679546964937 , 10.575237241295909 , 5.104960154731762 , 5.104960154731762 , 7.864442204914399
1.7500000000000009 , 0.05 , 6457.432535611414 , -0.31008034023356895 , 0.31008034023356895 , 0.0 , 1.2295211476597132 , 1.2295211476597132 , 0.4871538203440956 , -2.301349140253828 , -2.301349140253828 , -0.11448720792627401 , 6457.432535611414 , -0.31008034023356895 , 0.31008034023356895 , 0.0 , 1.2295211476597132 , 1.2295211476597132 , 0.4871538203440956 , -2.301349140253828 , -2.301349140253828 , -0.11448720792627401 , 6457.432535611414 , -0.31008034023356895 , 0.31008034023356895 , 0.0 , 1.2295211476597132 , 1.2295211476597132 , 0.4871538203440956 , -2.301349140253828 , -2.301349140253828 , -0.11448720792627401 , 6457.432535611414 , -0.31008034023356895 , 0.31008034023356895 , 0.0 , 1.2295211476597132 , 1.2295211476597132 , 0.4871538203440956 , -2.301349140253828 , -2.301349140253828 , -0.11448720792627401 , -0.35 , 0.35 , 2.0 , 0.0 , -0.35 , 0.35 , 2.0 , 0.0 , -0.35 , 0.35 , 2.0 , 0.0 , -0.35 , 0.35 , 2.0 , 0.0 , 0.35 , -0.35 , -2.7700000000000014 , 0.0 , 10.0 , 10.0 , 4.0 , 0.0 , 0.0 , 0.0 , 0.0 , 0.0 , 0.0 , 0.0 , 0.0 , 0.0 , 0.0 , 0.0 , 0.0 , 6440.722969259188 , 0.3413513673758053 , -0.3413513673758053 , 0.0 , 10.848311954232306 , 10.848311954232306 , 10.95252857400147 , 5.040629929070883 , 5.040629929070883 , 7.231513351505888
1.800000000000001 , 0.05 , 6455.795373672816 , -0.3232289250331318 , 0.3232289250331318 , 0.0 , 1.1238686529073156 , 1.1238686529073156 , 0.4971683875228035 , -1.923112636381238 , -1.923112636381238 , 0.5131936441950719 , 6455.795373672816 , -0.3232289250331318 , 0.3232289250331318 , 0.0 , 1.1238686529073156 , 1.1238686529073156 , 0.4971683875228035 , -1.923112636381238 , -1.923112636381238 , 0.5131936441950719 , 6455.795373672816 , -0.3232289250331318 , 0.3232289250331318 , 0.0 , 1.1238686529073156 , 1.1238686529073156 , 0.4971683875228035 , -1.923112636381238 , -1.923112636381238 , 0.5131936441950719 , 6455.795373672816 , -0.3232289250331318 , 0.3232289250331318 , 0.0 , 1.1238686529073156 , 1.1238686529073156 , 0.4971683875228035 , -1.923112636381238 , -1.923112636381238 , 0.5131936441950719 , -0.32000000000000006 , 0.32000000000000006 , 1.0 , 0.0 , -0.32000000000000006 , 0.32000000000000006 , 1.0 , 0.0 , -0.32000000000000006 , 0.32000000000000006 , 1.0 , 0.0 , -0.32000000000000006 , 0.32000000000000006 , 1.0 , 0.0 , 0.35 , -0.35 , -2.2700000000000014 , 0.0 , 10.0 , 10.0 , 4.0 , 0.0 , 0.0 , 0.0 , 0.0 , 0.0 , 0.0 , 0.0 , 0.0 , 0.0 , 0.0 , 0.0 , 0.0 , 6440.722969259188 , 0.34420002089952884 , -0.34420002089952884 , 0.0 , 11.09876815104736 , 11.09876815104736 , 11.298747990487776 , 4.977900835588683 , 4.977900835588683 , 6.6210709531780845
1.850000000000001 , 0.05 , 6454.151893082052 , -0.3220956584798913 , 0.3220956584798913 , 0.0 , 1.0372419628997314 , 1.0372419628997314 , 0.538377377558325 , -1.542898054006768 , -1.542898054006768 , 1.1349416128029668 , 6454.151893082052 , -0.3220956584798913 , 0.3220956584798913 , 0.0 , 1.0372419628997314 , 1.0372419628997314 , 0.538377377558325 , -1.542898054006768 , -1.542898054006768 , 1.1349416128029668 , 6454.151893082052 , -0.3220956584798913 , 0.3220956584798913 , 0.0 , 1.0372419628997314 , 1.0372419628997314 , 0.538377377558325 , -1.542898054006768 , -1.542898054006768 , 1.1349416128029668 , 6454.151893082052 , -0.3220956584798913 , 0.3220956584798913 , 0.0 , 1.0372419628997314 , 1.0372419628997314 , 0.538377377558325 , -1.542898054006768 , -1.542898054006768 , 1.1349416128029668 , -0.12 , 0.12 , 0.0 , 0.0 , -0.12 , 0.12 , 0.0 , 0.0 , -0.12 , 0.12 , 0.0 , 0.0 , -0.12 , 0.12 , 0.0 , 0.0 , 0.35 , -0.35 , -3.0000000000000018 , 0.0 , 10.0 , 10.0 , 4.0 , 0.0 , 0.0 , 0.0 , 0.0 , 0.0 , 0.0 , 0.0 , 0.0 , 0.0 , 0.0 , 0.0 , 0.0 , 6440.722969259188 , 0.346110395824677 , -0.346110395824677 , 0.0 , 11.346126704664242 , 11.346126704664242 , 11.61495353936371 , 4.916713832798012 , 4.916713832798012 , 6.030515265133943
1.900000000000001 , 0.05 , 6454.151893082052 , -0.2550652598507685 , 0.2550652598507685 , 0.0 , 0.9606151480767765 , 0.9606151480767765 , 0.5839109618803812 , -1.5370259116159477 , -1.5370259116159477 , 0.6422928253714997 , 6454.151893082052 , -0.2550652598507685 , 0.2550652598507685 , 0.0 , 0.9606151480767765 , 0.9606151480767765 , 0.5839109618803812 , -1.5370259116159477 , -1.5370259116159477 , 0.6422928253714997 , 6454.151893082052 , -0.2550652598507685 , 0.2550652598507685 , 0.0 , 0.9606151480767765 , 0.9606151480767765 , 0.5839109618803812 , -1.5370259116159477 , -1.5370259116159477 , 0.6422928253714997 , 6454.151893082052 , -0.2550652598507685 , 0.2550652598507685 , 0.0 , 0.9606151480767765 , 0.9606151480767765 , 0.5839109618803812 , -1.5370259116159477 , -1.5370259116159477 , 0.6422928253714997 , -0.12 , 0.12 , 0.0 , 0.0 , -0.12 , 0.12 , 0.0 , 0.0 , -0.12 , 0.12 , 0.0 , 0.0 , -0.12 , 0.12 , 0.0 , 0.0 , 0.35 , -0.35 , -3.030000000000001 , 0.0 , 10.0 , 10.0 , 4.0 , 0.0 , 0.0 , 0.0 , 0.0 , 0.0 , 0.0 , 0.0 , 0.0 , 0.0 , 0.0 , 0.0 , 0.0 , 6440.722969259188 , 0.3473915387661551 , -0.3473915387661551 , 0.0 , 11.590463302756406 , 11.590463302756406 , 11.902080017899431 , 4.857012746811561 , 4.857012746811561 , 5.4575079938972095
1.950000000000001 , 0.05 , 6454.151893082052 , -0.21057798132651068 , 0.21057798132651068 , 0.0 , 0.8839111433789455 , 0.8839111433789455 , 0.6037476480355849 , -1.5311424003561456 , -1.5311424003561456 , 0.1513511321919363 , 6454.151893082052 , -0.21057798132651068 , 0.21057798132651068 , 0.0 , 0.8839111433789455 , 0.8839111433789455 , 0.6037476480355849 , -1.5311424003561456 , -1.5311424003561456 , 0.1513511321919363 , 6454.151893082052 , -0.21057798132651068 , 0.21057798132651068 , 0.0 , 0.8839111433789455 , 0.8839111433789455 , 0.6037476480355849 , -1.5311424003561456 , -1.5311424003561456 , 0.1513511321919363 , 6454.151893082052 , -0.21057798132651068 , 0.21057798132651068 , 0.0 , 0.8839111433789455 , 0.8839111433789455 , 0.6037476480355849 , -1.5311424003561456 , -1.5311424003561456 , 0.1513511321919363 , -0.12 , 0.12 , -0.5 , 0.0 , -0.12 , 0.12 , -0.5 , 0.0 , -0.12 , 0.12 , -0.5 , 0.0 , -0.12 , 0.12 , -0.5 , 0.0 , 0.35 , -0.35 , -3.0600000000000005 , 0.0 , 10.0 , 10.0 , 4.0 , 0.0 , 0.0 , 0.0 , 0.0 , 0.0 , 0.0 , 0.0 , 0.0 , 0.0 , 0.0 , 0.0 , 0.0 , 6440.722969259188 , 0.3482507037472761 , -0.3482507037472761 , 0.0 , 11.83185089243891 , 11.83185089243891 , 12.160950996406916 , 4.798744099334773 , 4.798744099334773 , 4.89993164187188
2.000000000000001 , 0.05 , 6454.151893082052 , -0.18074375239236648 , 0.18074375239236648 , 0.0 , 0.8075001901582821 , 0.8075001901582821 , 0.5990529045833981 , -1.5253037597661336 , -1.5253037597661336 , -0.33908919951951055 , 6454.151893082052 , -0.18074375239236648 , 0.18074375239236648 , 0.0 , 0.8075001901582821 , 0.8075001901582821 , 0.5990529045833981 , -1.5253037597661336 , -1.5253037597661336 , -0.33908919951951055 , 6454.151893082052 , -0.18074375239236648 , 0.18074375239236648 , 0.0 , 0.8075001901582821 , 0.8075001901582821 , 0.5990529045833981 , -1.5253037597661336 , -1.5253037597661336 , -0.33908919951951055 , 6454.151893082052 , -0.18074375239236648 , 0.18074375239236648 , 0.0 , 0.8075001901582821 , 0.8075001901582821 , 0.5990529045833981 , -1.5253037597661336 , -1.5253037597661336 , -0.33908919951951055 , -0.35 , 0.35 , 0.0 , 0.0 , -0.35 , 0.35 , 0.0 , 0.0 , -0.35 , 0.35 , 0.0 , 0.0 , -0.35 , 0.35 , 0.0 , 0.0 , 0.35 , -0.35 , -2.59 , 0.0 , 10.0 , 10.0 , 4.0 , 0.0 , 0.0 , 0.0 , 0.0 , 0.0 , 0.0 , 0.0 , 0.0 , 0.0 , 0.0 , 0.0 , 0.0 , 6440.722969259188 , 0.34882688025411696 , -0.34882688025411696 , 0.0 , 12.070359811000971 , 12.070359811000971 , 12.392288974488517 , 4.741856947892927 , 4.741856947892927 , 4.355855186762455
2.0500000000000007 , 0.05 , 6454.151893082052 , -0.24570366530043203 , 0.24570366530043203 , 0.0 , 0.7161907351882444 , 0.7161907351882444 , 0.5610763881493709 , -1.51835590089412 , -1.51835590089412 , -0.9264035010728889 , 6454.151893082052 , -0.24570366530043203 , 0.24570366530043203 , 0.0 , 0.7161907351882444 , 0.7161907351882444 , 0.5610763881493709 , -1.51835590089412 , -1.51835590089412 , -0.9264035010728889 , 6454.151893082052 , -0.24570366530043203 , 0.24570366530043203 , 0.0 , 0.7161907351882444 , 0.7161907351882444 , 0.5610763881493709 , -1.51835590089412 , -1.51835590089412 , -0.9264035010728889 , 6454.151893082052 , -0.24570366530043203 , 0.24570366530043203 , 0.0 , 0.7161907351882444 , 0.7161907351882444 , 0.5610763881493709 , -1.51835590089412 , -1.51835590089412 , -0.9264035010728889 , -0.35 , 0.35 , 1.0 , 0.0 , -0.35 , 0.35 , 1.0 , 0.0 , -0.35 , 0.35 , 1.0 , 0.0 , -0.35 , 0.35 , 1.0 , 0.0 , 0.35 , -0.35 , -3.41 , 0.0 , 10.0 , 10.0 , 4.0 , 8.0 , 8.0 , 3.7 , 0.0 , 0.0 , 0.0 , 0.0 , 0.0 , 0.0 , 0.0 , 0.0 , 0.0 , 6440.722969259188 , 0.3492736982012337 , -0.3492736982012337 , 0.0 , 12.352866032724496 , 12.352866032724496 , 12.634431954148763 , 4.6753477350256105 , 4.6753477350256105 , 3.718295388242794
2.1000000000000005 , 0.05 , 6452.580011491398 , -0.2800563929815944 , 0.2800563929815944 , 0.0 , 0.6477449498474915 , 0.6477449498474915 , 0.5303140220882817 , -1.2015807257159672 , -1.2015807257159672 , -0.2617775660304129 , 6452.580011491398 , -0.2800563929815944 , 0.2800563929815944 , 0.0 , 0.6477449498474915 , 0.6477449498474915 , 0.5303140220882817 , -1.2015807257159672 , -1.2015807257159672 , -0.2617775660304129 , 6452.580011491398 , -0.2800563929815944 , 0.2800563929815944 , 0.0 , 0.6477449498474915 , 0.6477449498474915 , 0.5303140220882817 , -1.2015807257159672 , -1.2015807257159672 , -0.2617775660304129 , 6452.580011491398 , -0.2800563929815944 , 0.2800563929815944 , 0.0 , 0.6477449498474915 , 0.6477449498474915 , 0.5303140220882817 , -1.2015807257159672 , -1.2015807257159672 , -0.2617775660304129 , -0.35 , 0.35 , 1.0 , 0.0 , -0.35 , 0.35 , 1.0 , 0.0 , -0.35 , 0.35 , 1.0 , 0.0 , -0.35 , 0.35 , 1.0 , 0.0 , 0.35 , -0.35 , -3.4700000000000006 , 0.0 , 10.0 , 10.0 , 4.0 , 8.0 , 8.0 , 3.7 , 0.0 , 0.0 , 0.0 , 0.0 , 0.0 , 0.0 , 0.0 , 0.0 , 0.0 , 6440.722969259188 , 0.34951292470885 , -0.34951292470885 , 0.0 , 12.58527737803971 , 12.58527737803971 , 12.807295299255124 , 4.621332118075326 , 4.621332118075326 , 3.1978594887875995
2.1500000000000004 , 0.05 , 6450.971797384605 , -0.3030941506541225 , 0.3030941506541225 , 0.0 , 0.5961789817483271 , 0.5961789817483271 , 0.5334216770599431 , -0.8570954668835917 , -0.8570954668835917 , 0.38315180851028025 , 6450.971797384605 , -0.3030941506541225 , 0.3030941506541225 , 0.0 , 0.5961789817483271 , 0.5961789817483271 , 0.5334216770599431 , -0.8570954668835917 , -0.8570954668835917 , 0.3831518085102803 , 6450.971797384605 , -0.3030941506541225 , 0.3030941506541225 , 0.0 , 0.5961789817483271 , 0.5961789817483271 , 0.5334216770599431 , -0.8570954668835917 , -0.8570954668835917 , 0.3831518085102803 , 6450.971797384605 , -0.3030941506541225 , 0.3030941506541225 , 0.0 , 0.5961789817483271 , 0.5961789817483271 , 0.5334216770599431 , -0.8570954668835917 , -0.8570954668835917 , 0.3831518085102803 , -0.35 , 0.35 , 4.84 , 0.0 , -0.35 , 0.35 , 1.0 , 0.0 , -0.35 , 0.35 , 1.0 , 0.0 , -0.35 , 0.35 , 1.0 , 0.0 , 0.35 , -0.35 , -3.030000000000001 , 0.0 , 10.0 , 10.0 , 4.0 , 8.0 , 8.0 , 3.7 , 0.0 , 0.0 , 0.0 , 0.0 , 0.0 , 0.0 , 0.0 , 0.0 , 0.0 , 6440.722969259188 , 0.3496733557046783 , -0.3496733557046783 , 0.0 , 12.815018981427993 , 12.815018981427993 , 12.954349903275768 , 4.5685503565821275 , 4.5685503565821275 , 2.6856819739092486
2.2 , 0.05 , 6449.341133216464 , -0.3185438198479071 , 0.3185438198479071 , 0.0 , 0.5623170923941138 , 0.5623170923941138 , 0.5683958663019395 , -0.49480713597230175 , -0.49480713597230175 , 1.0133891961896495 , 6449.341133216464 , -0.3185438198479071 , 0.3185438198479071 , 0.0 , 0.5623170923941138 , 0.5623170923941138 , 0.5683958663019395 , -0.49480713597230175 , -0.49480713597230175 , 1.0133891961896495 , 6449.341133216464 , -0.3185438198479071 , 0.3185438198479071 , 0.0 , 0.5623170923941138 , 0.5623170923941138 , 0.5683958663019395 , -0.49480713597230175 , -0.49480713597230175 , 1.0133891961896495 , 6449.341133216464 , -0.3185438198479071 , 0.3185438198479071 , 0.0 , 0.5623170923941138 , 0.5623170923941138 , 0.5683958663019395 , -0.49480713597230175 , -0.49480713597230175 , 1.0133891961896495 , -0.35 , 0.35 , 5.08 , 0.0 , -0.35 , 0.35 , 1.0 , 0.0 , -0.35 , 0.35 , 1.0 , 0.0 , -0.35 , 0.35 , 1.0 , 0.0 , 0.35 , -0.35 , -3.0900000000000016 , 0.0 , 10.0 , 10.0 , 4.0 , 8.0 , 8.0 , 3.7 , 0.0 , 0.0 , 0.0 , 0.0 , 0.0 , 0.0 , 0.0 , 0.0 , 0.0 , 6440.722969259188 , 0.3497809445529165 , -0.3497809445529165 , 0.0 , 13.042151482037191 , 13.042151482037191 , 13.075972728339593 , 4.516960651465566 , 4.516960651465566 , 2.1803387944474224
2.25 , 0.05 , 6447.696295104348 , -0.3289047361137297 , 0.3289047361137297 , 0.0 , 0.5468840610935387 , 0.5468840610935387 , 0.6345596140738657 , -0.12078278993329719 , -0.12078278993329719 , 1.631009351071828 , 6447.696295104348 , -0.3289047361137297 , 0.3289047361137297 , 0.0 , 0.5468840610935387 , 0.5468840610935387 , 0.6345596140738657 , -0.12078278993329719 , -0.12078278993329719 , 1.631009351071828 , 6447.696295104348 , -0.3289047361137297 , 0.3289047361137297 , 0.0 , 0.5468840610935387 , 0.5468840610935387 , 0.6345596140738657 , -0.12078278993329719 , -0.12078278993329719 , 1.631009351071828 , 6447.696295104348 , -0.3289047361137297 , 0.3289047361137297 , 0.0 , 0.5468840610935387 , 0.5468840610935387 , 0.6345596140738657 , -0.12078278993329719 , -0.12078278993329719 , 1.631009351071828 , -0.35 , 0.35 , 4.06 , 0.0 , -0.2 , 0.2 , -0.5 , 0.0 , -0.2 , 0.2 , -0.5 , 0.0 , -0.2 , 0.2 , -0.5 , 0.0 , 0.35 , -0.35 , -3.9400000000000004 , 0.0 , 10.0 , 10.0 , 4.0 , 8.0 , 8.0 , 3.7 , 0.0 , 0.0 , 0.0 , 0.0 , 0.0 , 0.0 , 0.0 , 0.0 , 0.0 , 6440.722969259188 , 0.34985309619796146 , -0.34985309619796146 , 0.0 , 13.266733476214684 , 13.266733476214684 , 13.172471378668563 , 4.466523070581827 , 4.466523070581827 , 1.6804768386973352
2.3 , 0.05 , 6446.042353797991 , -0.3358530134212189 , 0.3358530134212189 , 0.0 , 0.5503666305912336 , 0.5503666305912336 , 0.731312620695938 , 0.26126680524623785 , 0.26126680524623785 , 2.237077905408991 , 6447.696295104348 , -0.28609790942839836 , 0.28609790942839836 , 0.0 , 0.5412241493760774 , 0.5412241493760774 , 0.7048130231596524 , -0.12075018280856065 , -0.12075018280856065 , 1.1354977893962386 , 6447.696295104348 , -0.28609790942839836 , 0.28609790942839836 , 0.0 , 0.5412241493760774 , 0.5412241493760774 , 0.7048130231596524 , -0.12075018280856065 , -0.12075018280856065 , 1.1354977893962386 , 6447.696295104348 , -0.28609790942839836 , 0.28609790942839836 , 0.0 , 0.5412241493760774 , 0.5412241493760774 , 0.7048130231596524 , -0.12075018280856065 , -0.12075018280856065 , 1.1354977893962386 , -0.35 , 0.35 , 4.3 , 0.0 , -0.2 , 0.2 , -0.5 , 0.0 , -0.2 , 0.2 , -0.5 , 0.0 , -0.2 , 0.2 , -0.5 , 0.0 , 0.35 , -0.35 , -4.03 , 0.0 , 10.0 , 10.0 , 4.0 , 8.0 , 8.0 , 3.7 , 0.0 , 0.0 , 0.0 , 0.0 , 0.0 , 0.0 , 0.0 , 0.0 , 0.0 , 6440.722969259188 , 0.3499014828102167 , -0.3499014828102167 , 0.0 , 13.488821608245567 , 13.488821608245567 , 13.244087264565096 , 4.417199445642811 , 4.417199445642811 , 1.1847988701912349
