time,step-size,{uavCont}.controller.pitchOut,{uavCont}.controller.rollOut,{uavCont}.controller.throttleOut,{uavCont}.controller.yawOut,{uavCont}.controller2.pitchOut,{uavCont}.controller2.rollOut,{uavCont}.controller2.throttleOut,{uavCont}.controller2.yawOut,{uavCont}.controller3.pitchOut,{uavCont}.controller3.rollOut,{uavCont}.controller3.throttleOut,{uavCont}.controller3.yawOut,{uavCont}.controller4.pitchOut,{uavCont}.controller4.rollOut,{uavCont}.controller4.throttleOut,{uavCont}.controller4.yawOut,{uavCont}.controller5.pitchOut,{uavCont}.controller5.rollOut,{uavCont}.controller5.throttleOut,{uavCont}.controller5.yawOut,{uavGlobalCont}.global.uav1TargetX,{uavGlobalCont}.global.uav1TargetY,{uavGlobalCont}.global.uav1TargetZ,{uavGlobalCont}.global.uav2TargetX,{uavGlobalCont}.global.uav2TargetY,{uavGlobalCont}.global.uav2TargetZ,{uavGlobalCont}.global.uav3TargetX,{uavGlobalCont}.global.uav3TargetY,{uavGlobalCont}.global.uav3TargetZ,{uavGlobalCont}.global.uav4TargetX,{uavGlobalCont}.global.uav4TargetY,{uavGlobalCont}.global.uav4TargetZ,{uavGlobalCont}.global.uav5TargetX,{uavGlobalCont}.global.uav5TargetY,{uavGlobalCont}.global.uav5TargetZ,{uav}.uav.batteryCharge,{uav}.uav.currentYaw,{uav}.uav.posX,{uav}.uav.posY,{uav}.uav.posZ,{uav}.uav.velX,{uav}.uav.velY,{uav}.uav.velZ,{uav}.uav2.currentYaw,{uav}.uav2.posX,{uav}.uav2.posY,{uav}.uav2.posZ,{uav}.uav2.velX,{uav}.uav2.velY,{uav}.uav2.velZ,{uav}.uav3.batteryCharge,{uav}.uav3.currentYaw,{uav}.uav3.posX,{uav}.uav3.posY,{uav}.uav3.posZ,{uav}.uav3.velX,{uav}.uav3.velY,{uav}.uav3.velZ,{uav}.uav4.batteryCharge,{uav}.uav4.currentYaw,{uav}.uav4.posX,{uav}.uav4.posY,{uav}.uav4.posZ,{uav}.uav4.velX,{uav}.uav4.velY,{uav}.uav4.velZ,{uav}.uav5.batteryCharge,{uav}.uav5.currentYaw,{uav}.uav5.posX,{uav}.uav5.posY,{uav}.uav5.posZ,{uav}.uav5.velX,{uav}.uav5.velY,{uav}.uav5.velZ
0.0,0.0,0.0,0.0,0.0,0.0,0.0,0.0,0.0,0.0,0.0,0.0,0.0,0.0,0.0,0.0,0.0,0.0,0.0,0.0,0.0,0.0,0.0,0.0,0.0,0.0,0.0,0.0,0.0,0.0,0.0,0.0,0.0,0.0,0.0,0.0,0.0,6480.0,0.0,5.0,5.0,0.5,0.0,0.0,0.0,0.0,5.0,5.0,0.5,0.0,0.0,0.0,6480.0,0.0,5.0,5.0,0.5,0.0,0.0,0.0,6480.0,0.0,5.0,5.0,0.5,0.0,0.0,0.0,6480.0,0.0,5.0,5.0,0.5,0.0,0.0,0.0
0.1,0.1,0.35,-0.35,-0.63,0.0,0.35,-0.35,-0.63,0.0,0.35,-0.35,-0.63,0.0,0.35,-0.35,-0.63,0.0,0.35,-0.35,-0.63,0.0,10.0,10.0,4.0,0.0,0.0,0.0,0.0,0.0,0.0,0.0,0.0,0.0,0.0,0.0,0.0,6480.0,0.0,5.0,5.0,0.4407069742734344,0.0,0.0,-1.0769745290617336,0.0,5.0,5.0,0.4407069742734344,0.0,0.0,-1.0769745290617336,6480.0,0.0,5.0,5.0,0.4407069742734344,0.0,0.0,-1.0769745290617336,6480.0,0.0,5.0,5.0,0.4407069742734344,0.0,0.0,-1.0769745290617336,6480.0,0.0,5.0,5.0,0.4407069742734344,0.0,0.0,-1.0769745290617336
0.2,0.1,-0.35,0.35,5.589904950705409,0.0,0.35,-0.35,0.4899049507054093,0.0,0.35,-0.35,0.4899049507054093,0.0,0.35,-0.35,0.4899049507054093,0.0,0.35,-0.35,0.4899049507054093,0.0,10.0,10.0,4.0,0.0,0.0,0.0,0.0,0.0,0.0,0.0,0.0,0.0,0.0,0.0,0.0,6480.0,0.0,5.0,5.0,0.30443441476116406,0.0,0.0,-1.9492758444400105,0.0,5.0,5.0,0.30443441476116406,0.0,0.0,-1.9492758444400105,6480.0,0.0,5.0,5.0,0.30443441476116406,0.0,0.0,-1.9492758444400105,6480.0,0.0,5.0,5.0,0.30443441476116406,0.0,0.0,-1.9492758444400105,6480.0,0.0,5.0,5.0,0.30443441476116406,0.0,0.0,-1.9492758444400105
0.30000000000000004,0.1,-0.35,0.35,7.494246063384538,0.0,0.35,-0.35,1.4942460633845376,0.0,0.35,-0.35,1.4942460633845376,0.0,0.35,-0.35,1.4942460633845376,0.0,0.35,-0.35,1.4942460633845376,0.0,10.0,10.0,4.0,0.0,0.0,0.0,0.0,0.0,0.0,0.0,0.0,0.0,0.0,0.0,0.0,6477.504285592127,0.0,4.992001980704409,4.992001980704409,0.18257018184981433,-0.0384829070236182,-0.038482907023618174,-0.4602545572935394,0.0,4.987321212213146,4.987321212213146,0.1186957373924135,-0.27276670478990683,-0.2727667047899069,-1.7629327849990366,6478.5035994849995,0.0,4.987321212213146,4.987321212213146,0.1186957373924135,-0.27276670478990683,-0.2727667047899069,-1.7629327849990366,6478.5035994849995,0.0,4.987321212213146,4.987321212213146,0.1186957373924135,-0.27276670478990683,-0.2727667047899069,-1.7629327849990366,6478.5035994849995,0.0,4.987321212213146,4.987321212213146,0.1186957373924135,-0.27276670478990683,-0.2727667047899069,-1.7629327849990366
0.4,0.1,-0.35,0.35,6.736851717833357,0.0,0.35,-0.35,1.5180955122214572,0.0,0.35,-0.35,1.5180955122214572,0.0,0.35,-0.35,1.5180955122214572,0.0,0.35,-0.35,1.5180955122214572,0.0,10.0,10.0,4.0,0.0,0.0,0.0,0.0,0.0,0.0,0.0,0.0,0.0,0.0,0.0,0.0,6474.595998277387,0.0,5.008181870646959,5.008181870646959,0.20808018538178133,0.4127446896920631,0.41274468969206307,0.9500830755074968,0.0,4.926246838512194,4.926246838512194,0.007136479319174316,-0.9658625593039375,-0.9658625593039376,-0.4688001505534136,6480.2754167625635,0.0,4.926246838512194,4.926246838512194,0.007136479319174316,-0.9658625593039375,-0.9658625593039376,-0.4688001505534136,6480.2754167625635,0.0,4.926246838512194,4.926246838512194,0.007136479319174316,-0.9658625593039375,-0.9658625593039376,-0.4688001505534136,6480.2754167625635,0.0,4.926246838512194,4.926246838512194,0.007136479319174316,-0.9658625593039375,-0.9658625593039376,-0.4688001505534136
0.5,0.1,-0.35,0.35,6.652981701969308,0.0,0.35,-0.35,0.35384492658279837,0.0,0.35,-0.35,0.35384492658279837,0.0,0.35,-0.35,0.35384492658279837,0.0,0.35,-0.35,0.35384492658279837,0.0,10.0,10.0,4.0,0.0,0.0,0.0,0.0,0.0,0.0,0.0,0.0,0.0,0.0,0.0,0.0,6471.420246585032,0.0,5.080875272909942,5.080875272909942,0.368925325578292,1.0611833188491295,1.0611833188491298,2.250381083910848,0.0,4.792668298656555,4.792668298656555,0.0252274943032544,-1.7102995106143974,-1.7102995106143977,0.8102626213851063,6481.980942965164,0.0,4.792668298656555,4.792668298656555,0.0252274943032544,-1.7102995106143974,-1.7102995106143977,0.8102626213851063,6481.980942965164,0.0,4.792668298656555,4.792668298656555,0.0252274943032544,-1.7102995106143974,-1.7102995106143977,0.8102626213851063,6481.980942965164,0.0,4.792668298656555,4.792668298656555,0.0252274943032544,-1.7102995106143974,-1.7102995106143977,0.8102626213851063
0.6,0.1,-0.35,0.35,6.392508364203017,0.0,0.35,-0.35,-0.5427666718527374,0.0,0.35,-0.35,-0.5427666718527374,0.0,0.35,-0.35,-0.5427666718527374,0.0,0.35,-0.35,-0.5427666718527374,0.0,10.0,10.0,4.0,0.0,0.0,0.0,0.0,0.0,0.0,0.0,0.0,0.0,0.0,0.0,0.0,6468.146430188982,0.0,5.222843873039362,5.222843873039362,0.6554011075169248,1.7852989196553852,1.7852989196553855,3.4666172235667934,0.0,4.608466966080678,4.608466966080678,0.09685531671739409,-1.9689578670594505,-1.9689578670594508,0.6074907444645347,6480.805546457546,0.0,4.608466966080678,4.608466966080678,0.09685531671739409,-1.9689578670594505,-1.9689578670594508,0.6074907444645347,6480.805546457546,0.0,4.608466966080678,4.608466966080678,0.09685531671739409,-1.9689578670594505,-1.9689578670594508,0.6074907444645347,6480.805546457546,0.0,4.608466966080678,4.608466966080678,0.09685531671739409,-1.9689578670594505,-1.9689578670594508,0.6074907444645347
0.7,0.1,-0.35,0.35,6.29022752983032,0.0,0.35,-0.35,-0.5339022641215605,0.0,0.35,-0.35,-0.5339022641215605,0.0,0.35,-0.35,-0.5339022641215605,0.0,0.35,-0.35,-0.5339022641215605,0.0,10.0,10.0,4.0,0.0,0.0,0.0,0.0,0.0,0.0,0.0,0.0,0.0,0.0,0.0,0.0,6464.83332741171,0.0,5.438647504725015,5.438647504725015,1.0600019810635035,2.531889158816249,2.53188915881625,4.6143491763202436,0.0,4.412397496452698,4.412397496452698,0.1089101471496821,-1.9497358885551737,-1.9497358885551739,-0.37382255482774673,6480.805546457546,0.0,4.412397496452698,4.412397496452698,0.1089101471496821,-1.9497358885551737,-1.9497358885551739,-0.37382255482774673,6480.805546457546,0.0,4.412397496452698,4.412397496452698,0.1089101471496821,-1.9497358885551737,-1.9497358885551739,-0.37382255482774673,6480.805546457546,0.0,4.412397496452698,4.412397496452698,0.1089101471496821,-1.9497358885551737,-1.9497358885551739,-0.37382255482774673
0.7999999999999999,0.1,-0.35,0.35,5.779378412540288,0.0,0.35,-0.35,0.12302690250369569,0.0,0.35,-0.35,0.12302690250369569,0.0,0.35,-0.35,0.12302690250369569,0.0,0.35,-0.35,0.12302690250369569,0.0,10.0,10.0,4.0,0.0,0.0,0.0,0.0,0.0,0.0,0.0,0.0,0.0,0.0,0.0,0.0,6461.503555508252,0.0,5.729100331107011,5.729100331107011,1.5761486970566159,3.275190077651069,3.27519007765107,5.69758634475806,0.0,4.218368203683698,4.218368203683698,0.022612176823357824,-1.9309120591673006,-1.9309120591673008,-1.3507050947176982,6480.805546457546,0.0,4.218368203683698,4.218368203683698,0.022612176823357824,-1.9309120591673006,-1.9309120591673008,-1.3507050947176982,6480.805546457546,0.0,4.218368203683698,4.218368203683698,0.022612176823357824,-1.9309120591673006,-1.9309120591673008,-1.3507050947176982,6480.805546457546,0.0,4.218368203683698,4.218368203683698,0.022612176823357824,-1.9309120591673006,-1.9309120591673008,-1.3507050947176982
0.8999999999999999,0.1,-0.35,0.35,5.3920147878743405,0.0,0.35,-0.35,1.1988429717613442,0.0,0.35,-0.35,1.1988429717613442,0.0,0.35,-0.35,1.1988429717613442,0.0,0.35,-0.35,1.1988429717613442,0.0,10.0,10.0,4.0,0.0,0.0,0.0,0.0,0.0,0.0,0.0,0.0,0.0,0.0,0.0,0.0,6458.166491138227,0.0,6.093111208551761,6.093111208551761,2.1973433324971308,4.0012739515433715,4.001273951543372,6.714840569092836,0.0,4.0213782906182605,4.0213782906182605,-0.025567664263720508,-2.0096255859798107,-2.0096255859798107,0.889628478068804,6480.394507359571,0.0,4.0213782906182605,4.0213782906182605,-0.025567664263720508,-2.0096255859798107,-2.0096255859798107,0.889628478068804,6480.394507359571,0.0,4.0213782906182605,4.0213782906182605,-0.025567664263720508,-2.0096255859798107,-2.0096255859798107,0.889628478068804,6480.394507359571,0.0,4.0213782906182605,4.0213782906182605,-0.025567664263720508,-2.0096255859798107,-2.0096255859798107,0.889628478068804
0.9999999999999999,0.1,-0.29367407129683243,0.29367407129683265,4.6247493522917225,0.0,0.35,-0.35,-0.538771888063051,0.0,0.35,-0.35,-0.538771888063051,0.0,0.35,-0.35,-0.538771888063051,0.0,0.35,-0.35,-0.538771888063051,0.0,10.0,10.0,4.0,0.0,0.0,0.0,0.0,0.0,0.0,0.0,0.0,0.0,0.0,0.0,0.0,6454.826188576458,0.0,6.5285084206607795,6.5285084206607795,2.916840130591854,4.7017999993189905,4.701799999318991,7.663124281746072,0.0,3.782130196470002,3.782130196470002,0.13240880577318748,-2.7792266304238877,-2.7792266304238877,2.1876966157229254,6477.052421525639,0.0,3.782130196470002,3.782130196470002,0.13240880577318748,-2.7792266304238877,-2.7792266304238877,2.1876966157229254,6477.052421525639,0.0,3.782130196470002,3.782130196470002,0.13240880577318748,-2.7792266304238877,-2.7792266304238877,2.1876966157229254,6477.052421525639,0.0,3.782130196470002,3.782130196470002,0.13240880577318748,-2.7792266304238877,-2.7792266304238877,2.1876966157229254
1.0999999999999999,0.1,-0.03165764235118351,0.031657642351183735,3.946280630441011,0.0,0.35,-0.35,-1.384555219352881,0.0,0.35,-0.35,-1.384555219352881,0.0,0.35,-0.35,-1.384555219352881,0.0,0.35,-0.35,-1.384555219352881,0.0,10.0,10.0,4.0,0.0,0.0,0.0,0.0,0.0,0.0,0.0,0.0,0.0,0.0,0.0,0.0,6451.5201464491,0.0,7.031300118569318,7.031300118569318,3.728531132661849,5.338230067431244,5.338230067431245,8.566267216615492,0.0,3.5057316197909136,3.5057316197909136,0.30232586683691537,-2.741026534909626,-2.741026534909626,1.1917972471513543,6477.052421525639,0.0,3.5057316197909136,3.5057316197909136,0.30232586683691537,-2.741026534909626,-2.741026534909626,1.1917972471513543,6477.052421525639,0.0,3.5057316197909136,3.5057316197909136,0.30232586683691537,-2.741026534909626,-2.741026534909626,1.1917972471513543,6477.052421525639,0.0,3.5057316197909136,3.5057316197909136,0.30232586683691537,-2.741026534909626,-2.741026534909626,1.1917972471513543
1.2,0.1,0.23641004668565802,-0.2364100466856578,2.9213188226246958,0.0,0.35,-0.35,-1.1035480485218718,0.0,0.35,-0.35,-1.1035480485218718,0.0,0.35,-0.35,-1.1035480485218718,0.0,0.35,-0.35,-1.1035480485218718,0.0,10.0,10.0,4.0,0.0,0.0,0.0,0.0,0.0,0.0,0.0,0.0,0.0,0.0,0.0,0.0,6448.4822958206805,0.0,7.587879368426562,7.587879368426563,4.632063627282642,5.7293861972772016,5.729386197277202,9.520237164080836,0.0,3.2334904517787724,3.2334904517787724,0.3722548339070751,-2.703968341655665,-2.703968341655665,0.20795308357307818,6477.052421525639,0.0,3.2334904517787724,3.2334904517787724,0.3722548339070751,-2.703968341655665,-2.703968341655665,0.20795308357307818,6477.052421525639,0.0,3.2334904517787724,3.2334904517787724,0.3722548339070751,-2.703968341655665,-2.703968341655665,0.20795308357307818,6477.052421525639,0.0,3.2334904517787724,3.2334904517787724,0.3722548339070751,-2.703968341655665,-2.703968341655665,0.20795308357307818
1.3,0.1,0.35,-0.35,1.870315103730257,0.0,0.35,-0.35,-0.7269457932564576,0.0,0.35,-0.35,-0.7269457932564576,0.0,0.35,-0.35,-0.7269457932564576,0.0,0.35,-0.35,-0.7269457932564576,0.0,10.0,10.0,4.0,0.0,0.0,0.0,0.0,0.0,0.0,0.0,0.0,0.0,0.0,0.0,0.0,6446.050172109867,0.0,8.161683164504721,8.161683164504723,5.633503693388572,5.655277319216511,5.655277319216512,10.499945345936126,0.0,2.9649053285788534,2.9649053285788534,0.3440135938677215,-2.667898820802043,-2.667898820802043,-0.7722805977966047,6477.052421525639,0.0,2.9649053285788534,2.9649053285788534,0.3440135938677215,-2.667898820802043,-2.667898820802043,-0.7722805977966047,6477.052421525639,0.0,2.9649053285788534,2.9649053285788534,0.3440135938677215,-2.667898820802043,-2.667898820802043,-0.7722805977966047,6477.052421525639,0.0,2.9649053285788534,2.9649053285788534,0.3440135938677215,-2.667898820802043,-2.667898820802043,-0.7722805977966047
1.4000000000000001,0.1,0.35,-0.35,0.4707659138553604,0.0,0.2965937278416704,-0.2965937278416704,0.1617127815406667,0.0,0.2965937278416704,-0.2965937278416704,0.1617127815406667,0.0,0.2965937278416704,-0.2965937278416704,0.1617127815406667,0.0,0.2965937278416704,-0.2965937278416704,0.1617127815406667,0.0,10.0,10.0,4.0,0.0,0.0,0.0,0.0,0.0,0.0,0.0,0.0,0.0,0.0,0.0,0.0,6443.272211693742,0.0,8.7047108125165,8.704710812516502,6.727067687542735,5.145284696054447,5.145284696054448,11.336490955513227,0.0,2.699879352991104,2.699879352991104,0.2180476675268131,-2.632778928167716,-2.632778928167716,-1.744956485692745,6477.052421525639,0.0,2.699879352991104,2.699879352991104,0.2180476675268131,-2.632778928167716,-2.632778928167716,-1.744956485692745,6477.052421525639,0.0,2.699879352991104,2.699879352991104,0.2180476675268131,-2.632778928167716,-2.632778928167716,-1.744956485692745,6477.052421525639,0.0,2.699879352991104,2.699879352991104,0.2180476675268131,-2.632778928167716,-2.632778928167716,-1.744956485692745
1.5000000000000002,0.1,0.35,-0.35,-0.932412855972407,0.0,0.22941043320396604,-0.22941043320396604,1.2621445131782567,0.0,0.22941043320396604,-0.22941043320396604,1.2621445131782567,0.0,0.22941043320396604,-0.22941043320396604,1.2621445131782567,0.0,0.22941043320396604,-0.22941043320396604,1.2621445131782567,0.0,10.0,10.0,4.0,0.0,0.0,0.0,0.0,0.0,0.0,0.0,0.0,0.0,0.0,0.0,0.0,6441.798182371083,0.0,9.198973945413082,9.198973945413083,7.835789299606649,4.7338864040186115,4.733886404018612,10.828608454264472,0.0,2.4321537216037115,2.4321537216037115,0.013126698181339914,-2.721001473028885,-2.721001473028885,-2.346584448034152,6476.517278351627,0.0,2.4321537216037115,2.4321537216037115,0.013126698181339914,-2.721001473028885,-2.721001473028885,-2.346584448034152,6476.517278351627,0.0,2.4321537216037115,2.4321537216037115,0.013126698181339914,-2.721001473028885,-2.721001473028885,-2.346584448034152,6476.517278351627,0.0,2.4321537216037115,2.4321537216037115,0.013126698181339914,-2.721001473028885,-2.721001473028885,-2.346584448034152
1.6000000000000003,0.1,0.35,-0.35,-1.8458232494392082,0.0,0.13680274744326226,-0.13680274744326226,2.102742407762987,0.0,0.13680274744326226,-0.13680274744326226,2.102742407762987,0.0,0.13680274744326226,-0.13680274744326226,2.102742407762987,0.0,0.13680274744326226,-0.13680274744326226,2.102742407762987,0.0,10.0,10.0,4.0,0.0,0.0,0.0,0.0,0.0,0.0,0.0,0.0,0.0,0.0,0.0,0.0,6441.798182371083,0.0,9.66669267846051,9.666692678460512,8.843406512926341,4.624501736502951,4.6245017365029515,9.339010345735915,0.0,2.1274298502215983,2.1274298502215983,0.014037580531690116,-3.3584557119875833,-3.3584557119875833,1.763462738439867,6473.30207401007,0.0,2.1274298502215983,2.1274298502215983,0.014037580531690116,-3.3584557119875833,-3.3584557119875833,1.763462738439867,6473.30207401007,0.0,2.1274298502215983,2.1274298502215983,0.014037580531690116,-3.3584557119875833,-3.3584557119875833,1.763462738439867,6473.30207401007,0.0,2.1274298502215983,2.1274298502215983,0.014037580531690116,-3.3584557119875833,-3.3584557119875833,1.763462738439867
1.7000000000000004,0.1,0.35,-0.35,-2.1758429209223413,0.0,-0.07601078433546915,0.07601078433546915,-1.1279025240888605,0.0,-0.07601078433546915,0.07601078433546915,-1.1279025240888605,0.0,-0.07601078433546915,0.07601078433546915,-1.1279025240888605,0.0,-0.07601078433546915,0.07601078433546915,-1.1279025240888605,0.0,10.0,10.0,4.0,0.0,0.0,0.0,0.0,0.0,0.0,0.0,0.0,0.0,0.0,0.0,0.0,6441.798182371083,0.0,10.12387658180945,10.123876581809451,9.708512048806453,4.519988670404865,4.5199886704048655,7.983048616136041,0.0,1.7659362352748649,1.7659362352748649,0.25698536068294886,-3.8403848056131813,-3.8403848056131813,3.1038631355251662,6470.259416492949,0.0,1.7659362352748649,1.7659362352748649,0.25698536068294886,-3.8403848056131813,-3.8403848056131813,3.1038631355251662,6470.259416492949,0.0,1.7659362352748649,1.7659362352748649,0.25698536068294886,-3.8403848056131813,-3.8403848056131813,3.1038631355251662,6470.259416492949,0.0,1.7659362352748649,1.7659362352748649,0.25698536068294886,-3.8403848056131813,-3.8403848056131813,3.1038631355251662
1.8000000000000005,0.1,0.35,-0.35,-2.4925462560305234,0.0,-0.27361481524567416,0.27361481524567416,-2.0977707470494598,0.0,-0.27361481524567416,0.27361481524567416,-2.0977707470494598,0.0,-0.27361481524567416,0.27361481524567416,-2.0977707470494598,0.0,-0.27361481524567416,0.27361481524567416,-2.0977707470494598,0.0,10.0,10.0,4.0,0.0,0.0,0.0,0.0,0.0,0.0,0.0,0.0,0.0,0.0,0.0,0.0,6441.798182371083,0.0,10.570842818601678,10.57084281860168,10.443449102154839,4.420095146093368,4.420095146093369,6.731336454822685,0.0,1.3853092506545093,1.3853092506545093,0.5175538341763141,-3.76794315902181,-3.76794315902181,2.0884290449230534,6470.259416492949,0.0,1.3853092506545093,1.3853092506545093,0.5175538341763141,-3.76794315902181,-3.76794315902181,2.0884290449230534,6470.259416492949,0.0,1.3853092506545093,1.3853092506545093,0.5175538341763141,-3.76794315902181,-3.76794315902181,2.0884290449230534,6470.259416492949,0.0,1.3853092506545093,1.3853092506545093,0.5175538341763141,-3.76794315902181,-3.76794315902181,2.0884290449230534
1.9000000000000006,0.1,0.35,-0.35,-2.766476946985394,0.0,-0.35,0.35,-1.9414986608115088,0.0,-0.35,0.35,-1.9414986608115088,0.0,-0.35,0.35,-1.9414986608115088,0.0,-0.35,0.35,-1.9414986608115088,0.0,10.0,10.0,4.0,0.0,0.0,0.0,0.0,0.0,0.0,0.0,0.0,0.0,0.0,0.0,0.0,6441.798182371083,0.0,11.008038132403712,11.008038132403716,11.057468148260638,4.324521507265621,4.324521507265622,5.561262306957326,0.0,1.0120207509541952,1.0120207509541952,0.6765598570711895,-3.698269004651623,-3.698269004651623,1.094380134395943,6470.259416492949,0.0,1.0120207509541952,1.0120207509541952,0.6765598570711895,-3.698269004651623,-3.698269004651623,1.094380134395943,6470.259416492949,0.0,1.0120207509541952,1.0120207509541952,0.6765598570711895,-3.698269004651623,-3.698269004651623,1.094380134395943,6470.259416492949,0.0,1.0120207509541952,1.0120207509541952,0.6765598570711895,-3.698269004651623,-3.698269004651623,1.094380134395943
2.0000000000000004,0.1,0.35,-0.35,-2.9632902458921384,0.0,-0.35,0.35,-1.6711048437592293,0.0,-0.35,0.35,-1.6711048437592293,0.0,-0.35,0.35,-1.6711048437592293,0.0,-0.35,0.35,-1.6711048437592293,0.0,10.0,10.0,4.0,0.0,0.0,0.0,0.0,0.0,0.0,0.0,0.0,0.0,0.0,0.0,0.0,6441.798182371083,0.0,11.435880593423493,11.435880593423496,11.557790267693617,4.232993466119707,4.232993466119708,4.454596236143824,0.0,0.645571976381485,0.645571976381485,0.7367868549750206,-3.631124792865014,-3.631124792865014,0.11116786773620675,6470.259416492949,0.0,0.645571976381485,0.645571976381485,0.7367868549750206,-3.631124792865014,-3.631124792865014,0.11116786773620675,6470.259416492949,0.0,0.645571976381485,0.645571976381485,0.7367868549750206,-3.631124792865014,-3.631124792865014,0.11116786773620675,6470.259416492949,0.0,0.645571976381485,0.645571976381485,0.7367868549750206,-3.631124792865014,-3.631124792865014,0.11116786773620675
2.1000000000000005,0.1,0.35,-0.35,-3.1355352143143977,0.0,-0.35,0.35,-1.3162751149245955,0.0,-0.35,0.35,-1.3162751149245955,0.0,-0.35,0.35,-1.3162751149245955,0.0,-0.35,0.35,-1.3162751149245955,0.0,10.0,10.0,4.0,8.0,8.0,3.7,0.0,0.0,0.0,0.0,0.0,0.0,0.0,0.0,0.0,6441.798182371083,0.0,11.896171637783903,11.896171637783906,11.98342149988579,4.1366856843235045,4.1366856843235045,3.292536394571438,0.0,0.25008482975238655,0.25008482975238655,0.689701634969069,-3.560027002982935,-3.560027002982935,-0.9664002358665277,6470.259416492949,0.0,0.25008482975238655,0.25008482975238655,0.689701634969069,-3.560027002982935,-3.560027002982935,-0.9664002358665277,6470.259416492949,0.0,0.25008482975238655,0.25008482975238655,0.689701634969069,-3.560027002982935,-3.560027002982935,-0.9664002358665277,6470.259416492949,0.0,0.25008482975238655,0.25008482975238655,0.689701634969069,-3.560027002982935,-3.560027002982935,-0.9664002358665277
2.2000000000000006,0.1,0.35,-0.35,-3.171499125186194,0.0,-0.35,0.35,4.399416664118855,0.0,-0.35,0.35,-0.28058333588114504,0.0,-0.35,0.35,-0.28058333588114504,0.0,-0.35,0.35,-0.28058333588114504,0.0,10.0,10.0,4.0,8.0,8.0,3.7,0.0,0.0,0.0,0.0,0.0,0.0,0.0,0.0,0.0,6441.798182371083,0.0,12.305619692557244,12.305619692557247,12.261430302981259,4.052858931130359,4.052858931130359,2.272462889433718,0.0,-0.10278616666282826,-0.10278616666282826,0.5444388567308213,-3.49776643399998,-3.49776643399998,-1.9364612907084506,6470.259416492949,0.0,-0.10278616666282826,-0.10278616666282826,0.5444388567308213,-3.49776643399998,-3.49776643399998,-1.9364612907084506,6470.259416492949,0.0,-0.10278616666282826,-0.10278616666282826,0.5444388567308213,-3.49776643399998,-3.49776643399998,-1.9364612907084506,6470.259416492949,0.0,-0.10278616666282826,-0.10278616666282826,0.5444388567308213,-3.49776643399998,-3.49776643399998,-1.9364612907084506
2.3000000000000007,0.1,0.35,-0.35,-3.1902613995073477,0.0,-0.35,0.35,6.2104356723937535,0.0,-0.35,0.35,0.810435672393754,0.0,-0.35,0.35,0.810435672393754,0.0,-0.35,0.35,0.810435672393754,0.0,10.0,10.0,4.0,8.0,8.0,3.7,0.0,0.0,0.0,0.0,0.0,0.0,0.0,0.0,0.0,6441.798182371083,0.0,12.706853287176083,12.706853287176086,12.43867043327864,3.9723620596797016,3.9723620596797016,1.275345886614682,0.0,-0.4117653563005359,-0.4117653563005359,0.41179861070646295,-2.675327972456526,-2.675327972456526,-0.699842698735034,6470.259416492949,0.0,-0.449539075262921,-0.449539075262921,0.3030232761129312,-3.4376461532996534,-3.4376461532996534,-2.88794697586599,6470.259416492949,0.0,-0.449539075262921,-0.449539075262921,0.3030232761129312,-3.4376461532996534,-3.4376461532996534,-2.88794697586599,6470.259416492949,0.0,-0.449539075262921,-0.449539075262921,0.3030232761129312,-3.4376461532996534,-3.4376461532996534,-2.88794697586599
2.400000000000001,0.1,0.35,-0.35,-3.0453940765424825,0.0,-0.35,0.35,5.584298251626448,0.0,-0.35,0.35,2.026196190307449,0.0,-0.35,0.35,2.026196190307449,0.0,-0.35,0.35,2.026196190307449,0.0,10.0,10.0,4.0,8.0,8.0,3.7,0.0,0.0,0.0,0.0,0.0,0.0,0.0,0.0,0.0,6441.798182371083,0.0,13.100195549732303,13.100195549732307,12.516916432311561,3.8950005233412277,3.8950005233412277,0.29088503474652705,0.0,-0.6385297815712664,-0.6385297815712664,0.4027036534179629,-1.8616584075857148,-1.8616584075857148,0.5161547951039829,6467.559279502951,0.0,-0.7591612757866089,-0.7591612757866089,0.055113231164508975,-2.7509789516615033,-2.7509789516615033,-2.05714652163799,6467.559279502951,0.0,-0.7591612757866089,-0.7591612757866089,0.055113231164508975,-2.7509789516615033,-2.7509789516615033,-2.05714652163799,6467.559279502951,0.0,-0.7591612757866089,-0.7591612757866089,0.055113231164508975,-2.7509789516615033,-2.7509789516615033,-2.05714652163799
2.500000000000001,0.1,0.35,-0.35,-2.8712339483849645,0.0,-0.35,0.35,5.320775926559351,0.0,-0.35,0.35,1.4804902978642969,0.0,-0.35,0.35,1.4804902978642969,0.0,-0.35,0.35,1.4804902978642969,0.0,10.0,10.0,4.0,8.0,8.0,3.7,0.0,0.0,0.0,0.0,0.0,0.0,0.0,0.0,0.0,6441.798182371083,0.0,13.485950909486522,13.485950909486526,12.496960443291748,3.820594640988912,3.820594640988912,-0.6896003921568876,0.0,-0.7844067925795662,-0.7844067925795662,0.514634623073362,-1.0572509648130233,-1.0572509648130235,1.7195429330776153,6464.221357313376,0.0,-0.9931328596807173,-0.9931328596807173,-0.013388077966921149,-1.929608949731511,-1.929608949731511,1.101356090549136,6464.221357313376,0.0,-0.9931328596807173,-0.9931328596807173,-0.013388077966921149,-1.929608949731511,-1.929608949731511,1.101356090549136,6464.221357313376,0.0,-0.9931328596807173,-0.9931328596807173,-0.013388077966921149,-1.929608949731511,-1.929608949731511,1.101356090549136
2.600000000000001,0.1,0.35,-0.35,-2.162660158299137,0.0,-0.35,0.35,5.037244545691316,0.0,-0.35,0.35,-1.0463844526864725,0.0,-0.35,0.35,-1.0463844526864725,0.0,-0.35,0.35,-1.0463844526864725,0.0,10.0,10.0,4.0,8.0,8.0,3.7,0.0,0.0,0.0,0.0,0.0,0.0,0.0,0.0,0.0,6441.798182371083,0.0,13.86440651235772,13.864406512357723,12.379219166601038,3.748978203759316,3.748978203759316,-1.663277678646363,0.0,-0.8501789650506003,-0.8501789650506003,0.7458471400379034,-0.25882228867710605,-0.2588222886771063,2.8997377649865586,6460.880671799597,0.0,-1.14559655024092,-1.14559655024092,0.1527601392118226,-1.1214966089360825,-1.1214966089360825,2.2565408415239276,6460.880671799597,0.0,-1.14559655024092,-1.14559655024092,0.1527601392118226,-1.1214966089360825,-1.1214966089360825,2.2565408415239276,6460.880671799597,0.0,-1.14559655024092,-1.14559655024092,0.1527601392118226,-1.1214966089360825,-1.1214966089360825,2.2565408415239276
2.700000000000001,0.1,0.35,-0.35,-1.2653553030756255,0.0,-0.35,0.35,4.829502242284921,0.0,-0.35,0.35,-1.8321186548020627,0.0,-0.35,0.35,-1.8321186548020627,0.0,-0.35,0.35,-1.8321186548020627,0.0,10.0,10.0,4.0,8.0,8.0,3.7,0.0,0.0,0.0,0.0,0.0,0.0,0.0,0.0,0.0,6441.798182371083,0.0,14.235833504957721,14.235833504957725,12.16483490681068,3.679997235621135,3.679997235621135,-2.6209189485659357,0.0,-0.8362169427982056,-0.8362169427982056,1.093420761706807,0.5379132661361915,0.5379132661361912,4.044774254740173,6460.880671799597,0.0,-1.2570384171360787,-1.2570384171360787,0.32949539309124243,-1.1152863443978764,-1.1152863443978764,1.2594587163948892,6460.880671799597,0.0,-1.2570384171360787,-1.2570384171360787,0.32949539309124243,-1.1152863443978764,-1.1152863443978764,1.2594587163948892,6460.880671799597,0.0,-1.2570384171360787,-1.2570384171360787,0.32949539309124243,-1.1152863443978764,-1.1152863443978764,1.2594587163948892
2.800000000000001,0.1,0.35,-0.35,-0.18677454360997547,0.0,-0.35,0.35,4.264717614353087,0.0,-0.35,0.35,-1.560127562861939,0.0,-0.35,0.35,-1.560127562861939,0.0,-0.35,0.35,-1.560127562861939,0.0,10.0,10.0,4.0,8.0,8.0,3.7,0.0,0.0,0.0,0.0,0.0,0.0,0.0,0.0,0.0,6441.798182371083,0.0,14.600488201553471,14.600488201553475,11.855852786338922,3.6135088883034134,3.6135088883034134,-3.553824852069379,0.0,-0.742726496198528,-0.742726496198528,1.553273795468834,1.3306648093680862,1.330664809368086,5.143563272560253,6460.880671799597,0.0,-1.3682572255035603,-1.3682572255035603,0.4061601353347899,-1.1091015169516247,-1.1091015169516247,0.2751204408297504,6460.880671799597,0.0,-1.3682572255035603,-1.3682572255035603,0.4061601353347899,-1.1091015169516247,-1.1091015169516247,0.2751204408297504,6460.880671799597,0.0,-1.3682572255035603,-1.3682572255035603,0.4061601353347899,-1.1091015169516247,-1.1091015169516247,0.2751204408297504
2.9000000000000012,0.1,0.35,-0.35,0.9406136900749242,0.0,-0.35,0.35,3.757500414349281,0.0,-0.35,0.35,-1.1942105856844514,0.0,-0.35,0.35,-1.1942105856844514,0.0,-0.35,0.35,-1.1942105856844514,0.0,10.0,10.0,4.0,8.0,8.0,3.7,0.0,0.0,0.0,0.0,0.0,0.0,0.0,0.0,0.0,6441.798182371083,0.0,14.958613146536894,14.958613146536898,11.455144615206272,3.549380453891567,3.549380453891567,-4.454206823952653,0.0,-0.5704280595027542,-0.5704280595027542,2.120293355707811,2.1130087554097594,2.1130087554097594,6.186667310142168,6460.880671799597,0.0,-1.4788609716575585,-1.4788609716575585,0.3846291839454277,-1.1029849071872229,-1.1029849071872229,-0.7053195027763239,6460.880671799597,0.0,-1.4788609716575585,-1.4788609716575585,0.3846291839454277,-1.1029849071872229,-1.1029849071872229,-0.7053195027763239,6460.880671799597,0.0,-1.4788609716575585,-1.4788609716575585,0.3846291839454277,-1.1029849071872229,-1.1029849071872229,-0.7053195027763239
3.0000000000000013,0.1,0.35,-0.35,2.2225155452710217,0.0,-0.35,0.35,2.925317908736252,0.0,-0.35,0.35,-0.3492174004044244,0.0,-0.35,0.35,-0.3492174004044244,0.0,-0.35,0.35,-0.3492174004044244,0.0,10.0,10.0,4.0,8.0,8.0,3.7,0.0,0.0,0.0,0.0,0.0,0.0,0.0,0.0,0.0,6438.653777584204,0.0,15.273717481163827,15.27371748116383,11.066562017918331,2.7496213907343052,2.7496213907343052,-3.3049184659311304,0.0,-0.3206670496958242,-0.3206670496958242,2.788523823582629,2.8789410157597617,2.8789410157597617,7.166715342473085,6460.880671799597,0.0,-1.5888564210324423,-1.5888564210324423,0.2653239813979829,-1.0969353926495953,-1.0969353926495953,-1.6788115765809266,6460.880671799597,0.0,-1.5888564210324423,-1.5888564210324423,0.2653239813979829,-1.0969353926495953,-1.0969353926495953,-1.6788115765809266,6460.880671799597,0.0,-1.5888564210324423,-1.5888564210324423,0.2653239813979829,-1.0969353926495953,-1.0969353926495953,-1.6788115765809266
3.1000000000000014,0.1,0.35,-0.35,1.4318782444637406,0.0,-0.35,0.35,2.1224971010348193,0.0,-0.35,0.35,0.7399826020548701,0.0,-0.35,0.35,0.7399826020548701,0.0,-0.35,0.35,0.7399826020548701,0.0,10.0,10.0,4.0,8.0,8.0,3.7,0.0,0.0,0.0,0.0,0.0,0.0,0.0,0.0,0.0,6435.310848026807,0.0,15.507309613871309,15.507309613871312,10.798244168074579,1.9250598314117786,1.9250598314117782,-2.0658982637014156,0.0,0.004638485702916549,0.004638485702916549,3.5513831480642013,3.623029798905556,3.623029798905556,8.07855787895973,6460.880671799597,0.0,-1.6982502280473566,-1.6982502280473566,0.049401673357677894,-1.0909518753745344,-1.0909518753745344,-2.6361221917472664,6460.880671799597,0.0,-1.6982502280473566,-1.6982502280473566,0.049401673357677894,-1.0909518753745344,-1.0909518753745344,-2.6361221917472664,6460.880671799597,0.0,-1.6982502280473566,-1.6982502280473566,0.049401673357677894,-1.0909518753745344,-1.0909518753745344,-2.6361221917472664
3.2000000000000015,0.1,0.35,-0.35,0.45889527646674066,0.0,-0.35,0.35,1.040947434264205,0.0,-0.35,0.35,1.9469582172269062,0.0,-0.35,0.35,1.9469582172269062,0.0,-0.35,0.35,1.9469582172269062,0.0,10.0,10.0,4.0,8.0,8.0,3.7,0.0,0.0,0.0,0.0,0.0,0.0,0.0,0.0,0.0,6431.967918220896,0.0,15.659278020863512,15.659278020863516,10.652464714824635,1.1164298841384586,1.1164298841384581,-0.8527857640466606,0.0,0.40306005328337546,0.40306005328337546,4.401884464458145,4.340513986209575,4.340513986209575,8.919228069816757,6458.406975457971,0.0,-1.7778984111013205,-1.7778984111013205,-0.019164711445614976,-0.4969476029993682,-0.4969476029993682,1.6244734533879814,6458.406975457971,0.0,-1.7778984111013205,-1.7778984111013205,-0.019164711445614976,-0.4969476029993682,-0.4969476029993682,1.6244734533879814,6458.406975457971,0.0,-1.7778984111013205,-1.7778984111013205,-0.019164711445614976,-0.4969476029993682,-0.4969476029993682,1.6244734533879814
3.3000000000000016,0.1,0.35,-0.35,-0.6423770872197981,0.0,-0.35,0.35,-0.050643803146456,0.0,-0.35,0.35,-1.419453206964393,0.0,-0.35,0.35,-1.419453206964393,0.0,-0.35,0.35,-1.419453206964393,0.0,10.0,10.0,4.0,8.0,8.0,3.7,0.0,0.0,0.0,0.0,0.0,0.0,0.0,0.0,0.0,6430.433863472116,0.0,15.752178772591789,15.752178772591792,10.568978776809042,0.7464697905682947,0.7464697905682942,-0.8287564585772493,0.0,0.8717301049202472,0.8717301049202472,5.332846391769791,5.027385182851344,5.027385182851344,9.687762856110888,6455.064053778237,0.0,-1.7877696134953944,-1.7877696134953944,0.19662704610234993,0.30133730728452696,0.30133730728452696,2.749384488582554,6455.064053778237,0.0,-1.7877696134953944,-1.7877696134953944,0.19662704610234993,0.30133730728452696,0.30133730728452696,2.749384488582554,6455.064053778237,0.0,-1.7877696134953944,-1.7877696134953944,0.19662704610234993,0.30133730728452696,0.30133730728452696,2.749384488582554
3.4000000000000017,0.1,0.35,-0.35,-0.602866571819507,0.0,-0.35,0.35,-1.3641074347543345,0.0,-0.35,0.35,-2.2461827036589392,0.0,-0.35,0.35,-2.2461827036589392,0.0,-0.35,0.35,-2.2461827036589392,0.0,10.0,10.0,4.0,8.0,8.0,3.7,0.0,0.0,0.0,0.0,0.0,0.0,0.0,0.0,0.0,6430.433863472116,0.0,15.826505211988417,15.82650521198842,10.437893757099458,0.7437074498944319,0.7437074498944315,-1.800751902229558,0.0,1.3686336320756303,1.3686336320756303,6.232294800986059,4.90391940111879,4.90391940111879,8.301393087269947,6455.064053778237,0.0,-1.7572607173362051,-1.7572607173362051,0.4221096904658119,0.30087118583192846,0.30087118583192846,1.7424902819527992,6455.064053778237,0.0,-1.7572607173362051,-1.7572607173362051,0.4221096904658119,0.30087118583192846,0.30087118583192846,1.7424902819527992,6455.064053778237,0.0,-1.7572607173362051,-1.7572607173362051,0.4221096904658119,0.30087118583192846,0.30087118583192846,1.7424902819527992
3.5000000000000018,0.1,0.35,-0.35,0.48308790675406343,0.0,-0.35,0.35,-1.5641837212056426,0.0,-0.35,0.35,-2.044540166391235,0.0,-0.35,0.35,-2.044540166391235,0.0,-0.35,0.35,-2.044540166391235,0.0,10.0,10.0,4.0,8.0,8.0,3.7,0.0,0.0,0.0,0.0,0.0,0.0,0.0,0.0,0.0,6430.433863472116,0.0,15.900738020222592,15.900738020222596,10.209901954589606,0.7409521918538008,0.7409521918538003,-2.7553857205933343,0.0,1.853109043419674,1.853109043419674,6.997868265350814,4.786555507655526,4.786555507655526,7.026671844521924,6455.064053778237,0.0,-1.7271962071757545,-1.7271962071757545,0.5467949701820412,0.30041924836208234,0.30041924836208234,0.7533136024223904,6455.064053778237,0.0,-1.7271962071757545,-1.7271962071757545,0.5467949701820412,0.30041924836208234,0.30041924836208234,0.7533136024223904,6455.064053778237,0.0,-1.7271962071757545,-1.7271962071757545,0.5467949701820412,0.30041924836208234,0.30041924836208234,0.7533136024223904
3.600000000000002,0.1,0.35,-0.35,1.6918780167789902,0.0,-0.35,0.35,-1.7624161490594417,0.0,-0.35,0.35,-1.7286413021049416,0.0,-0.35,0.35,-1.7286413021049416,0.0,-0.35,0.35,-1.7286413021049416,0.0,10.0,10.0,4.0,8.0,8.0,3.7,0.0,0.0,0.0,0.0,0.0,0.0,0.0,0.0,0.0,6428.8189344156435,0.0,15.955686793746493,15.955686793746496,9.93936007347686,0.35455347277003896,0.3545534727700385,-2.6455505409767617,0.0,2.326125731516503,2.326125731516503,7.64048333298157,4.67467795141073,4.67467795141073,5.838612851430656,6455.064053778237,0.0,-1.6971768229268231,-1.6971768229268231,0.5730174789595546,0.29996866656299254,0.29996866656299254,-0.22838886077751905,6455.064053778237,0.0,-1.6971768229268231,-1.6971768229268231,0.5730174789595546,0.29996866656299254,0.29996866656299254,-0.22838886077751905,6455.064053778237,0.0,-1.6971768229268231,-1.6971768229268231,0.5730174789595546,0.29996866656299254,0.29996866656299254,-0.22838886077751905
3.700000000000002,0.1,0.35,-0.35,1.9040344314514113,0.0,-0.35,0.35,-1.887889781610133,0.0,-0.35,0.35,-1.205847548492278,0.0,-0.35,0.35,-1.205847548492278,0.0,-0.35,0.35,-1.205847548492278,0.0,10.0,10.0,4.0,8.0,8.0,3.7,0.0,0.0,0.0,0.0,0.0,0.0,0.0,0.0,0.0,6425.476004410355,0.0,15.951517079007047,15.95151707900705,9.735578053063422,-0.4418211281376536,-0.44182112813765406,-1.4232403405443859,0.0,2.788213232060725,2.788213232060725,8.167814333856377,4.567910820549647,4.567910820549647,4.718056149836858,6455.064053778237,0.0,-1.6672024293271839,-1.6672024293271839,0.5012175885142904,0.2995194343439131,0.2995194343439131,-1.2064165342528808,6455.064053778237,0.0,-1.6672024293271839,-1.6672024293271839,0.5012175885142904,0.2995194343439131,0.2995194343439131,-1.2064165342528808,6455.064053778237,0.0,-1.6672024293271839,-1.6672024293271839,0.5012175885142904,0.2995194343439131,0.2995194343439131,-1.2064165342528808
3.800000000000002,0.1,0.35,-0.35,0.9360145117189522,0.0,-0.35,0.35,-1.9546575618681414,0.0,-0.35,0.35,-0.17388705850681463,0.0,-0.35,0.35,-0.17388705850681463,0.0,-0.35,0.35,-0.17388705850681463,0.0,10.0,10.0,4.0,8.0,8.0,3.7,0.0,0.0,0.0,0.0,0.0,0.0,0.0,0.0,0.0,6422.133074403011,0.0,15.867652250059393,15.867652250059397,9.653560005432398,-1.2343151030956176,-1.234315103095618,-0.21888807606596788,0.0,3.2398652017074543,3.2398652017074543,8.585798736876356,4.465911778483402,4.465911778483402,3.649229637087308,6455.064053778237,0.0,-1.6372728917218597,-1.6372728917218597,0.3321212261745724,0.2990715456505296,0.2990715456505296,-2.1727344286544223,6455.064053778237,0.0,-1.6372728917218597,-1.6372728917218597,0.3321212261745724,0.2990715456505296,0.2990715456505296,-2.1727344286544223,6455.064053778237,0.0,-1.6372728917218597,-1.6372728917218597,0.3321212261745724,0.2990715456505296,0.2990715456505296,-2.1727344286544223
3.900000000000002,0.1,0.35,-0.35,-0.14119703752008267,0.0,-0.35,0.35,-1.9620079433456132,0.0,-0.35,0.35,0.9603826694764857,0.0,-0.35,0.35,0.9603826694764857,0.0,-0.35,0.35,0.9603826694764857,0.0,10.0,10.0,4.0,8.0,8.0,3.7,0.0,0.0,0.0,0.0,0.0,0.0,0.0,0.0,0.0,6419.00404340361,0.0,15.707489105544878,15.707489105544882,9.684746018117892,-1.9664212887190684,-1.9664212887190688,0.8405492629304206,0.0,3.6815425879384276,3.6815425879384276,8.898924236531622,4.36836839721374,4.36836839721374,2.6187680102983872,6455.064053778237,0.0,-1.607388076059495,-1.607388076059495,0.06735602439299,0.2986249944646871,0.2986249944646871,-3.1183151731968994,6455.064053778237,0.0,-1.607388076059495,-1.607388076059495,0.06735602439299,0.2986249944646871,0.2986249944646871,-3.1183151731968994,6455.064053778237,0.0,-1.607388076059495,-1.607388076059495,0.06735602439299,0.2986249944646871,0.2986249944646871,-3.1183151731968994
4.000000000000002,0.1,0.35,-0.35,-0.7979321409803615,0.0,-0.3354943959344924,0.3354943959344924,-1.8670694187397103,0.0,-0.35,0.35,2.2116973386398344,0.0,-0.35,0.35,2.2116973386398344,0.0,-0.35,0.35,2.2116973386398344,0.0,10.0,10.0,4.0,8.0,8.0,3.7,0.0,0.0,0.0,0.0,0.0,0.0,0.0,0.0,0.0,6419.00404340361,0.0,15.511441509694682,15.511441509694686,9.720684204882273,-1.9472028581983323,-1.9472028581983327,-0.14153545293324346,0.0,4.113676456414567,4.113676456414567,9.110431326185303,4.2749949609151905,4.2749949609151905,1.6149849171515573,6451.8535617620655,0.0,-1.539675063915795,-1.539675063915795,-0.020411618256693412,1.062376386105492,1.062376386105492,1.8189616877034551,6451.8535617620655,0.0,-1.539675063915795,-1.539675063915795,-0.020411618256693412,1.062376386105492,1.062376386105492,1.8189616877034551,6451.8535617620655,0.0,-1.539675063915795,-1.539675063915795,-0.020411618256693412,1.062376386105492,1.062376386105492,1.8189616877034551
4.100000000000001,0.1,0.35,-0.35,-0.253031313535638,0.0,-0.23317160002088322,0.23317160002088322,-1.7125799864177798,0.0,-0.21863374067532423,0.21863374067532423,-1.7115734908655604,0.0,-0.21863374067532423,0.21863374067532423,-1.7115734908655604,0.0,-0.21863374067532423,0.21863374067532423,-1.7115734908655604,0.0,10.0,10.0,4.0,8.0,8.0,3.7,6.0,6.0,3.4,0.0,0.0,0.0,0.0,0.0,0.0,6419.00404340361,0.0,15.317663075772256,15.31766307577226,9.657547623672372,-1.928427672064385,-1.9284276720643854,-1.1201471528732931,0.0,4.536670519288486,4.536670519288486,9.222451869480794,4.185529670869667,4.185529670869667,0.6273083684025077,6448.5106317669815,0.0,-1.394011075104386,-1.394011075104386,0.21298264587064947,1.8492389172727608,1.8492389172727608,2.9201931013521536,6448.5106317669815,0.0,-1.394011075104386,-1.394011075104386,0.21298264587064947,1.8492389172727608,1.8492389172727608,2.9201931013521536,6448.5106317669815,0.0,-1.394011075104386,-1.394011075104386,0.21298264587064947,1.8492389172727608,1.8492389172727608,2.9201931013521536
4.200000000000001,0.1,0.35,-0.35,0.8199973289996543,0.0,-0.13262632042529054,0.13262632042529054,-1.4231528598678285,0.0,-0.35,0.35,1.7119605545288596,0.0,-0.020475317574675966,0.020475317574675966,-2.5480394454711397,0.0,-0.020475317574675966,0.020475317574675966,-2.5480394454711397,0.0,10.0,10.0,4.0,8.0,8.0,3.7,6.0,6.0,3.4,0.0,0.0,0.0,0.0,0.0,0.0,6419.00404340361,0.0,15.125744141901997,15.125744141902,9.497014528718479,-1.9100110935696977,-1.9100110935696981,-2.087875273970792,0.0,4.950903401646055,4.950903401646055,9.236097883936104,4.099732194164581,4.099732194164581,-0.3540340916424284,6448.5106317669815,0.0,-1.2095447556884005,-1.2095447556884005,0.45533222223499226,1.8322238636271753,1.8322238636271753,1.9093499916987746,6448.5106317669815,0.0,-1.2095447556884005,-1.2095447556884005,0.45533222223499226,1.8322238636271753,1.8322238636271753,1.9093499916987746,6448.5106317669815,0.0,-1.2095447556884005,-1.2095447556884005,0.45533222223499226,1.8322238636271753,1.8322238636271753,1.9093499916987746
4.300000000000001,0.1,0.35,-0.35,2.0208178636085448,0.0,-0.033800608706188395,0.033800608706188395,-0.8826792304911083,0.0,-0.35,0.35,2.432853205008119,0.0,0.027772241132682896,-0.027772241132682896,-2.3671467949918803,0.0,0.027772241132682896,-0.027772241132682896,-2.3671467949918803,0.0,10.0,10.0,4.0,8.0,8.0,3.7,6.0,6.0,3.4,0.0,0.0,0.0,0.0,0.0,0.0,6416.262849725203,0.0,14.903556891403976,14.90355689140398,9.328534333205498,-2.537815227416009,-2.5378152274160093,-1.2663973864946245,0.0,5.356730677965517,5.356730677965517,9.151771979932803,4.017381507819582,4.017381507819582,-1.3310847367376883,6445.27665075368,0.0,-0.9934985860948495,-0.9934985860948495,0.7081966233892031,2.5072647856167505,2.5072647856167505,3.1553023694017677,6448.5106317669815,0.0,-1.0271565897735342,-1.0271565897735342,0.5965790840319277,1.8155910279771517,1.8155910279771517,0.9179693844843212,6448.5106317669815,0.0,-1.0271565897735342,-1.0271565897735342,0.5965790840319277,1.8155910279771517,1.8155910279771517,0.9179693844843212
4.4,0.1,0.35,-0.35,1.4367497448902349,0.0,0.06336089139426127,-0.06336089139426127,0.1239264034920442,0.0,-0.35,0.35,1.8315338694028438,0.0,0.07551436045884075,-0.07551436045884075,-2.072510064728984,0.0,0.07551436045884075,-0.07551436045884075,-2.072510064728984,0.0,10.0,10.0,4.0,8.0,8.0,3.7,6.0,6.0,3.4,0.0,0.0,0.0,0.0,0.0,0.0,6412.919919716192,0.0,14.612006896461564,14.612006896461567,9.261862915998725,-3.2908388799240957,-3.290838879924096,-0.06457220500702258,0.0,5.7544867060422575,5.7544867060422575,8.970307283409785,3.9382739976210623,3.9382739976210623,-2.2952364292227783,6441.979259041351,0.0,-0.7072328607373698,-0.7072328607373698,1.0826905071925654,3.2204384017914056,3.2204384017914056,4.32254444514506,6448.5106317669815,0.0,-0.8464166747836939,-0.8464166747836939,0.6392249875046732,1.799257459494303,1.799257459494303,-0.06433760612516681,6448.5106317669815,0.0,-0.8464166747836939,-0.8464166747836939,0.6392249875046732,1.799257459494303,1.799257459494303,-0.06433760612516681
4.5,0.1,0.35,-0.35,0.3793624590946734,0.0,0.15891107721604447,-0.15891107721604447,1.2130641354021847,0.0,-0.35,0.35,1.2523128418339327,0.0,0.12285482295942632,-0.12285482295942632,-1.656613722300189,0.0,0.12285482295942632,-0.12285482295942632,-1.656613722300189,0.0,10.0,10.0,4.0,8.0,8.0,3.7,6.0,6.0,3.4,0.0,0.0,0.0,0.0,0.0,0.0,6409.576989707172,0.0,14.246271244594142,14.246271244594144,9.3152878455515,-4.01931449874991,-4.019314498749911,1.1318996728958848,0.0,6.145538864856426,6.145538864856426,8.708405540915507,3.8785656110252535,3.8785656110252535,-2.9363726085330644,6438.65623411694,0.0,-0.34940941709250317,-0.34940941709250317,1.5704699453507809,3.934254265837375,3.934254265837375,5.421749987527459,6448.5106317669815,0.0,-0.6672954867045625,-0.6672954867045625,0.5837917602671411,1.7832151533270293,1.7832151533270293,-1.0434056298929932,6448.5106317669815,0.0,-0.6672954867045625,-0.6672954867045625,0.5837917602671411,1.7832151533270293,1.7832151533270293,-1.0434056298929932
4.6,0.1,0.35,-0.35,-0.27258402067012943,0.0,0.25646400436484984,-0.25646400436484984,2.1181210209758454,0.0,-0.35,0.35,0.39777993127657396,0.0,0.16980029438812835,-0.16980029438812835,-0.6477163282804788,0.0,0.16980029438812835,-0.16980029438812835,-0.6477163282804788,0.0,10.0,10.0,4.0,8.0,8.0,3.7,6.0,6.0,3.4,0.0,0.0,0.0,0.0,0.0,0.0,6408.308807558366,0.0,13.83319917580765,13.833199175807652,9.42114042273775,-4.235746101882545,-4.235746101882546,0.9719633794527646,0.0,6.526758642326542,6.526758642326542,8.489706680275864,3.7071295523985572,3.7071295523985572,-1.4248260159825457,6435.3221391232655,0.0,0.07903592810270627,0.07903592810270627,2.1648411219665915,4.630706185916942,4.630706185916942,6.454202572106068,6448.5106317669815,0.0,-0.48976428775058417,-0.48976428775058417,0.4308792620546021,1.767456387587574,1.767456387587574,-2.0123271181808673,6448.5106317669815,0.0,-0.48976428775058417,-0.48976428775058417,0.4308792620546021,1.767456387587574,1.767456387587574,-2.0123271181808673
4.699999999999999,0.1,0.22614654884963326,-0.22614654884963303,-0.2643660273028788,0.0,0.3289183303311433,-0.3289183303311433,0.8183784941488812,0.0,-0.35,0.35,-0.4686963386302221,0.0,0.2163572769473512,-0.2163572769473512,0.4613336493311522,0.0,0.2163572769473512,-0.2163572769473512,0.4613336493311522,0.0,10.0,10.0,4.0,8.0,8.0,3.7,6.0,6.0,3.4,0.0,0.0,0.0,0.0,0.0,0.0,6408.308807558366,0.0,13.413902986154996,13.413902986154998,9.469578832830713,-4.147837566087241,-4.147837566087242,-0.010626918334249003,0.0,6.8796329947724555,6.8796329947724555,8.420250470145499,3.313373133886323,3.313373133886323,0.023201857814503152,6433.993959763849,0.0,0.5525778397230038,0.5525778397230038,2.795241219232066,4.834020196199755,4.834020196199755,6.144097881434516,6448.5106317669815,0.0,-0.3137950986939202,-0.3137950986939202,0.18196329159157376,1.7519737109584277,1.7519737109584277,-2.961975406393167,6448.5106317669815,0.0,-0.3137950986939202,-0.3137950986939202,0.18196329159157376,1.7519737109584277,1.7519737109584277,-2.961975406393167
4.799999999999999,0.1,0.126325322905951,-0.12632532290595078,0.20739491097914364,0.0,0.3489718653135521,-0.3489718653135521,-0.5619997130971188,0.0,-0.35,0.35,-0.8589265802489754,0.0,0.2625321145573879,-0.2625321145573879,1.6912958254897004,0.0,0.2625321145573879,-0.2625321145573879,1.6912958254897004,0.0,10.0,10.0,4.0,8.0,8.0,3.7,6.0,6.0,3.4,0.0,0.0,0.0,0.0,0.0,0.0,6408.308807558366,0.0,13.00336237602233,13.003362376022332,9.419506993634098,-4.063562840328725,-4.063562840328726,-0.9899775404369431,0.0,7.187752331903301,7.187752331903301,8.47040764714019,2.8264107995259296,2.8264107995259296,0.9623874850175218,6433.993959763849,0.0,1.0303807457836032,1.0303807457836032,3.3526900125271712,4.719866086535787,4.719866086535787,5.007167221743079,6447.215633602792,0.0,-0.14753536579689158,-0.14753536579689158,-0.06798761088018257,1.5632759354524233,1.5632759354524233,-0.44255728643973513,6447.215633602792,0.0,-0.14753536579689158,-0.14753536579689158,-0.06798761088018257,1.5632759354524233,1.5632759354524233,-0.44255728643973513
4.899999999999999,0.1,0.02822889722050792,-0.028228897220507698,1.2975739555148087,0.0,0.3378528128381102,-0.3378528128381102,-1.1326131120250342,0.0,-0.35,0.35,-0.704418439685975,0.0,0.271345284667355,-0.271345284667355,-0.5295608535925601,0.0,0.271345284667355,-0.271345284667355,-0.5295608535925601,0.0,10.0,10.0,4.0,8.0,8.0,3.7,6.0,6.0,3.4,0.0,0.0,0.0,0.0,0.0,0.0,6407.675124398525,0.0,12.59514014631223,12.595140146312232,9.29561277924078,-4.095311436101105,-4.095311436101106,-1.4787546406203835,0.0,7.46816868701674,7.46816868701674,8.518417817566158,2.7870936555249664,2.7870936555249664,-0.02020888170865559,6433.993959763849,0.0,1.4968833416908454,1.4968833416908454,3.7989438636688804,4.611048866472066,4.611048866472066,3.9261141062417835,6444.249346036289,0.0,-0.01516121381517641,-0.01516121381517641,0.11535229502496618,1.064645459703235,1.064645459703235,2.7803621820077793,6444.249346036289,0.0,-0.01516121381517641,-0.01516121381517641,0.11535229502496618,1.064645459703235,1.064645459703235,2.7803621820077793
4.999999999999998,0.1,-0.09242304625279607,0.09242304625279651,1.9735705197839832,0.0,0.35,-0.35,-0.7184874562599699,0.0,-0.3386628910321503,0.3386628910321503,-0.5539455195912597,0.0,0.20868395207239762,-0.20868395207239762,-2.583728058646707,0.0,0.20868395207239762,-0.20868395207239762,-2.583728058646707,0.0,10.0,10.0,4.0,8.0,8.0,3.7,6.0,6.0,3.4,0.0,0.0,0.0,0.0,0.0,0.0,6404.911569234905,0.0,12.170843946830788,12.17084394683079,9.218307327185919,-4.355009357771608,-4.35500935777161,-0.039260461553950826,0.0,7.744953760441821,7.744953760441821,8.467389403729007,2.7487880618389418,2.7487880618389418,-0.9995111879077744,6433.993959763849,0.0,1.9527523248755034,1.9527523248755034,4.139286373674005,4.507136147808632,4.507136147808632,2.8867521637489517,6444.249346036289,0.0,0.09075535423264922,0.09075535423264922,0.34397655744612254,1.0590360308960103,1.0590360308960103,1.7727493770725884,6444.249346036289,0.0,0.09075535423264922,0.09075535423264922,0.34397655744612254,1.0590360308960103,1.0590360308960103,1.7727493770725884
5.099999999999998,0.1,-0.26316556644170086,0.2631655664417011,0.6948760601750067,0.0,0.35,-0.35,0.2784530477930046,0.0,-0.23180211947313256,0.23180211947313256,-0.2650010586814999,0.0,0.23721870536434386,-0.23721870536434386,-2.3783699333820154,0.0,0.23721870536434386,-0.23721870536434386,-2.3783699333820154,0.0,10.0,10.0,4.0,8.0,8.0,3.7,6.0,6.0,3.4,0.0,0.0,0.0,0.0,0.0,0.0,6402.5411933837195,0.0,11.732626780654536,11.732626780654538,9.28812775723038,-4.363807064488594,-4.363807064488596,1.4380642024243944,0.0,8.017960571631624,8.017960571631624,8.318837023106216,2.7115211294878003,2.7115211294878003,-1.9690893618638627,6433.993959763849,0.0,2.398461680684472,2.398461680684472,4.377270303243827,4.407803663086612,4.407803663086612,1.877013577092352,6444.249346036289,0.0,0.19637954411589476,0.19637954411589476,0.4716662077264288,1.053457783316122,1.053457783316122,0.7831932741773447,6444.249346036289,0.0,0.19637954411589476,0.19637954411589476,0.4716662077264288,1.053457783316122,1.053457783316122,0.7831932741773447
5.1999999999999975,0.1,-0.35,0.35,-0.10239407117698551,0.0,0.35,-0.35,1.4027072856913847,0.0,-0.1268699967910255,0.1268699967910255,0.05879081885547843,0.0,0.26567782901567494,-0.26567782901567494,-2.061288745225937,0.0,0.26567782901567494,-0.26567782901567494,-2.061288745225937,0.0,10.0,10.0,4.0,8.0,8.0,3.7,6.0,6.0,3.4,0.0,0.0,0.0,0.0,0.0,0.0,6400.776888295433,0.0,11.306037764679289,11.30603776467929,9.467876087831945,-4.12835686917343,-4.128356869173434,2.1405561376053286,0.0,8.276634275489991,8.276634275489991,8.104230337892222,2.460372213552464,2.460372213552464,-2.3161626276872345,6433.993959763849,0.0,2.8344543929940587,2.8344543929940587,4.5153087006942005,4.312755114154579,4.312755114154579,0.8860813746583007,6444.249346036289,0.0,0.30144883992063615,0.30144883992063615,0.5008699798186762,1.0479379922876362,1.0479379922876362,-0.19860563064482356,6444.249346036289,0.0,0.30144883992063615,0.30144883992063615,0.5008699798186762,1.0479379922876362,1.0479379922876362,-0.19860563064482356
5.299999999999997,0.1,-0.35,0.35,-0.6160544334761575,0.0,0.35,-0.35,1.991489642804829,0.0,-0.023801747130747786,0.023801747130747786,0.5263742119930883,0.0,0.29399327363530536,-0.29399327363530536,-1.5503331890240517,0.0,0.29399327363530536,-0.29399327363530536,-1.5503331890240517,0.0,10.0,10.0,4.0,8.0,8.0,3.7,6.0,6.0,3.4,0.0,0.0,0.0,0.0,0.0,0.0,6400.776888295433,0.0,10.897525524285493,10.897525524285495,9.632871676216649,-4.044913269832486,-4.04491326983249,1.1454953232430365,0.0,8.482298833202393,8.482298833202393,7.9331030030239775,1.6492758714808533,1.649275871480853,-1.0950925498230097,6433.814261415468,0.0,3.262832939574959,3.262832939574959,4.561527617800877,4.253728216249306,4.253728216249306,0.041273290906946355,6444.249346036289,0.0,0.40596904143410795,0.40596904143410795,0.4320404346678087,1.042475743718065,1.042475743718065,-1.17684199458163,6444.249346036289,0.0,0.40596904143410795,0.40596904143410795,0.4320404346678087,1.042475743718065,1.042475743718065,-1.17684199458163
5.399999999999997,0.1,-0.35,0.35,-0.2895411652781147,0.0,0.35,-0.35,0.9746523665550122,0.0,0.08433886633084975,-0.08433886633084975,0.9810104637859014,0.0,0.32216648034516326,-0.32216648034516326,-0.5174886833407992,0.0,0.32216648034516326,-0.32216648034516326,-0.5174886833407992,0.0,10.0,10.0,4.0,8.0,8.0,3.7,6.0,6.0,3.4,0.0,0.0,0.0,0.0,0.0,0.0,6400.776888295433,0.0,10.497070726388523,10.497070726388523,9.698189927033445,-3.9647285952186433,-3.964728595218647,0.16196320598445618,0.0,8.607102165782978,8.607102165782978,7.8838679160302325,0.8481256745090378,0.8481256745090378,0.1089600512977196,6432.361705663142,0.0,3.6936589934658914,3.6936589934658914,4.579475825376618,4.343993859667344,4.343993859667344,0.3348071370540107,6444.249346036289,0.0,0.5099458579864954,0.5099458579864954,0.26587928585884313,1.0370701424744657,1.0370701424744657,-2.143651522851427,6444.249346036289,0.0,0.5099458579864954,0.5099458579864954,0.26587928585884313,1.0370701424744657,1.0370701424744657,-2.143651522851427
5.4999999999999964,0.1,-0.35,0.35,0.15296544646251323,0.0,0.3396137413210414,-0.3396137413210414,-0.10686326957689653,0.0,0.2230232901039183,-0.2230232901039183,0.941091313564857,0.0,0.35,-0.35,0.6198002533081914,0.0,0.35,-0.35,0.6198002533081914,0.0,10.0,10.0,4.0,8.0,8.0,3.7,6.0,6.0,3.4,0.0,0.0,0.0,0.0,0.0,0.0,6400.776888295433,0.0,10.104476955292313,10.104476955292311,9.665354413757358,-3.8876612108211526,-3.887661210821156,-0.8181143155358186,0.0,8.653096347849196,8.653096347849196,7.9519807499834245,0.07242201042642167,0.07242201042642167,1.2511961027492386,6430.03302430077,0.0,4.130614129892185,4.130614129892185,4.683945140336504,4.353867492774936,4.353867492774936,1.7670521981637513,6444.249346036289,0.0,0.6133849103223076,0.6133849103223076,0.003986722232843704,1.0317203118944167,1.0317203118944167,-3.0899881256880204,6444.249346036289,0.0,0.6133849103223076,0.6133849103223076,0.003986722232843704,1.0317203118944167,1.0317203118944167,-3.0899881256880204
5.599999999999996,0.1,-0.35,0.35,1.110557650698141,0.0,0.1973513794830593,-0.1973513794830593,-0.7547921560268964,0.0,0.34734545492479885,-0.34734545492479885,0.18170297608673058,0.0,0.35,-0.35,1.8723119522532337,0.0,0.35,-0.35,1.8723119522532337,0.0,10.0,10.0,4.0,8.0,8.0,3.7,6.0,6.0,3.4,0.0,0.0,0.0,0.0,0.0,0.0,6400.269411147923,0.0,9.725182289569325,9.725182289569323,9.551424600657906,-3.697809732253353,-3.697809732253356,-1.4562887378833622,0.0,8.659950044193762,8.659950044193762,8.028873843627437,0.07239784895470389,0.07239784895470389,0.2667880775694347,6427.697914745744,0.0,4.55570188060067,4.55570188060067,4.926381363272193,4.101383097616456,4.101383097616456,3.0688525928175494,6442.221424274196,0.0,0.6941961250957613,0.6941961250957613,0.007334124951945315,0.5750663972046665,0.5750663972046665,1.8232742798530372,6442.221424274196,0.0,0.6941961250957613,0.6941961250957613,0.007334124951945315,0.5750663972046665,0.5750663972046665,1.8232742798530372
5.699999999999996,0.1,-0.35,0.35,1.9224017403128322,0.0,0.1992655821651941,-0.1992655821651941,-0.3551517089269597,0.0,0.35,-0.35,-0.6562219247694216,0.0,0.3093881944677465,-0.3093881944677465,-2.133889845788329,0.0,0.3093881944677465,-0.3093881944677465,-2.133889845788329,0.0,10.0,10.0,4.0,8.0,8.0,3.7,6.0,6.0,3.4,0.0,0.0,0.0,0.0,0.0,0.0,6396.937688947922,0.0,9.397146609141693,9.397146609141691,9.465521476700543,-2.859640371754726,-2.8596403717547285,-0.24636465043973776,0.0,8.667188519040081,8.667188519040081,8.006510446133825,0.07237165119537041,0.07237165119537041,-0.713627426229024,6427.1656978560495,0.0,4.957848083603273,4.957848083603273,5.204829891114076,3.9361237001582903,3.9361237001582903,2.48112504816843,6438.909001956009,0.0,0.7136039579187266,0.7136039579187266,0.24948704949077474,-0.1934303387739561,-0.19343033877395607,3.0200031511179892,6438.909001956009,0.0,0.7136039579187266,0.7136039579187266,0.24948704949077474,-0.1934303387739561,-0.19343033877395607,3.0200031511179892
5.799999999999995,0.1,-0.35,0.35,0.8450530192972904,0.0,0.2012871155702969,-0.2012871155702969,0.5176443043862774,0.0,0.35,-0.35,-0.6404327234867095,0.0,0.16112304046245224,-0.16112304046245224,-3.0305424261006824,0.0,0.16112304046245224,-0.16112304046245224,-3.0305424261006824,0.0,10.0,10.0,4.0,8.0,8.0,3.7,6.0,6.0,3.4,0.0,0.0,0.0,0.0,0.0,0.0,6393.599761547583,0.0,9.152326606916974,9.152326606916972,9.500902058657198,-2.0395512012545947,-2.0395512012545973,0.9525880783405856,0.0,8.674424375058281,8.674424375058281,7.886378721013796,0.07234547238892966,0.07234547238892966,-1.6870206294815826,6427.1656978560495,0.0,5.347585409622243,5.347585409622243,5.402930848127333,3.860173898649558,3.860173898649558,1.4800801260953111,6438.909001956009,0.0,0.6938819322807157,0.6938819322807157,0.5016932197040312,-0.19323517480819685,-0.19323517480819682,2.0067201717985843,6438.909001956009,0.0,0.6938819322807157,0.6938819322807157,0.5016932197040312,-0.19323517480819685,-0.19323517480819682,2.0067201717985843
5.899999999999995,0.1,-0.35,0.35,0.12591786351882495,0.0,0.20330791949410476,-0.20330791949410476,1.641817541138029,0.0,0.35,-0.35,-0.31795215848712166,0.0,0.15563990607696104,-0.15563990607696104,-2.8641345453638527,0.0,0.15563990607696104,-0.15563990607696104,-2.8641345453638527,0.0,10.0,10.0,4.0,8.0,8.0,3.7,6.0,6.0,3.4,0.0,0.0,0.0,0.0,0.0,0.0,6390.776703200733,0.0,8.982727047393201,8.9827270473932,9.638945650630186,-1.3554048377193497,-1.3554048377193524,1.8026599891852064,0.0,8.668061431351031,8.668061431351031,7.72951039420355,-0.19952803341708353,-0.19952803341708353,-1.4376360729794022,6427.1656978560495,0.0,5.729924356624928,5.729924356624928,5.501542953594242,3.7870801597177746,3.7870801597177746,0.49381685462009584,6438.909001956009,0.0,0.6745677438096246,0.6745677438096246,0.6525981795108203,-0.1930486558556978,-0.19304865585569778,1.0139275943483566,6438.909001956009,0.0,0.6745677438096246,0.6745677438096246,0.6525981795108203,-0.1930486558556978,-0.19304865585569778,1.0139275943483566
5.999999999999995,0.1,-0.35,0.35,-0.43896583354969265,0.0,0.14715159409487205,-0.14715159409487205,1.5921983033516234,0.0,0.35,-0.35,0.0897107366385479,0.0,0.15026923709555534,-0.15026923709555534,-2.5834529503833314,0.0,0.15026923709555534,-0.15026923709555534,-2.5834529503833314,0.0,10.0,10.0,4.0,8.0,8.0,3.7,6.0,6.0,3.4,0.0,0.0,0.0,0.0,0.0,0.0,6390.355895373784,0.0,8.852898437591495,8.852898437591493,9.784020791501806,-1.2470633239877305,-1.2470633239877331,1.0850420312793965,0.0,8.622965704971184,8.622965704971184,7.654482041424119,-0.7023749344326435,-0.7023749344326435,-0.05252690025307513,6427.1656978560495,0.0,6.10509107488982,6.10509107488982,5.50185890904957,3.7167030834997985,3.7167030834997985,-0.487190960774598,6438.909001956009,0.0,0.6552721892386739,0.6552721892386739,0.7048091946207832,-0.19286249662830224,-0.1928624966283022,0.03116634375777591,6438.909001956009,0.0,0.6552721892386739,0.6552721892386739,0.7048091946207832,-0.19286249662830224,-0.1928624966283022,0.03116634375777591
