time , step-size , {uav2}.uav2.batteryCharge , {uav2}.uav2.currentPitch , {uav2}.uav2.currentRoll , {uav2}.uav2.currentYaw , {uav2}.uav2.posX , {uav2}.uav2.posY , {uav2}.uav2.posZ , {uav2}.uav2.velX , {uav2}.uav2.velY , {uav2}.uav2.velZ , {uavCont2}.controller2.pitchOut , {uavCont2}.controller2.rollOut , {uavCont2}.controller2.throttleOut , {uavCont2}.controller2.yawOut , {uavCont}.controller.pitchOut , {uavCont}.controller.rollOut , {uavCont}.controller.throttleOut , {uavCont}.controller.yawOut , {uavGlobalCont}.global.uav1TargetX , {uavGlobalCont}.global.uav1TargetY , {uavGlobalCont}.global.uav1TargetZ , {uavGlobalCont}.global.uav2TargetX , {uavGlobalCont}.global.uav2TargetY , {uavGlobalCont}.global.uav2TargetZ , {uav}.uav.batteryCharge , {uav}.uav.currentPitch , {uav}.uav.currentRoll , {uav}.uav.currentYaw , {uav}.uav.posX , {uav}.uav.posY , {uav}.uav.posZ , {uav}.uav.velX , {uav}.uav.velY , {uav}.uav.velZ
0.0 , 0.0 , 6480.0 , 0.0 , 0.0 , 0.0 , 5.0 , 5.0 , 0.5 , 0.0 , 0.0 , 0.0 , 0.0 , 0.0 , 0.0 , 0.0 , 0.0 , 0.0 , 0.0 , 0.0 , 0.0 , 0.0 , 0.0 , 0.0 , 0.0 , 0.0 , 6480.0 , 0.0 , 0.0 , 0.0 , 5.0 , 5.0 , 0.5 , 0.0 , 0.0 , 0.0
0.05 , 0.05 , 6480.0 , 0.0 , 0.0 , 0.0 , 5.0 , 5.0 , 0.48773978499389453 , 0.0 , 0.0 , -0.4903016023394045 , 0.35 , -0.35 , 0.0 , 0.0 , 0.35 , -0.35 , 0.0 , 0.0 , 0.0 , 0.0 , 0.0 , 4.0 , -2.0 , 4.0 , 6480.0 , 0.0 , 0.0 , 0.0 , 5.0 , 5.0 , 0.48773978499389453 , 0.0 , 0.0 , -0.4903016023394045
0.1 , 0.05 , 6480.0 , 0.13405912801440112 , -0.13405912801440112 , 0.0 , 5.0 , 5.0 , 0.4407069742734344 , 0.0 , 0.0 , -1.0769745290617336 , 0.35 , -0.35 , 0.0 , 0.0 , 0.35 , -0.35 , 0.0 , 0.0 , 0.0 , 0.0 , 0.0 , 4.0 , -2.0 , 4.0 , 6480.0 , 0.13405912801440112 , -0.13405912801440112 , 0.0 , 5.0 , 5.0 , 0.4407069742734344 , 0.0 , 0.0 , -1.0769745290617336
0.15000000000000002 , 0.05 , 6480.0 , 0.20518490623012176 , -0.20518490623012176 , 0.0 , 5.0 , 5.0 , 0.37469146913845064 , 0.0 , 0.0 , -1.563069219085933 , 0.35 , -0.28 , 5.92 , 0.0 , 0.35 , -0.35 , 1.0 , 0.0 , 0.0 , 0.0 , 0.0 , 4.0 , -2.0 , 4.0 , 6480.0 , 0.20518490623012176 , -0.20518490623012176 , 0.0 , 5.0 , 5.0 , 0.37469146913845064 , 0.0 , 0.0 , -1.563069219085933
0.2 , 0.05 , 6478.791189593664 , 0.24480453612151168 , -0.22547714386633091 , 0.0 , 4.996149111685245 , 4.996037688807847 , 0.32215535326386074 , -0.20782808187722684 , -0.2173570035682748 , -1.0072527218481881 , 0.35 , -0.28 , 7.04 , 0.0 , 0.35 , -0.35 , 2.0 , 0.0 , 0.0 , 0.0 , 0.0 , 4.0 , -2.0 , 4.0 , 6478.785492381697 , 0.24480453612151168 , -0.24480453612151168 , 0.0 , 4.996043210791862 , 4.996043210791862 , 0.32213149691038223 , -0.21686129813812988 , -0.21686129813812988 , -1.0093328385385718
0.25 , 0.05 , 6477.239829157565 , 0.27945341553152064 , -0.24343567361288865 , 0.0 , 4.978870604050751 , 4.977499907915533 , 0.28876443338860863 , -0.4865232617567871 , -0.5310767149662281 , -0.3316736396500149 , 0.35 , 0.2 , 7.279999999999999 , 0.0 , 0.35 , -0.35 , 2.0 , 0.0 , 0.0 , 0.0 , 0.0 , 4.0 , -2.0 , 4.0 , 6477.214606747546 , 0.27945341553152064 , -0.27945341553152064 , 0.0 , 4.977578864453702 , 4.977578864453702 , 0.28845285763343914 , -0.5283043795020428 , -0.5283043795020428 , -0.34212765852890514
0.3 , 0.05 , 6475.721738887266 , 0.3026897796095368 , -0.09626275876459273 , 0.0 , 4.948755154391422 , 4.942347165105856 , 0.2890601838476429 , -0.6840599521815293 , -0.8814589692490922 , 0.3478086877757288 , 0.35 , 0.2 , 7.3999999999999995 , 0.0 , 0.35 , -0.35 , 2.0 , 0.0 , 0.0 , 0.0 , 0.0 , 4.0 , -2.0 , 4.0 , 6475.6070011178435 , 0.3026897796095368 , -0.3026897796095368 , 0.0 , 4.942750679708262 , 4.942750679708262 , 0.28760204787387966 , -0.8689396408126938 , -0.8689396408126938 , 0.3051417940777869
0.35 , 0.05 , 6474.300362662647 , 0.3182726389908463 , 0.0013191352034618749 , 0.0 , 4.912766066924892 , 4.88894931261834 , 0.3236521763937574 , -0.7346795905844036 , -1.257703640338119 , 1.0353131873124353 , 0.35 , 0.2 , 6.52 , 0.0 , 0.35 , -0.35 , 1.0 , 0.0 , 0.0 , 0.0 , 0.0 , 4.0 , -2.0 , 4.0 , 6473.976717500374 , 0.3182726389908463 , -0.3182726389908463 , 0.0 , 4.890400135870195 , 4.890400135870195 , 0.31873537096581883 , -1.2275692671239478 , -1.2275692671239478 , 0.9377879307431437
0.39999999999999997 , 0.05 , 6472.877403037729 , 0.3287228757698182 , 0.06675987828876609 , 0.0 , 4.876788365771685 , 4.816375376085922 , 0.3924576601579385 , -0.6906261711680589 , -1.6467882731834944 , 1.714817082509809 , 0.35 , 0.2 , 5.64 , 0.0 , 0.35 , -0.35 , 0.0 , 0.0 , 0.0 , 0.0 , 0.0 , 4.0 , -2.0 , 4.0 , 6472.332122004942 , 0.3287228757698182 , -0.3287228757698182 , 0.0 , 4.819827165310882 , 4.819827165310882 , 0.3811820209119858 , -1.5967366759337471 , -1.5967366759337471 , 1.5579516023135271
0.44999999999999996 , 0.05 , 6471.397632924888 , 0.3357310535415796 , 0.11064599979567959 , 0.0 , 4.844696598359883 , 4.724185039196901 , 0.49492071634367174 , -0.5839194924377646 , -2.0413523616449507 , 2.3811200969887594 , 0.35 , 0.2 , 5.38 , 0.0 , 0.35 , -0.35 , -0.5 , 0.0 , 0.0 , 0.0 , 0.0 , 4.0 , -2.0 , 4.0 , 6472.332122004942 , 0.3357310535415796 , -0.3357310535415796 , 0.0 , 4.739772775859679 , 4.739772775859679 , 0.44779796424832224 , -1.5903272899163852 , -1.5903272899163852 , 1.0629379617930408
0.49999999999999994 , 0.05 , 6469.8824640828625 , 0.34043090453246233 , 0.14007707851080023 , 0.0 , 4.819053225278013 , 4.612224386988371 , 0.6303320743490272 , -0.4357749289009487 , -2.4369784335595264 , 3.0326020220308267 , 0.35 , 0.2 , 5.5 , 0.0 , 0.35 , -0.35 , -0.5 , 0.0 , 0.0 , 0.0 , 0.0 , 4.0 , -2.0 , 4.0 , 6472.332122004942 , 0.34043090453246233 , -0.34043090453246233 , 0.0 , 4.660414081549539 , 4.660414081549539 , 0.4886303936354655 , -1.584029479621321 , -1.584029479621321 , 0.5707222249912187
0.5499999999999999 , 0.05 , 6468.344806940751 , 0.3435827365857965 , 0.15981426112328453 , 0.0 , 4.801554584866803 , 4.480515921626321 , 0.7979353906520951 , -0.26015688046524105 , -2.8308536826252855 , 3.668735644713214 , 0.35 , 0.2 , 5.12 , 0.0 , 0.35 , -0.35 , -0.5 , 0.0 , 0.0 , 0.0 , 0.0 , 4.0 , -2.0 , 4.0 , 6472.332122004942 , 0.3435827365857965 , -0.3435827365857965 , 0.0 , 4.5813690330278725 , 4.5813690330278725 , 0.5048925670149539 , -1.5777813521177375 , -1.5777813521177375 , 0.07990959298067307
0.6 , 0.05 , 6466.79264169084 , 0.345696430256446 , 0.17305048604216303 , 0.0 , 4.793327781351069 , 4.329198177221786 , 0.9969546470329593 , -0.06622950633072955 , -3.2210584597042553 , 4.289172260034525 , 0.35 , 0.2 , 4.74 , 0.0 , 0.35 , -0.35 , 0.0 , 0.0 , 0.0 , 0.0 , 0.0 , 4.0 , -2.0 , 4.0 , 6472.332122004942 , 0.345696430256446 , -0.345696430256446 , 0.0 , 4.502635160836864 , 4.502635160836864 , 0.49662659334010467 , -1.57158232180198 , -1.57158232180198 , -0.4104749324840017
0.65 , 0.05 , 6465.231007735608 , 0.3471139235929382 , 0.18192701383961682 , 0.0 , 4.795126744748933 , 4.158491482260742 , 1.226594490217757 , 0.13999205592943784 , -3.6061926089219107 , 4.893467199207126 , 0.35 , 0.2 , 4.48 , 0.0 , 0.35 , -0.35 , 1.0 , 0.0 , 0.0 , 0.0 , 0.0 , 4.0 , -2.0 , 4.0 , 6472.332122004942 , 0.3471139235929382 , -0.3471139235929382 , 0.0 , 4.424210024568891 , 4.424210024568891 , 0.46386119789696034 , -1.5654318122376027 , -1.5654318122376027 , -0.8998534574664545
0.7000000000000001 , 0.05 , 6463.663142014177 , 0.348064528397646 , 0.1878798248731155 , 0.0 , 4.8074557319907125 , 3.9686774982649635 , 1.4860340240188097 , 0.3543314077615769 , -3.985177183704578 , 5.481047853268968 , 0.35 , 0.2 , 4.6000000000000005 , 0.0 , 0.35 , -0.35 , 1.0 , 0.0 , 0.0 , 0.0 , 0.0 , 4.0 , -2.0 , 4.0 , 6470.6629738006495 , 0.348064528397646 , -0.348064528397646 , 0.0 , 4.336585676157002 , 4.336585676157002 , 0.4329545681311335 , -1.9549116430887992 , -1.9549116430887992 , -0.2930917235329692
0.7500000000000001 , 0.05 , 6462.091150532537 , 0.34870202662883326 , 0.19187192178410684 , 0.0 , 4.830641334686975 , 3.760086140581178 , 1.7744214211837641 , 0.5738108273385075 , -4.357146740524082 , 6.05126055179041 , 0.35 , 0.0 , 3.49 , 0.0 , 0.35 , -0.35 , 1.0 , 0.0 , 0.0 , 0.0 , 0.0 , 4.0 , -2.0 , 4.0 , 6468.993059660673 , 0.34870202662883326 , -0.34870202662883326 , 0.0 , 4.229165854985107 , 4.229165854985107 , 0.433427961346204 , -2.341235873046718 , -2.341235873046718 , 0.3118513912875194
0.8000000000000002 , 0.05 , 6460.542928094649 , 0.3491295481317272 , 0.12820897843139317 , 0.0 , 4.864276395168339 , 3.533047603444872 , 2.090978299527773 , 0.75720292296078 , -4.723820898998817 , 6.6100957117726775 , 0.35 , 0.0 , 3.08 , 0.0 , 0.35 , -0.35 , 1.0 , 0.0 , 0.0 , 0.0 , 0.0 , 4.0 , -2.0 , 4.0 , 6467.322633426521 , 0.3491295481317272 , -0.3491295481317272 , 0.0 , 4.102526929678956 , 4.102526929678956 , 0.4641156950883162 , -2.723515268612582 , -2.723515268612582 , 0.9152423292033777
0.8500000000000002 , 0.05 , 6459.038995502878 , 0.3494162542377132 , 0.08597999564862695 , 0.0 , 4.905383851068728 , 3.28778937953501 , 2.4352615765713863 , 0.8781913304494434 , -5.085307036926626 , 7.1587329993673485 , 0.35 , 0.0 , 1.5300000000000011 , 0.0 , 0.35 , -0.35 , 0.0 , 0.0 , 0.0 , 0.0 , 0.0 , 4.0 , -2.0 , 4.0 , 6465.651864471993 , 0.3494162542377132 , -0.3494162542377132 , 0.0 , 3.9568925557851267 , 3.9568925557851267 , 0.5249015697036716 , -3.100911706552103 , -3.100911706552103 , 1.5154737332292396
0.9000000000000002 , 0.05 , 6457.5661900211335 , 0.34960852618345933 , 0.0576602336449767 , 0.0 , 4.951448820645953 , 3.0246383926350218 , 2.8065944161413974 , 0.9584127209859093 , -5.439242946449617 , 7.69140780053086 , 0.35 , 0.0 , 1.5900000000000007 , 0.0 , 0.35 , -0.35 , 0.0 , 0.0 , 0.0 , 0.0 , 0.0 , 4.0 , -2.0 , 4.0 , 6465.651864471993 , 0.34960852618345933 , -0.34960852618345933 , 0.0 , 3.802051188499103 , 3.802051188499103 , 0.5893846084603518 , -3.0769347215930596 , -3.0769347215930596 , 1.0207402583894045
0.9500000000000003 , 0.05 , 6456.115269039516 , 0.34973746833135616 , 0.038668326497483335 , 0.0 , 5.0007902561241435 , 2.7440057725345732 , 3.2041026122989287 , 1.0112174259396416 , -5.784407234546752 , 8.205401887902687 , 0.19999999999999996 , 0.0 , 1.1500000000000004 , 0.0 , 0.040000000000000036 , -0.040000000000000036 , -0.5 , 0.0 , 0.0 , 0.0 , 0.0 , 4.0 , -2.0 , 4.0 , 6465.651864471993 , 0.34973746833135616 , -0.34973746833135616 , 0.0 , 3.648793275099771 , 3.648793275099771 , 0.6281118100793484 , -3.053446623236894 , -3.053446623236894 , 0.5286920457008163
1.0000000000000002 , 0.05 , 6454.696560108277 , 0.30006883601509626 , 0.02593190106239252 , 0.0 , 5.052283745376537 , 2.4468126196334365 , 3.626973776974689 , 1.0459202709505555 , -6.090377515706429 , 8.709497908447922 , 0.19999999999999996 , 0.0 , 1.2100000000000009 , 0.0 , 0.040000000000000036 , -0.040000000000000036 , -0.5 , 0.0 , 0.0 , 0.0 , 0.0 , 4.0 , -2.0 , 4.0 , 6465.651864471993 , 0.24699672508942108 , -0.24699672508942108 , 0.0 , 3.4967008329231666 , 3.4967008329231666 , 0.6422745358374858 , -3.0303144052511866 , -3.0303144052511866 , 0.037943301710985256
1.0500000000000003 , 0.05 , 6453.317893633252 , 0.2671085456760366 , 0.017390550707010302 , 0.0 , 5.10518973251124 , 2.13587342869426 , 4.0749472096138435 , 1.0685113523165337 , -6.338742639617533 , 9.207496233181958 , -0.28 , -0.35 , -0.4299999999999997 , 0.0 , 0.040000000000000036 , -0.040000000000000036 , 0.0 , 0.0 , 0.0 , 0.0 , 0.0 , 4.0 , -2.0 , 4.0 , 6465.651864471993 , 0.17881693575767973 , -0.17881693575767973 , 0.0 , 3.3457562697341334 , 3.3457562697341334 , 0.63191082450571 , -3.007530040270775 , -3.007530040270775 , -0.45240119871343687
1.1000000000000003 , 0.05 , 6453.317893633252 , 0.08578825688436786 , -0.10443272499779788 , 0.0 , 5.158564750285875 , 1.8211036630190833 , 4.519163698923201 , 1.0656624540740924 , -6.239658941275416 , 8.519534536602446 , -0.28 , -0.35 , -0.39999999999999947 , 0.0 , 0.040000000000000036 , -0.040000000000000036 , 0.0 , 0.0 , 0.0 , 0.0 , 0.0 , 4.0 , -2.0 , 4.0 , 6465.651864471993 , 0.13309394457727397 , -0.13309394457727397 , 0.0 , 3.195942388634357 , 3.195942388634357 , 0.5970521950926372 , -2.9850857405525923 , -2.9850857405525923 , -0.9416381984966581
1.1500000000000004 , 0.05 , 6453.317893633252 , -0.034693679646886244 , -0.18531673448725813 , 0.0 , 5.2117770165097275 , 1.511530014514237 , 4.928564171122332 , 1.0628309071938853 , -6.143821260556984 , 7.861339164440978 , -0.28 , -0.35 , -2.0999999999999996 , 0.0 , 0.040000000000000036 , -0.040000000000000036 , 1.0 , 0.0 , 0.0 , 0.0 , 0.0 , 4.0 , -2.0 , 4.0 , 6465.651864471993 , 0.10243101729377503 , -0.10243101729377503 , 0.0 , 3.0472423763049403 , 3.0472423763049403 , 0.5377838314996918 , -2.9629739491008156 , -2.9629739491008156 , -1.4285780320035832
1.2000000000000004 , 0.05 , 6453.317893633252 , -0.11549173689245329 , -0.23955947839671618 , 0.0 , 5.264848081112836 , 1.2066751616454587 , 5.305703286378493 , 1.0600143677092018 , -6.0508830518305725 , 7.228525177578084 , -0.35 , -0.35 , -1.5999999999999996 , 0.0 , 0.24 , -0.24 , 1.0 , 0.0 , 0.0 , 0.0 , 0.0 , 4.0 , -2.0 , 4.0 , 6464.367124264922 , 0.08186772768126022 , -0.08186772768126022 , 0.0 , 2.896848944062375 , 2.896848944062375 , 0.48367250533563416 , -3.0530223462790826 , -3.0530223462790826 , -0.6868041537637506
1.2500000000000004 , 0.05 , 6453.317893633252 , -0.19289588770923766 , -0.275935954852306 , 0.0 , 5.317778691484414 , 0.9063974068882196 , 5.651775891903312 , 1.0572127166250467 , -5.9607146958472965 , 6.618184440119744 , -0.35 , -0.35 , -2.329999999999999 , 0.0 , -0.24 , 0.24 , 1.0 , 0.0 , 0.0 , 0.0 , 0.0 , 4.0 , -2.0 , 4.0 , 6463.049592822668 , 0.13441763438239504 , -0.13441763438239504 , 0.0 , 2.7417691303570058 , 2.7417691303570058 , 0.46776599015829595 , -3.1624701827385095 , -3.1624701827385095 , 0.04757545265427812
1.3000000000000005 , 0.05 , 6453.317893633252 , -0.24464223912860042 , -0.3003308866708888 , 0.0 , 5.370569589095376 , 0.6105613407718843 , 5.967839411242607 , 1.0544258362011378 , -5.873194185942139 , 6.027718574167354 , -0.35 , -0.35 , -2.3599999999999994 , 0.0 , -0.24 , 0.24 , 1.0 , 0.0 , 0.0 , 0.0 , 0.0 , 4.0 , -2.0 , 4.0 , 6461.807484069688 , 0.009977617229906213 , -0.009977617229906213 , 0.0 , 2.581342407000747 , 2.581342407000747 , 0.4885366053725554 , -3.224231886969051 , -3.224231886969051 , 0.7875469621215722
1.3500000000000005 , 0.05 , 6453.317893633252 , -0.2793445753011794 , -0.31669070918310616 , 0.0 , 5.423221509560643 , 0.3190374752433943 , 6.254828079450772 , 1.0516536099354117 , -5.788206577262123 , 5.454790440058206 , -0.35 , -0.35 , -1.889999999999999 , 0.0 , -0.24 , 0.24 , 0.0 , 0.0 , 0.0 , 0.0 , 0.0 , 4.0 , -2.0 , 4.0 , 6460.639823029748 , -0.07235905390835959 , 0.07235905390835959 , 0.0 , 2.421373363586553 , 2.421373363586553 , 0.5465423657775496 , -3.1563885106461425 , -3.1563885106461425 , 1.530696984115163
1.4000000000000006 , 0.05 , 6453.317893633252 , -0.3026167887578381 , -0.3276619959496212 , 0.0 , 5.475735182700662 , 0.03170190336898346 , 6.513564957699282 , 1.0488959225477894 , -5.705643483130271 , 4.8972835148588985 , -0.35 , -0.35 , -1.9199999999999988 , 0.0 , -0.24 , 0.24 , 0.0 , 0.0 , 0.0 , 0.0 , 0.0 , 4.0 , -2.0 , 4.0 , 6460.639823029748 , -0.12757598733068445 , 0.12757598733068445 , 0.0 , 2.2642617197165005 , 2.2642617197165005 , 0.6119214079701261 , -3.1317043764729013 , -3.1317043764729013 , 1.0358430922503066
1.4500000000000006 , 0.05 , 6453.317893633252 , -0.31822368958661407 , -0.3350196022575881 , 0.0 , 5.528111332602092 , -0.25156401686438545 , 6.744772081275569 , 1.0461526599641968 , -5.62540261390527 , 4.353267599030344 , -0.35 , -0.35 , -2.239999999999999 , 0.0 , -0.24 , 0.24 , -0.5 , 0.0 , 0.0 , 0.0 , 0.0 , 4.0 , -2.0 , 4.0 , 6460.639823029748 , -0.16460577848468322 , 0.16460577848468322 , 0.0 , 2.108286419160377 , 2.108286419160377 , 0.6514021098343674 , -3.1073759637166676 , -3.1073759637166676 , 0.5437359382888763
1.5000000000000007 , 0.05 , 6453.317893633252 , -0.3286900491330695 , -0.3399537883503493 , 0.0 , 5.580350677677717 , -0.530873956667347 , 6.949079025094911 , 1.0434237093008343 , -5.547387354211598 , 3.820969611570689 , -0.35 , -0.35 , -2.299999999999999 , 0.0 , -0.24 , 0.24 , -0.5 , 0.0 , 0.0 , 0.0 , 0.0 , 4.0 , -2.0 , 4.0 , 6460.639823029748 , -0.18943883870592265 , 0.18943883870592265 , 0.0 , 1.9535181230813747 , 1.9535181230813747 , 0.6663163177293046 , -3.083422623494564 , -3.083422623494564 , 0.052965339213743856
1.5500000000000007 , 0.05 , 6453.317893633252 , -0.3357090392168471 , -0.3432627711062812 , 0.0 , 5.632453930725574 , -0.8063368903109965 , 7.127030115457118 , 1.040708958848694 , -5.471506374866229 , 3.29874848546732 , -0.35 , -0.35 , -2.359999999999999 , 0.0 , -0.24 , 0.24 , 0.0 , 0.0 , 0.0 , 0.0 , 0.0 , 4.0 , -2.0 , 4.0 , 6460.639823029748 , -0.2060924805638274 , 0.2060924805638274 , 0.0 , 1.7999382942373594 , 1.7999382942373594 , 0.6567034915224401 , -3.0598357484001957 , -3.0598357484001957 , -0.43739417380861045
1.6000000000000008 , 0.05 , 6453.317893633252 , -0.3404161412017825 , -0.34548185378237195 , 0.0 , 5.684421798987301 , -1.0780573503855102 , 7.279090472414541 , 1.038008298058314 , -5.397673276224629 , 2.7850733678170747 , -0.35 , -0.35 , -1.919999999999999 , 0.0 , -0.35 , 0.35 , 0.0 , 0.0 , 0.0 , 0.0 , 0.0 , 4.0 , -2.0 , 4.0 , 6460.639823029748 , -0.21726080958411254 , 0.21726080958411254 , 0.0 , 1.6475288191768802 , 1.6475288191768802 , 0.6225940859618181 , -3.0366069923984194 , -3.0366069923984194 , -0.9266828359755307
1.6500000000000008 , 0.05 , 6453.317893633252 , -0.3435728359444909 , -0.346970023496916 , 0.0 , 5.736254984205745 , -1.3461356659508101 , 7.40565103120883 , 1.0353216175247766 , -5.325806260017853 , 2.2785044768952765 , -0.35 , -0.35 , -2.799999999999999 , 0.0 , -0.35 , 0.35 , 1.0 , 0.0 , 0.0 , 0.0 , 0.0 , 4.0 , -2.0 , 4.0 , 6460.639823029748 , -0.2612376333835964 , 0.2612376333835964 , 0.0 , 1.496271995418804 , 1.496271995418804 , 0.5640714560256292 , -3.0137282609791582 , -3.0137282609791582 , -1.4137104930789806
1.7000000000000008 , 0.05 , 6453.317893633252 , -0.3456897906504934 , -0.3479680255646838 , 0.0 , 5.787954182681819 , -1.610668184937014 , 7.507032661827684 , 1.0326488089729293 , -5.255827827060291 , 1.777676082264706 , -0.35 , -0.35 , -2.889999999999999 , 0.0 , -0.35 , 0.35 , 1.0 , 0.0 , 0.0 , 0.0 , 0.0 , 4.0 , -2.0 , 4.0 , 6459.0510946795575 , -0.2904738420911441 , 0.2904738420911441 , 0.0 , 1.3538144258670275 , 1.3538144258670275 , 0.5088121155529283 , -2.6675989558841366 , -2.6675989558841366 , -0.7545953897612891
1.7500000000000009 , 0.05 , 6453.317893633252 , -0.34710947091499084 , -0.34863730952976824 , 0.0 , 5.839520085330621 , -1.8717474820283377 , 7.583489481327229 , 1.0299897652428431 , -5.187664498479539 , 1.281281161407612 , -0.35 , -0.35 , -2.979999999999999 , 0.0 , -0.35 , 0.35 , 2.0 , 0.0 , 0.0 , 0.0 , 0.0 , 4.0 , -2.0 , 4.0 , 6457.432535611414 , -0.31008034023356895 , 0.31008034023356895 , 0.0 , 1.2295211476597132 , 1.2295211476597132 , 0.4871538203440956 , -2.301349140253828 , -2.301349140253828 , -0.11448720792627401
1.800000000000001 , 0.05 , 6453.317893633252 , -0.3480615423257248 , -0.3490861473031419 , 0.0 , 5.890953377736841 , -2.1294625531528393 , 7.635211432988598 , 1.0273443802754891 , -5.12124655836034 , 0.7880573529858896 , -0.35 , -0.35 , -2.5699999999999994 , 0.0 , -0.32000000000000006 , 0.32000000000000006 , 1.0 , 0.0 , 0.0 , 0.0 , 0.0 , 4.0 , -2.0 , 4.0 , 6455.795373672816 , -0.3232289250331318 , 0.3232289250331318 , 0.0 , 1.1238686529073156 , 1.1238686529073156 , 0.4971683875228035 , -1.923112636381238 , -1.923112636381238 , 0.5131936441950719
1.850000000000001 , 0.05 , 6453.317893633252 , -0.3487000240978566 , -0.349387148607994 , 0.0 , 5.942254740209449 , -2.3838989976004323 , 7.662326188699695 , 1.0247125490986384 , -5.0565078159077945 , 0.29677387682311307 , -0.35 , -0.35 , -2.249999999999999 , 0.0 , -0.12 , 0.12 , 0.0 , 0.0 , 0.0 , 0.0 , 0.0 , 4.0 , -2.0 , 4.0 , 6454.151893082052 , -0.3220956584798913 , 0.3220956584798913 , 0.0 , 1.0372419628997314 , 1.0372419628997314 , 0.538377377558325 , -1.542898054006768 , -1.542898054006768 , 1.1349416128029668
1.900000000000001 , 0.05 , 6453.317893633252 , -0.34912820518674187 , -0.34958900725469766 , 0.0 , 5.993424847835692 , -2.6351391887016864 , 7.664900482919366 , 1.0220941678129751 , -4.993385385424191 , -0.19375775590589833 , -0.35 , -0.35 , -2.3399999999999994 , 0.0 , -0.12 , 0.12 , 0.0 , 0.0 , 0.0 , 0.0 , 0.0 , 4.0 , -2.0 , 4.0 , 6454.151893082052 , -0.2550652598507685 , 0.2550652598507685 , 0.0 , 0.9606151480767765 , 0.9606151480767765 , 0.5839109618803812 , -1.5370259116159477 , -1.5370259116159477 , 0.6422928253714997
1.950000000000001 , 0.05 , 6453.317893633252 , -0.34941535362680903 , -0.34972437847266974 , 0.0 , 6.044464370534389 , -2.883262433918951 , 7.642958523994937 , 1.0194891335784255 , -4.9318194825620925 , -0.6837282864801184 , -0.35 , -0.35 , -2.4299999999999997 , 0.0 , -0.12 , 0.12 , -0.5 , 0.0 , 0.0 , 0.0 , 0.0 , 4.0 , -2.0 , 4.0 , 6454.151893082052 , -0.21057798132651068 , 0.21057798132651068 , 0.0 , 0.8839111433789455 , 0.8839111433789455 , 0.6037476480355849 , -1.5311424003561456 , -1.5311424003561456 , 0.1513511321919363
2.000000000000001 , 0.05 , 6453.317893633252 , -0.34960792221232895 , -0.3498151616368022 , 0.0 , 6.095373973108563 , -3.128345125128285 , 7.5965544684470725 , 1.0168973446006933 , -4.871753235466067 , -1.172027257374625 , -0.35 , -0.35 , -1.5199999999999996 , 0.0 , -0.35 , 0.35 , 0.0 , 0.0 , 0.0 , 0.0 , 0.0 , 4.0 , -2.0 , 4.0 , 6454.151893082052 , -0.18074375239236648 , 0.18074375239236648 , 0.0 , 0.8075001901582821 , 0.8075001901582821 , 0.5990529045833981 , -1.5253037597661336 , -1.5253037597661336 , -0.33908919951951055
2.0500000000000007 , 0.05 , 6453.317893633252 , -0.3497572568329524 , -0.349885562888066 , 0.0 , 6.15629493019251 , -3.4185342892888113 , 7.508743132927244 , 1.0138045397657434 , -4.801577246051916 , -1.754119198061514 , -0.35 , -0.35 , -0.6999999999999993 , 0.0 , -0.35 , 0.35 , 1.0 , 0.0 , 5.0 , 5.0 , 0.0 , 4.0 , -2.0 , 4.0 , 6454.151893082052 , -0.24570366530043203 , 0.24570366530043203 , 0.0 , 0.7161907351882444 , 0.7161907351882444 , 0.5610763881493709 , -1.51835590089412 , -1.51835590089412 , -0.9264035010728889
2.1000000000000005 , 0.05 , 6453.317893633252 , -0.34983721064856893 , -0.34992325574615357 , 0.0 , 6.206921023720553 , -3.6571831846126766 , 7.409002990646288 , 1.0112415371060388 , -4.744623302083742 , -2.2346249197536774 , -0.35 , -0.35 , -0.7899999999999996 , 0.0 , -0.35 , 0.35 , 1.0 , 0.0 , 5.0 , 5.0 , 0.0 , 4.0 , -2.0 , 4.0 , 6452.580011491398 , -0.2800563929815944 , 0.2800563929815944 , 0.0 , 0.6477449498474915 , 0.6477449498474915 , 0.5303140220882817 , -1.2015807257159672 , -1.2015807257159672 , -0.2617775660304129
2.1500000000000004 , 0.05 , 6453.317893633252 , -0.3498908295823044 , -0.3499485334748587 , 0.0 , 6.2574192907165616 , -3.8930179785416135 , 7.28536611441414 , 1.008691460835863 , -4.689004633388975 , -2.70979368059584 , -0.35 , -0.35 , -0.8799999999999994 , 0.0 , -0.35 , 0.35 , 1.15 , 0.0 , 5.0 , 5.0 , 0.0 , 4.0 , -2.0 , 4.0 , 6450.971797384605 , -0.3030941506541225 , 0.3030941506541225 , 0.0 , 0.5961789817483271 , 0.5961789817483271 , 0.5334216770599431 , -0.8570954668835917 , -0.8570954668835917 , 0.38315180851028025
2.2 , 0.05 , 6453.317893633252 , -0.3499267877167943 , -0.34996548532199667 , 0.0 , 6.307790375056964 , -4.126104264639873 , 7.138125983983443 , 1.0061542134107122 , -4.634674826294946 , -3.1785700696961623 , -0.35 , -0.35 , 0.030000000000000693 , 0.0 , -0.35 , 0.35 , 1.3 , 0.0 , 5.0 , 5.0 , 0.0 , 4.0 , -2.0 , 4.0 , 6449.341133216464 , -0.3185438198479071 , 0.3185438198479071 , 0.0 , 0.5623170923941138 , 0.5623170923941138 , 0.5683958663019395 , -0.49480713597230175 , -0.49480713597230175 , 1.0133891961896495
2.25 , 0.05 , 6453.267750973235 , -0.34995090209852325 , -0.3499768536345828 , 0.0 , 6.357748120021454 , -4.356220146939286 , 6.968410335858342 , 0.9916905636186519 , -4.569753992206845 , -3.6074415451683124 , -0.35 , -0.35 , 0.8500000000000005 , 0.0 , -0.35 , 0.35 , 0.09999999999999998 , 0.0 , 5.0 , 5.0 , 0.0 , 4.0 , -2.0 , 4.0 , 6447.696295104348 , -0.3289047361137297 , 0.3289047361137297 , 0.0 , 0.5468840610935387 , 0.5468840610935387 , 0.6345596140738657 , -0.12078278993329719 , -0.12078278993329719 , 1.631009351071828
2.3 , 0.05 , 6451.847030232033 , -0.349967073777461 , -0.349984477495865 , 0.0 , 6.399132377066973 , -4.5753171209588706 , 6.798864664334819 , 0.6508718496648954 , -4.182659595902658 , -3.140169041991958 , -0.35 , -0.35 , 0.7600000000000007 , 0.0 , -0.35 , 0.35 , 0.25 , 0.0 , 5.0 , 5.0 , 0.0 , 4.0 , -2.0 , 4.0 , 6447.530900973712 , -0.3358530134212189 , 0.3358530134212189 , 0.0 , 0.5421383588319384 , 0.5421383588319384 , 0.707464085584377 , -0.0825497350245628 , -0.0825497350245628 , 1.245751010691177
2.3499999999999996 , 0.05 , 6450.576731526426 , -0.34997791889066376 , -0.34998959023888726 , 0.0 , 6.424041851815458 , -4.775799509903558 , 6.651026028482541 , 0.3470829289066465 , -3.839306394436288 , -2.7782707741501826 , -0.35 , -0.35 , 1.9000000000000004 , 0.0 , -0.35 , 0.35 , 0.4 , 0.0 , 5.0 , 5.0 , 0.0 , 4.0 , -2.0 , 4.0 , 6447.115935072408 , -0.3405126937335697 , 0.3405126937335697 , 0.0 , 0.5403710313534172 , 0.5403710313534172 , 0.7641271701473711 , 0.014366886464684432 , 0.014366886464684429 , 1.0274411573539202
2.3999999999999995 , 0.05 , 6448.905279491056 , -0.34998519188197363 , -0.3499930189661744 , 0.0 , 6.4315167789252286 , -4.95703167873233 , 6.527325136300039 , -0.05185127852939325 , -3.4075891462604315 , -2.160715800314451 , -0.35 , -0.35 , 1.8400000000000003 , 0.0 , -0.35 , 0.35 , 0.55 , 0.0 , 5.0 , 5.0 , 0.0 , 4.0 , -2.0 , 4.0 , 6446.4504340022395 , -0.3436375863727721 , 0.3436375863727721 , 0.0 , 0.544938457836516 , 0.544938457836516 , 0.8139991636625797 , 0.17087026966500385 , 0.17087026966500385 , 0.9738964235089856
2.4499999999999993 , 0.05 , 6447.233823183865 , -0.3499900693232326 , -0.3499953183523862 , 0.0 , 6.418956498464277 , -5.116771773251727 , 6.434583341720248 , -0.450462626985598 , -2.9832433280276227 , -1.5500007904417572 , -0.35 , -0.35 , 0.7200000000000006 , 0.0 , -0.35 , 0.35 , 1.3499999999999999 , 0.0 , 5.0 , 5.0 , 0.0 , 4.0 , -2.0 , 4.0 , 6445.53395607435 , -0.34573321383044525 , 0.34573321383044525 , 0.0 , 0.5588287439964958 , 0.5588287439964958 , 0.8652853278355641 , 0.38723851592852143 , 0.38723851592852143 , 1.083852811432042
2.499999999999999 , 0.05 , 6446.030372580079 , -0.34999334025155104 , -0.34999686037556504 , 0.0 , 6.389162724070925 , -5.258125530083652 , 6.364921170985413 , -0.7366687274986562 , -2.6761398340068774 , -1.2490853698734612 , -0.35 , -0.35 , 0.6600000000000006 , 0.0 , -0.35 , 0.35 , 1.4999999999999998 , 0.0 , 5.0 , 5.0 , 0.0 , 4.0 , -2.0 , 4.0 , 6443.865925314391 , -0.34713859153406906 , 0.34713859153406906 , 0.0 , 0.5878749927309445 , 0.5878749927309445 , 0.9340039761555394 , 0.7817372135896056 , 0.7817372135896056 , 1.6836139517549038
2.549999999999999 , 0.05 , 6444.927208258659 , -0.34999553381401466 , -0.3499978944930491 , 0.0 , 6.345768550107149 , -5.384911397451278 , 6.308379812306132 , -0.9979352064685887 , -2.3968892779259585 , -1.015434266607847 , -0.35 , -0.35 , -0.39999999999999947 , 0.0 , -0.35 , 0.35 , 1.1499999999999997 , 0.0 , 5.0 , 5.0 , 0.0 , 4.0 , -2.0 , 4.0 , 6442.196757199077 , -0.3480810713067078 , 0.3480810713067078 , 0.0 , 0.6368168053469446 , 0.6368168053469446 , 1.033056087553556 , 1.1757421160315915 , 1.1757421160315915 , 2.277256336092645
2.5999999999999988 , 0.05 , 6444.927208258659 , -0.3499970048692667 , -0.3499985879968728 , 0.0 , 6.295671841484202 , -5.504137509770296 , 6.246150049790384 , -0.9954252212818109 , -2.3826742438062776 , -1.5019982475005926 , -0.35 , -0.35 , -0.4599999999999995 , 0.0 , -0.35 , 0.35 , 1.2999999999999996 , 0.0 , 5.0 , 5.0 , 0.0 , 4.0 , -2.0 , 4.0 , 6440.526829754556 , -0.34871312069780214 , 0.34871312069780214 , 0.0 , 0.7054231307047325 , 0.7054231307047325 , 1.1616102786104574 , 1.5681269028401958 , 1.5681269028401958 , 2.863443228766892
2.6499999999999986 , 0.05 , 6444.927208258659 , -0.3499979913939682 , -0.3499990530770605 , 0.0 , 6.245962411415426 , -5.622917748086786 , 6.158959939195084 , -0.9929541926228536 , -2.3685654589805196 , -1.984849497759786 , -0.35 , -0.35 , -0.5799999999999996 , 0.0 , -0.35 , 0.35 , -0.16000000000000036 , 0.0 , 5.0 , 5.0 , 0.0 , 4.0 , -2.0 , 4.0 , 6438.8563946197755 , -0.34913698807870547 , 0.34913698807870547 , 0.0 , 0.793587487333348 , 0.793587487333348 , 1.319258498542989 , 1.9578936665001534 , 1.9578936665001534 , 3.4407652607114696
2.6999999999999984 , 0.05 , 6444.927208258659 , -0.3499986529809379 , -0.3499993649709153 , 0.0 , 6.196376226426744 , -5.740996713042769 , 6.047741445224307 , -0.9904954016719929 , -2.3546227781360884 , -2.4629342262967717 , -0.35 , -0.35 , -0.6399999999999997 , 0.0 , -0.35 , 0.35 , -0.04000000000000026 , 0.0 , 5.0 , 5.0 , 0.0 , 4.0 , -2.0 , 4.0 , 6438.8563946197755 , -0.3494212436434214 , 0.3494212436434214 , 0.0 , 0.8916379352138769 , 0.8916379352138769 , 1.479440669014106 , 1.9482789705511616 , 1.9482789705511616 , 2.924526253945212
2.7499999999999982 , 0.05 , 6444.927208258659 , -0.34999909665692286 , -0.3499995741343656 , 0.0 , 6.146912676903945 , -5.858382636623156 , 5.912760187859912 , -0.988048757743387 , -2.3408432851066863 , -2.93516968040501 , -0.35 , -0.35 , -0.6999999999999997 , 0.0 , -0.35 , 0.35 , -0.42000000000000015 , 0.0 , 5.0 , 5.0 , 0.0 , 4.0 , -2.0 , 4.0 , 6438.8563946197755 , -0.34961187219780504 , 0.34961187219780504 , 0.0 , 0.9888153838654223 , 0.9888153838654223 , 1.6129271485823171 , 1.938835496188994 , 1.938835496188994 , 2.4161559322708097
2.799999999999998 , 0.05 , 6444.927208258659 , -0.34999939419660936 , -0.3499997144043589 , 0.0 , 6.0975711577447145 , -5.975083606710174 , 5.75433459981475 , -0.9856141710450056 , -2.32722413159146 , -3.4005276973635508 , -0.35 , -0.35 , 0.2400000000000002 , 0.0 , -0.35 , 0.35 , 0.19999999999999996 , 0.0 , 5.0 , 5.0 , 0.0 , 4.0 , -2.0 , 4.0 , 6438.8563946197755 , -0.34973971224829864 , 0.34973971224829864 , 0.0 , 1.0855229423863346 , 1.0855229423863346 , 1.7211538619299118 , 1.9294831268206505 , 1.9294831268206505 , 1.9138924633610943
2.849999999999998 , 0.05 , 6444.526056742968 , -0.3499995937338123 , -0.3499998084727584 , 0.0 , 6.046057942156132 , -6.0888188632798785 , 5.5790909774928386 , -1.0786495697776746 , -2.218594554117749 , -3.5981641409721203 , -0.35 , -0.35 , 2.3800000000000003 , 0.0 , -0.35 , 0.35 , 0.9400000000000002 , 0.0 , 5.0 , 5.0 , 0.0 , 4.0 , -2.0 , 4.0 , 6438.522143197262 , -0.34982544483208217 , 0.34982544483208217 , 0.0 , 1.1836715578601749 , 1.1836715578601749 , 1.8096210641381805 , 1.9995174483030798 , 1.9995174483030798 , 1.633951291080089
2.8999999999999977 , 0.05 , 6442.854591977065 , -0.34999972754821473 , -0.34999987155726847 , 0.0 , 5.9825510611986665 , -6.189808780834977 , 5.414129665179058 , -1.4732651090125497 , -1.8096720757065754 , -2.969146258111488 , -0.35 , -0.35 , 2.3500000000000005 , 0.0 , -0.35 , 0.35 , 1.0600000000000003 , 0.0 , 5.0 , 5.0 , 0.0 , 4.0 , -2.0 , 4.0 , 6436.951097123564 , -0.3498829391454355 , 0.3498829391454355 , 0.0 , 1.2924367855803423 , 1.2924367855803423 , 1.90370894137268 , 2.3621380932157923 , 2.3621380932157923 , 2.160878017501575
2.9499999999999975 , 0.05 , 6441.18312713257 , -0.34999981728734136 , -0.34999991386324397 , 0.0 , 5.899081897443707 , -6.270149373271946 , 5.281193104623652 , -1.864905444425901 , -1.404546673664636 , -2.3498231043126947 , -0.35 , -0.16000000000000003 , 2.3200000000000003 , 0.0 , -0.35 , 0.35 , 1.1800000000000004 , 0.0 , 5.0 , 5.0 , 0.0 , 4.0 , -2.0 , 4.0 , 6435.279725589731 , -0.34992149620183216 , 0.34992149620183216 , 0.0 , 1.4200933071057422 , 1.4200933071057422 , 2.0263727811878662 , 2.7441962556389226 , 2.7441962556389226 , 2.7469656007256815
2.9999999999999973 , 0.05 , 6439.528600527287 , -0.34999987746853783 , -0.2869768105103998 , 0.0 , 5.796672779065378 , -6.330239708748709 , 5.179220738764022 , -2.2172830409290016 , -0.9978827692304446 , -1.7257681693435392 , -0.35 , 0.12 , 1.2900000000000003 , 0.0 , -0.35 , 0.35 , 0.8000000000000005 , 0.0 , 5.0 , 5.0 , 0.0 , 4.0 , -2.0 , 4.0 , 6433.608323264211 , -0.3499473534825138 , 0.3499473534825138 , 0.0 , 1.5667488588198206 , 1.5667488588198206 , 2.178209452122424 , 3.121027727656796 , 3.121027727656796 , 3.32489670128325
3.049999999999997 , 0.05 , 6437.937721283913 , -0.349999917827482 , -0.15227748036319222 , 0.0 , 5.679172665015369 , -6.369795880641576 , 5.1090068748665525 , -2.4532055395860937 , -0.5822963011794023 , -1.0771305387025172 , -0.35 , 0.32000000000000006 , 0.2300000000000002 , 0.0 , -0.35 , 0.35 , -0.7199999999999998 , 0.0 , 5.0 , 5.0 , 0.0 , 4.0 , -2.0 , 4.0 , 6432.271184886141 , -0.34996469399101565 , 0.34996469399101565 , 0.0 , 1.730199681580285 , 1.730199681580285 , 2.3534968294857816 , 3.412972314163011 , 3.412972314163011 , 3.6767859061561836
3.099999999999997 , 0.05 , 6437.599420533555 , -0.3499999448931516 , 0.003744373030791278 , 0.0 , 5.556094858981931 , -6.39614395229983 , 5.050496087738945 , -2.456747123325642 , -0.4843698351999782 , -1.2978203167266156 , -0.35 , 0.32000000000000006 , 0.20000000000000018 , 0.0 , -0.35 , 0.35 , -0.6299999999999999 , 0.0 , 5.0 , 5.0 , 0.0 , 4.0 , -2.0 , 4.0 , 6432.271184886141 , -0.34997632294917264 , 0.34997632294917264 , 0.0 , 1.9004385568208642 , 1.9004385568208642 , 2.525163285344174 , 3.3839900938859295 , 3.3839900938859295 , 3.1567411999233985
3.149999999999997 , 0.05 , 6437.307013362804 , -0.34999996304403447 , 0.10791144143452422 , 0.0 , 5.433869695976165 , -6.418217882790294 , 4.9793007243003204 , -2.427972865711105 , -0.39922187260481934 , -1.55131312664668 , -0.35 , 0.32000000000000006 , 0.17000000000000015 , 0.0 , -0.35 , 0.35 , -0.54 , 0.0 , 5.0 , 5.0 , 0.0 , 4.0 , -2.0 , 4.0 , 6432.271184886141 , -0.3499841216055848 , 0.3499841216055848 , 0.0 , 2.0689262024408963 , 2.0689262024408963 , 2.670177386589293 , 3.3556018459834815 , 3.3556018459834815 , 2.6451597740648674
3.1999999999999966 , 0.05 , 6437.045590213097 , -0.349999975216449 , 0.17776835939503857 , 0.0 , 5.313493160447138 , -6.436370627720778 , 4.894571188547755 , -2.3848704764599407 , -0.32754769367497844 , -1.8391701992460818 , -0.35 , 0.32000000000000006 , 0.14000000000000012 , 0.0 , -0.35 , 0.35 , -0.4500000000000002 , 0.0 , 5.0 , 5.0 , 0.0 , 4.0 , -2.0 , 4.0 , 6432.271184886141 , -0.34998935157038585 , 0.34998935157038585 , 0.0 , 2.236006297522882 , 2.236006297522882 , 2.7897867312448525 , 3.327685931953753 , 3.327685931953753 , 2.140302408977654
3.2499999999999964 , 0.05 , 6436.824080235833 , -0.3499999833795602 , 0.22461607299323702 , 0.0 , 5.195392826940494 , -6.451272833843588 , 4.79461092921793 , -2.3381423885397674 , -0.2691577764943378 , -2.160307342227381 , -0.35 , 0.32000000000000006 , 1.34 , 0.0 , -0.24 , 0.24 , 0.22999999999999954 , 0.0 , 5.0 , 5.0 , 0.0 , 4.0 , -2.0 , 4.0 , 6432.271184886141 , -0.3499928589093908 , 0.3499928589093908 , 0.0 , 2.4017021647265144 , 2.4017021647265144 , 2.884293539899613 , 3.3002306607894103 , 3.3002306607894103 , 1.6408209818959878
3.2999999999999963 , 0.05 , 6435.215026183132 , -0.34999998885393707 , 0.25603326592779163 , 0.0 , 5.085368282503987 , -6.454773087429525 , 4.701854379572419 , -2.0481558038363135 , 0.14275313876904072 , -1.513770493755193 , -0.35 , 0.32000000000000006 , 1.34 , 0.0 , -0.24 , 0.24 , 0.3199999999999994 , 0.0 , 5.0 , 5.0 , 0.0 , 4.0 , -2.0 , 4.0 , 6431.891187945062 , -0.3135081347530918 , 0.3135081347530918 , 0.0 , 2.5681601972675097 , 2.5681601972675097 , 2.9599972913635515 , 3.359969995433375 , 3.359969995433375 , 1.3989194420674502
3.349999999999996 , 0.05 , 6433.589327349119 , -0.3499999925251846 , 0.2771023840570696 , 0.0 , 4.990765130362145 , -6.43740306480301 , 4.642057814752517 , -1.732259142702655 , 0.5514877787224783 , -0.8799629045736528 , -0.35 , 0.32000000000000006 , 2.34 , 0.0 , -0.24 , 0.24 , 0.9099999999999993 , 0.0 , 5.0 , 5.0 , 0.0 , 4.0 , -2.0 , 4.0 , 6431.373432392806 , -0.28929630657334643 , 0.28929630657334643 , 0.0 , 2.738242153047362 , 2.738242153047362 , 3.0264675315051317 , 3.442929842733407 , 3.442929842733407 , 1.2650465332842464
3.399999999999996 , 0.05 , 6431.953082343405 , -0.3499999949872107 , 0.29123183666826175 , 0.0 , 4.912404359832266 , -6.399674875178427 , 4.6137246151356095 , -1.3998081739809853 , 0.9570539155909799 , -0.25453895062294424 , -0.35 , 0.32000000000000006 , 1.34 , 0.0 , -0.24 , 0.24 , 0.9999999999999991 , 0.0 , 5.0 , 5.0 , 0.0 , 4.0 , -2.0 , 4.0 , 6429.923314322944 , -0.2730592777239684 , 0.2730592777239684 , 0.0 , 2.916968260322595 , 2.916968260322595 , 3.1025920255354493 , 3.7103995705966404 , 3.7103995705966404 , 1.8076775765591617
3.4499999999999957 , 0.05 , 6430.310043928893 , -0.349999996638304 , 0.3007073842382619 , 0.0 , 4.850951245848502 , -6.341751791517162 , 4.616527090719716 , -1.0568058888916698 , 1.359231293759048 , 0.3659675394535032 , -0.35 , 0.35 , 0.3400000000000001 , 0.0 , -0.24 , 0.24 , -0.08000000000000096 , 0.0 , 5.0 , 5.0 , 0.0 , 4.0 , -2.0 , 4.0 , 6428.3471217787655 , -0.2621703393134404 , 0.2621703393134404 , 0.0 , 3.1094815756139544 , 3.1094815756139544 , 3.209082036875432 , 3.988226194486543 , 3.988226194486543 , 2.4560111151403055
3.4999999999999956 , 0.05 , 6429.748941255765 , -0.3499999977455666 , 0.3170129330020646 , 0.0 , 4.801377749028686 , -6.270210752534528 , 4.632701612366443 , -0.9341551480819323 , 1.4914353091288486 , 0.2513999483119365 , -0.35 , 0.35 , 0.3400000000000001 , 0.0 , -0.24 , 0.24 , -0.02000000000000135 , 0.0 , 5.0 , 5.0 , 0.0 , 4.0 , -2.0 , 4.0 , 6428.3471217787655 , -0.25486795777503396 , 0.25486795777503396 , 0.0 , 3.308209652529872 , 3.308209652529872 , 3.320432266217801 , 3.948732159385012 , 3.948732159385012 , 1.953033087455297
3.5499999999999954 , 0.05 , 6429.1853315897115 , -0.3499999984881233 , 0.32787808691993314 , 0.0 , 4.75783397556668 , -6.192365956118071 , 4.642375428367566 , -0.8069630481482637 , 1.622083097495822 , 0.1353251586335056 , -0.35 , 0.35 , -0.6599999999999999 , 0.0 , 0.040000000000000036 , -0.040000000000000036 , -0.46000000000000174 , 0.0 , 5.0 , 5.0 , 0.0 , 4.0 , -2.0 , 4.0 , 6428.3471217787655 , -0.24997080672852762 , 0.24997080672852762 , 0.0 , 3.5046778457055257 , 3.5046778457055257 , 3.405619642947482 , 3.9101321104692333 , 3.9101321104692333 , 1.4552266420994604
3.599999999999995 , 0.05 , 6429.1853315897115 , -0.3499999989860994 , 0.3351645180108718 , 0.0 , 4.717653240758711 , -6.111290232036182 , 4.637253287751816 , -0.8053484996458408 , 1.6155097052801215 , -0.3551078934383392 , -0.35 , 0.2 , -0.6599999999999999 , 0.0 , 0.040000000000000036 , -0.040000000000000036 , 0.09999999999999787 , 0.0 , 5.0 , 5.0 , 0.0 , 4.0 , -2.0 , 4.0 , 6428.3471217787655 , -0.15381046643708118 , 0.15381046643708118 , 0.0 , 3.699234818763657 , 3.699234818763657 , 3.466012608703791 , 3.8722794081445784 , 3.8722794081445784 , 0.9610304916776805
3.649999999999995 , 0.05 , 6429.1853315897115 , -0.3499999993200541 , 0.2902958683144497 , 0.0 , 4.677426300252693 , -6.03067744328772 , 4.6072525135192475 , -0.8037302923796474 , 1.6090112751244303 , -0.8446599091291035 , -0.35 , 0.2 , 0.3400000000000001 , 0.0 , 0.040000000000000036 , -0.040000000000000036 , 0.7199999999999971 , 0.0 , 5.0 , 5.0 , 0.0 , 4.0 , -2.0 , 4.0 , 6428.21330665694 , -0.08997391652906504 , 0.08997391652906504 , 0.0 , 3.8922968076334206 , 3.8922968076334206 , 3.504674124571274 , 3.8496426608310927 , 3.8496426608310927 , 0.5908522811071084
3.699999999999995 , 0.05 , 6428.631133648233 , -0.3499999995440121 , 0.2605545606848419 , 0.0 , 4.639889632741381 , -5.947070847201694 , 4.561917239672603 , -0.6953312460787519 , 1.7407743441891241 , -0.9529757369850635 , -0.35 , 0.2 , 0.3400000000000001 , 0.0 , 0.040000000000000036 , -0.040000000000000036 , 0.7799999999999967 , 0.0 , 5.0 , 5.0 , 0.0 , 4.0 , -2.0 , 4.0 , 6427.323326908132 , -0.04716360518841535 , 0.04716360518841535 , 0.0 , 4.08543692747519 , 4.08543692747519 , 3.5432916725572388 , 3.8718088514690594 , 3.8718088514690594 , 0.9848779878661401
3.7499999999999947 , 0.05 , 6428.082167077552 , -0.34999999969420365 , 0.24060933117077526 , 0.0 , 4.6076260901290675 , -5.8567423030717185 , 4.511623788485781 , -0.5966436958921253 , 1.8722810219839174 , -1.05831811376151 , -0.35 , 0.2 , 0.3400000000000001 , 0.0 , 0.040000000000000036 , -0.040000000000000036 , 0.8399999999999963 , 0.0 , 5.0 , 5.0 , 0.0 , 4.0 , -2.0 , 4.0 , 6426.416023081234 , -0.018453990403089683 , 0.018453990403089683 , 0.0 , 4.278976715141845 , 4.278976715141845 , 3.604192091834241 , 3.864966523394302 , 3.864966523394302 , 1.453892518973942
3.7999999999999945 , 0.05 , 6427.536895870864 , -0.3499999997949257 , 0.22723358504276142 , 0.0 , 4.5801207917621305 , -5.759853512838424 , 4.4561186025718165 , -0.5045404929149988 , 2.0031219711704114 , -1.1615684046132893 , -0.35 , 0.2 , 0.3400000000000001 , 0.0 , 0.32000000000000006 , -0.32000000000000006 , 0.8999999999999959 , 0.0 , 5.0 , 5.0 , 0.0 , 4.0 , -2.0 , 4.0 , 6425.481464767966 , 7.993613084440678E-4 , -7.993613084440678E-4 , 0.0 , 4.4715948400951095 , 4.4715948400951095 , 3.6903408180537323 , 3.8363096681671918 , 3.8363096681671918 , 1.9942277508120567
3.8499999999999943 , 0.05 , 6426.994186396624 , -0.34999999986247227 , 0.2182634909982232 , 0.0 , 4.557101173298032 , -5.656445404144631 , 4.395491805775167 , -0.41690375725914924 , 2.133011152655961 , -1.263254239106732 , -0.35 , 0.2 , 1.34 , 0.0 , 0.32000000000000006 , -0.32000000000000006 , 0.5199999999999951 , 0.0 , 5.0 , 5.0 , 0.0 , 4.0 , -2.0 , 4.0 , 6424.391219872987 , 0.10658731181730126 , -0.10658731181730126 , 0.0 , 4.661525121134303 , 4.661525121134303 , 3.8051715547700287 , 3.7387109780620325 , 3.7387109780620325 , 2.5983262682878236
3.899999999999994 , 0.05 , 6425.403144818341 , -0.34999999990777064 , 0.2122479322101163 , 0.0 , 4.542323458576621 , -5.540034600310642 , 4.3477502652066455 , -0.168870601960016 , 2.5335606621095934 , -0.6168344053005119 , -0.35 , 0.2 , 1.34 , 0.0 , 0.32000000000000006 , -0.32000000000000006 , 0.5799999999999947 , 0.0 , 5.0 , 5.0 , 0.0 , 4.0 , -2.0 , 4.0 , 6423.671996599452 , 0.17688036652496067 , -0.17688036652496067 , 0.0 , 4.845465802550104 , 4.845465802550104 , 3.93863769750906 , 3.6134999048670804 , 3.6134999048670804 , 2.719227837757436
3.949999999999994 , 0.05 , 6423.815614779487 , -0.3499999999381488 , 0.2082137551598541 , 0.0 , 4.539955158233342 , -5.403437537297538 , 4.3330445914004105 , 0.07329523669310858 , 2.929405304213258 , 0.02858812073959091 , -0.35 , 0.2 , 1.34 , 0.0 , 0.32000000000000006 , -0.32000000000000006 , 0.13999999999999435 , 0.0 , 5.0 , 5.0 , 0.0 , 4.0 , -2.0 , 4.0 , 6422.8129623791665 , 0.2240205638172072 , -0.2240205638172072 , 0.0 , 5.02197714571307 , 5.02197714571307 , 4.079039401037022 , 3.441388859902334 , 3.441388859902334 , 2.8968617182028593
3.999999999999994 , 0.05 , 6422.230461768983 , -0.3499999999585211 , 0.2055083399114755 , 0.0 , 4.549591083471445 , -5.247182336234383 , 4.350611816018662 , 0.3115420416497293 , 3.3197397060612075 , 0.6739925904124388 , -0.35 , 0.2 , 0.3400000000000001 , 0.0 , 0.32000000000000006 , -0.32000000000000006 , 0.19999999999999396 , 0.0 , 5.0 , 5.0 , 0.0 , 4.0 , -2.0 , 4.0 , 6422.597387733779 , 0.2556339032857192 , -0.2556339032857192 , 0.0 , 5.192219059869165 , 5.192219059869165 , 4.21573605096219 , 3.372313061611022 , 3.372313061611022 , 2.550807613278523
4.049999999999994 , 0.05 , 6421.692055111471 , -0.34999999997218323 , 0.20369402398657482 , 0.0 , 4.567324699591054 , -5.07810231755551 , 4.382432978915481 , 0.3913991398856369 , 3.432230419910175 , 0.5689637663842775 , -0.35 , 0.0 , -0.6599999999999999 , 0.0 , 0.35 , -0.35 , -0.9400000000000057 , 0.0 , 5.0 , 5.0 , 0.0 , 4.0 , -2.0 , 4.0 , 6422.282219502988 , 0.27683456195406464 , -0.27683456195406464 , 0.0 , 5.358601670688803 , 5.358601670688803 , 4.336327136356534 , 3.281727668397264 , 3.281727668397264 , 2.2757188601924594
4.099999999999993 , 0.05 , 6421.692055111471 , -0.3499999999813454 , 0.13613716184227453 , 0.0 , 4.586964807548327 , -4.907083863645419 , 4.398993039062633 , 0.39101337927156793 , 3.4029826919782216 , 0.07813316540646235 , -0.35 , 0.0 , -0.6599999999999999 , 0.0 , 0.35 , -0.35 , -0.9100000000000055 , 0.0 , 5.0 , 5.0 , 0.0 , 4.0 , -2.0 , 4.0 , 6422.282219502988 , 0.30100324958340996 , -0.30100324958340996 , 0.0 , 5.5219543212269295 , 5.5219543212269295 , 4.437796897535178 , 3.2550434900805816 , 3.2550434900805816 , 1.7748677874185796
4.149999999999993 , 0.05 , 6421.692055111471 , -0.3499999999874898 , 0.09129682434119676 , 0.0 , 4.606505926769729 , -4.737654579403226 , 4.39063826697238 , 0.3906315239019802 , 3.3742762448101256 , -0.41224977797097534 , -0.35 , 0.0 , -0.6599999999999999 , 0.0 , 0.35 , -0.35 , -0.8800000000000052 , 0.0 , 5.0 , 5.0 , 0.0 , 4.0 , -2.0 , 4.0 , 6422.282219502988 , 0.31714161177199 , -0.31714161177199 , 0.0 , 5.684047718608996 , 5.684047718608996 , 4.514113868510172 , 3.2287690825389292 , 3.2287690825389292 , 1.2784942359925173
4.199999999999993 , 0.05 , 6421.692055111471 , -0.3499999999916104 , 0.061225825645198996 , 0.0 , 4.626027971859875 , -4.569648556207952 , 4.357784255169632 , 0.39025041362842944 , 3.346050061639363 , -0.9016224891387831 , -0.24 , 0.0 , -0.6599999999999999 , 0.0 , 0.35 , -0.35 , -0.350000000000005 , 0.0 , 5.0 , 5.0 , 0.0 , 4.0 , -2.0 , 4.0 , 6422.282219502988 , 0.3279643819689509 , -0.3279643819689509 , 0.0 , 5.84483796077759 , 5.84483796077759 , 4.565696864024086 , 3.2029154468822063 , 3.2029154468822063 , 0.7852847852600945
4.249999999999993 , 0.05 , 6421.692055111471 , -0.313512923732972 , 0.04105949744677799 , 0.0 , 4.645530980019062 , -4.403042081476432 , 4.300511295816641 , 0.38987004627223626 , 3.318292190119497 , -1.3887948243875778 , -0.24 , 0.0 , 0.3400000000000001 , 0.0 , 0.35 , -0.35 , 0.20999999999999552 , 0.0 , 5.0 , 5.0 , 0.0 , 4.0 , -2.0 , 4.0 , 6422.282219502988 , 0.33522238952681266 , -0.33522238952681266 , 0.0 , 6.004345834190902 , 6.004345834190902 , 4.592673209249233 , 3.17747255573514 , 3.17747255573514 , 0.2940087973440202
4.299999999999993 , 0.05 , 6421.214551505087 , -0.2892995181773565 , 0.027535477273129536 , 0.0 , 4.6653614281776274 , -4.234805399963029 , 4.228550596907446 , 0.40304010488489905 , 3.4142969473911977 , -1.473009864512418 , -0.24 , 0.0 , 0.3400000000000001 , 0.0 , 0.35 , -0.35 , 0.23999999999999577 , 0.0 , 5.0 , 5.0 , 0.0 , 4.0 , -2.0 , 4.0 , 6421.933759746876 , 0.3400897823247093 , -0.3400897823247093 , 0.0 , 6.160656865986549 , 6.160656865986549 , 4.600656124941776 , 3.0718786069248125 , 3.0718786069248125 , 0.034457516246382235
4.3499999999999925 , 0.05 , 6420.745784603735 , -0.2730614315021374 , 0.018465947120805067 , 0.0 , 4.685748218346332 , -4.061893788701147 , 4.15285988174412 , 0.41177639837879315 , 3.5007211238270872 , -1.5541547275326892 , -0.24 , 0.0 , 1.34 , 0.0 , 0.35 , -0.35 , 0.269999999999996 , 0.0 , 5.0 , 5.0 , 0.0 , 4.0 , -2.0 , 4.0 , 6421.534543159509 , 0.3433539719056852 , -0.3433539719056852 , 0.0 , 6.311348246174916 , 6.311348246174916 , 4.596668409203777 , 2.95549334739088 , 2.95549334739088 , -0.1927434191586973
4.399999999999992 , 0.05 , 6419.3847818952345 , -0.26217178368839655 , 0.01238370410964784 , 0.0 , 4.706797058183901 , -3.879668245557841 , 4.091997606896238 , 0.42945357719968613 , 3.793749926711944 , -0.8491232376760687 , -0.24 , 0.0 , 1.34 , 0.0 , 0.35 , -0.35 , 0.29999999999999627 , 0.0 , 5.0 , 5.0 , 0.0 , 4.0 , -2.0 , 4.0 , 6421.084698477604 , 0.3455430152114064 , -0.3455430152114064 , 0.0 , 6.455954152336629 , 6.455954152336629 , 4.582132343818886 , 2.828504505470008 , 2.828504505470008 , -0.3874194120000533
4.449999999999992 , 0.05 , 6418.035880896136 , -0.25486892640729325 , 0.008304807030586954 , 0.0 , 4.728584353232517 , -3.6829955875460527 , 4.067158358156302 , 0.44115966013521224 , 4.070601528425496 , -0.14435988268509578 , 0.040000000000000036 , 0.0 , 0.3400000000000001 , 0.0 , 0.35 , -0.35 , 1.3599999999999968 , 0.0 , 5.0 , 5.0 , 0.0 , 4.0 , -2.0 , 4.0 , 6420.584335567403 , 0.3470110398084613 , -0.3470110398084613 , 0.0 , 6.593949015318787 , 6.593949015318787 , 4.558680208463996 , 2.6910861256035212 , 2.6910861256035212 , -0.5493505364672991
4.499999999999992 , 0.05 , 6417.59353914565 , -0.1570952621964677 , 0.005569401465394655 , 0.0 , 4.750711682983681 , -3.477982476480565 , 4.0587054465813885 , 0.44347945072909195 , 4.113807598364544 , -0.223664021660739 , 0.040000000000000036 , 0.0 , 0.3400000000000001 , 0.0 , 0.35 , -0.35 , 1.389999999999997 , 0.0 , 5.0 , 5.0 , 0.0 , 4.0 , -2.0 , 4.0 , 6418.915270427189 , 0.3479955320804624 , -0.3479955320804624 , 0.0 , 6.718478869514608 , 6.718478869514608 , 4.545508584893491 , 2.279847257378526 , 2.2798472573785253 , 0.05275987481677072
4.549999999999992 , 0.05 , 6417.177033397479 , -0.09217677882899214 , 0.00373497331948818 , 0.0 , 4.772924489506684 , -3.2719497304049536 , 4.045669733199173 , 0.4448972695804296 , 4.122592919168603 , -0.2971431955035557 , 0.24 , 0.0 , 0.3400000000000001 , 0.0 , 0.35 , -0.35 , 1.4199999999999973 , 0.0 , 5.0 , 5.0 , 0.0 , 4.0 , -2.0 , 4.0 , 6417.245411786225 , 0.3486557560546208 , -0.3486557560546208 , 0.0 , 6.82227426558 , 6.822274265579999 , 4.563171461867238 , 1.8726258551447346 , 1.8726258551447343 , 0.6534489358937826
4.599999999999992 , 0.05 , 6416.789850091807 , 0.017699241524857374 , 0.002504762097680821 , 0.0 , 4.795191519103867 , -3.0662983640954637 , 4.029037369053462 , 0.445691637724206 , 4.094860045353907 , -0.3678049747446602 , 0.24 , 0.0 , 0.3400000000000001 , 0.0 , 0.35 , -0.35 , 0.4499999999999975 , 0.0 , 5.0 , 5.0 , 0.0 , 4.0 , -2.0 , 4.0 , 6415.57502267845 , 0.34909851798221564 , -0.34909851798221564 , 0.0 , 6.9057947381417275 , 6.905794738141727 , 4.610813193000342 , 1.4687338808013142 , 1.468733880801314 , 1.2516230210821715
4.6499999999999915 , 0.05 , 6416.396329279355 , 0.09091981481930961 , 0.0016797531412722807 , 0.0 , 4.817486873474532 , -2.8630532910203317 , 4.008883575487245 , 0.4460594174207047 , 4.0296480982740865 , -0.4386305176678698 , 0.24 , 0.0 , 0.3400000000000001 , 0.0 , 0.35 , -0.35 , 0.00999999999999801 , 0.0 , 5.0 , 5.0 , 0.0 , 4.0 , -2.0 , 4.0 , 6414.823187834192 , 0.3493954446801252 , -0.3493954446801252 , 0.0 , 6.974422048839755 , 6.974422048839754 , 4.6739011831700195 , 1.2852811927211403 , 1.28528119272114 , 1.247926130669597
4.699999999999991 , 0.05 , 6415.982615216955 , 0.14002327582704088 , 0.0011264824784064755 , 0.0 , 4.839792886847598 , -2.6637082489054795 , 3.985141295755648 , 0.4461388925253749 , 3.9407810836823667 , -0.5114628600538444 , 0.24 , 0.0 , 0.3400000000000001 , 0.0 , 0.35 , -0.35 , 0.03999999999999826 , 0.0 , 5.0 , 5.0 , 0.0 , 4.0 , -2.0 , 4.0 , 6414.806478015946 , 0.34959457079833134 , -0.34959457079833134 , 0.0 , 7.038310002858603 , 7.038310002858602 , 4.724709630628805 , 1.2772252875431176 , 1.2772252875431174 , 0.7656920426185917
4.749999999999991 , 0.05 , 6415.556203704269 , 0.1729532267199612 , 7.554459896384871E-4 , 0.0 , 4.862097715694319 , -2.469211244106867 , 3.957703030097192 , 0.44602620347222843 , 3.8370009729586565 , -0.5864227385905959 , 0.35 , 0.0 , 0.3400000000000001 , 0.0 , 0.35 , -0.35 , 0.06999999999999851 , 0.0 , 5.0 , 5.0 , 0.0 , 4.0 , -2.0 , 4.0 , 6414.739632372058 , 0.3497281095175877 , -0.3497281095175877 , 0.0 , 7.101684643146551 , 7.10168464314655 , 4.7517645866126115 , 1.2573060589766105 , 1.2573060589766103 , 0.318031670595476
4.799999999999991 , 0.05 , 6415.116220727536 , 0.23152391264055597 , 5.06620079939623E-4 , 0.0 , 4.884393470162591 , -2.280272541771548 , 3.9264477145944925 , 0.44578504060119195 , 3.7164019026059325 , -0.6646813080614972 , 0.32000000000000006 , 0.0 , 1.57 , 0.0 , 0.35 , -0.35 , 0.5999999999999988 , 0.0 , 5.0 , 5.0 , 0.0 , 4.0 , -2.0 , 4.0 , 6414.622645023216 , 0.34981766376442014 , -0.34981766376442014 , 0.0 , 7.163768701842946 , 7.163768701842945 , 4.757276164244327 , 1.2256144244414802 , 1.22561442444148 , -0.09621667976207272
4.849999999999991 , 0.05 , 6413.786237606453 , 0.2605960922019318 , 3.3975149635893167E-4 , 0.0 , 4.906683309347429 , -2.10249088832534 , 3.9101521948997933 , 0.44578792261342903 , 3.3823897320580265 , 0.042812228859961304 , 0.32000000000000006 , 0.0 , 1.6300000000000001 , 0.0 , 0.35 , -0.35 , 1.6599999999999993 , 0.0 , 5.0 , 5.0 , 0.0 , 4.0 , -2.0 , 4.0 , 6413.619853386566 , 0.3498777209760693 , -0.3498777209760693 , 0.0 , 7.219210801959701 , 7.2192108019597 , 4.755977091602687 , 0.9838911320442115 , 0.9838911320442113 , 0.06734242020223688
4.899999999999991 , 0.05 , 6412.437900965979 , 0.2801623240705995 , 2.2784544839180037E-4 , 0.0 , 4.928969220032154 , -1.9422034822977234 , 3.929803586728127 , 0.4456242358671181 , 3.025944455973602 , 0.7418141560494453 , 0.32000000000000006 , 0.0 , 1.6600000000000001 , 0.0 , 0.35 , -0.35 , 1.6899999999999995 , 0.0 , 5.0 , 5.0 , 0.0 , 4.0 , -2.0 , 4.0 , 6411.948486020319 , 0.34991799677312685 , -0.34991799677312685 , 0.0 , 7.258574129145333 , 7.258574129145332 , 4.773889862665522 , 0.5845715177749857 , 0.5845715177749855 , 0.6663808041505273
4.94999999999999 , 0.05 , 6411.0775544392945 , 0.2932839053475949 , 1.5279858634681718E-4 , 0.0 , 4.951243985490883 , -1.800111168824189 , 3.984203478868173 , 0.44535031277737835 , 2.655900119152372 , 1.4326608694322083 , 0.32000000000000006 , 0.0 , 0.6900000000000002 , 0.0 , 0.35 , -0.35 , 0.7199999999999998 , 0.0 , 5.0 , 5.0 , 0.0 , 4.0 , -2.0 , 4.0 , 6410.2770864892545 , 0.3499450066822465 , -0.3499450066822465 , 0.0 , 7.277846051958667 , 7.277846051958666 , 4.822144698946327 , 0.18644801563619495 , 0.18644801563619479 , 1.2632693262604018
4.99999999999999 , 0.05 , 6410.133495671839 , 0.30208355038729773 , 1.0247037258974695E-4 , 0.0 , 4.973501916055468 , -1.674061262963439 , 4.064163923634172 , 0.44495738946349706 , 2.389821411950102 , 1.7502698292741385 , 0.35 , 0.0 , 0.7200000000000002 , 0.0 , 0.35 , -0.35 , 0.75 , 0.0 , 5.0 , 5.0 , 0.0 , 4.0 , -2.0 , 4.0 , 6409.073663298154 , 0.3499631201708414 , -0.3499631201708414 , 0.0 , 7.279897681859978 , 7.279897681859977 , 4.89284825443287 , -0.0999111221704009 , -0.09991112217040107 , 1.5523127728135153
5.04999999999999 , 0.05 , 6409.142048777931 , 0.3179358228102009 , 6.871907332210921E-5 , 0.0 , 4.9957393317311345 , -1.5616148806871555 , 4.160347713368463 , 0.4445343319055569 , 2.105634929320817 , 2.097069107495956 , 0.35 , 0.0 , -0.9499999999999997 , 0.0 , 0.35 , -0.35 , 0.3100000000000005 , 0.0 , 5.0 , 5.0 , 0.0 , 4.0 , -2.0 , 4.0 , 6407.820086627184 , 0.3499752675078659 , -0.3499752675078659 , 0.0 , 7.267460097220759 , 7.267460097220758 , 4.978427006906822 , -0.3979999102870359 , -0.3979999102870361 , 1.8716359985917312
5.09999999999999 , 0.05 , 6409.142048777931 , 0.32849699881408084 , 4.608464787334959E-5 , 0.0 , 5.0179537643595165 , -1.4568849133178223 , 4.253540854923846 , 0.44404085083869205 , 2.0946663516574167 , 1.5978145633793857 , 0.35 , 0.0 , -0.9499999999999997 , 0.0 , 0.35 , -0.35 , 0.34000000000000075 , 0.0 , 5.0 , 5.0 , 0.0 , 4.0 , -2.0 , 4.0 , 6407.301938596692 , 0.3499834138014975 , -0.3499834138014975 , 0.0 , 7.24431549694125 , 7.244315496941249 , 5.068458514432451 , -0.5207385447280584 , -0.5207385447280586 , 1.7107601943988435
5.14999999999999 , 0.05 , 6409.142048777931 , 0.3355795750733082 , 3.090546287863474E-5 , 0.0 , 5.040143492382703 , -1.352424906665231 , 4.3210388873168855 , 0.44354846676046067 , 2.0837544348537222 , 1.102709559115425 , 0.35 , 0.0 , -1.4499999999999997 , 0.0 , 0.35 , -0.35 , 0.370000000000001 , 0.0 , 5.0 , 5.0 , 0.0 , 4.0 , -2.0 , 4.0 , 6406.7336449971535 , 0.3499888769001007 , -0.3499888769001007 , 0.0 , 7.214930283696579 , 7.214930283696578 , 5.1507874659547905 , -0.6550751529809851 , -0.6550751529809853 , 1.583887166560765
5.1999999999999895 , 0.05 , 6409.142048777931 , 0.3403293194625072 , 2.0725939761276216E-5 , 0.0 , 5.062308628487593 , -1.2485076604120149 , 4.363855304074762 , 0.44305717345363854 , 2.0729556174621253 , 0.6103278313811175 , 0.35 , -0.28 , -0.9499999999999997 , 0.0 , 0.35 , -0.35 , -0.8299999999999992 , 0.0 , 5.0 , 5.0 , 0.0 , 4.0 , -2.0 , 4.0 , 6406.11520623099 , 0.3499925405841881 , -0.3499925405841881 , 0.0 , 7.1785410220423715 , 7.178541022042371 , 5.22761280920798 , -0.8008756757293871 , -0.8008756757293873 , 1.4905566177911116
5.249999999999989 , 0.05 , 6409.142048777931 , 0.3435146112175145 , -0.09286229481091064 , 0.0 , 5.084449227122171 , -1.1451275634838571 , 4.382095613670527 , 0.4425669672976807 , 2.0622681501770006 , 0.11944693536020823 , 0.35 , -0.28 , -0.44999999999999973 , 0.0 , 0.35 , -0.35 , -0.8299999999999992 , 0.0 , 5.0 , 5.0 , 0.0 , 4.0 , -2.0 , 4.0 , 6406.11520623099 , 0.3499949975380282 , -0.3499949975380282 , 0.0 , 7.138390622923102 , 7.138390622923101 , 5.290167195086412 , -0.7992635245140203 , -0.7992635245140205 , 0.9960860447631588
5.299999999999989 , 0.05 , 6409.142048777931 , 0.3456507437613182 , -0.15450099614932955 , 0.0 , 5.106565342553794 , -1.0422790913702795 , 4.375806022312192 , 0.4420778446880476 , 2.051690319582941 , -0.37097035484311924 , 0.35 , -0.28 , -0.44999999999999973 , 0.0 , 0.35 , -0.35 , -0.8299999999999992 , 0.0 , 5.0 , 5.0 , 0.0 , 4.0 , -2.0 , 4.0 , 6406.11520623099 , 0.34999664522981283 , -0.34999664522981283 , 0.0 , 7.0984673220950665 , 7.098467322095066 , 5.3276643045540775 , -0.7976696540569302 , -0.7976696540569305 , 0.5041316134526925
5.349999999999989 , 0.05 , 6409.142048777931 , 0.34708328514077713 , -0.1958373778731745 , 0.0 , 5.128657028869992 , -0.9399568043531543 , 4.345013154788204 , 0.4415898020361173 , 2.041220447239014 , -0.8604742257277669 , 0.35 , -0.28 , -0.44999999999999973 , 0.0 , 0.35 , -0.35 , -0.3299999999999992 , 0.0 , 5.0 , 5.0 , 0.0 , 4.0 , -2.0 , 4.0 , 6406.11520623099 , 0.34999775021118157 , -0.34999775021118157 , 0.0 , 7.058623556012642 , 7.05862355601264 , 5.340600111219858 , -0.7960821278572517 , -0.796082127857252 , 0.013416123695450005
5.399999999999989 , 0.05 , 6409.142048777931 , 0.34804398152163374 , -0.22355854033956166 , 0.0 , 5.150724339979259 , -0.8381553457802996 , 4.28979228275842 , 0.441102835769097 , 2.030856888790914 , -1.3478773631436187 , 0.35 , -0.28 , 0.5500000000000003 , 0.0 , 0.35 , -0.35 , -0.3299999999999992 , 0.0 , 5.0 , 5.0 , 0.0 , 4.0 , -2.0 , 4.0 , 6406.11520623099 , 0.3499984912380148 , -0.3499984912380148 , 0.0 , 7.018859008409409 , 7.018859008409407 , 5.329010449626779 , -0.7945009081111113 , -0.7945009081111115 , -0.4769014681410728
5.449999999999989 , 0.05 , 6408.260454154142 , 0.3486882474042287 , -0.2421490123751085 , 0.0 , 5.169270133441515 , -0.742268856156258 , 4.225160654525403 , 0.29304765927407583 , 1.796110290899496 , -1.2132209523479915 , 0.35 , -0.28 , 1.5500000000000003 , 0.0 , 0.35 , -0.35 , 0.6700000000000008 , 0.0 , 5.0 , 5.0 , 0.0 , 4.0 , -2.0 , 4.0 , 6406.11520623099 , 0.34999898818826486 , -0.34999898818826486 , 0.0 , 6.979173364901638 , 6.979173364901636 , 5.292928707629184 , -0.7929259573143919 , -0.7929259573143921 , -0.9660517168428118
5.4999999999999885 , 0.05 , 6406.6470864631265 , 0.349120307455403 , -0.2546162258595181 , 0.0 , 5.17696433629168 , -0.6626848961060295 , 4.179927057529392 , 0.007240637728697215 , 1.3806448075472952 , -0.5770918704593608 , 0.35 , -0.28 , 1.5500000000000003 , 0.0 , 0.35 , -0.35 , 0.6700000000000008 , 0.0 , 5.0 , 5.0 , 0.0 , 4.0 , -2.0 , 4.0 , 6404.995325219145 , 0.34999932145494295 , -0.34999932145494295 , 0.0 , 6.933180576033929 , 6.933180576033927 , 5.2499324768995805 , -1.057205946428 , -1.0572059464280001 , -0.7248403373403964
5.549999999999988 , 0.05 , 6405.026917761148 , 0.34941005722000157 , -0.26297703626651814 , 0.0 , 5.169939365309959 , -0.6039624249961978 , 4.166862947387009 , -0.28988003513684774 , 0.968802963532051 , 0.053885481803693874 , 0.35 , -0.28 , 1.5500000000000003 , 0.0 , 0.08000000000000002 , -0.08000000000000002 , 0.6700000000000008 , 0.0 , 5.0 , 5.0 , 0.0 , 4.0 , -2.0 , 4.0 , 6403.8754440290495 , 0.3499995449515177 , -0.3499995449515177 , 0.0 , 6.873742047309258 , 6.873742047309256 , 5.219699226529426 , -1.320050612359607 , -1.3200506123596072 , -0.4846309403175415
